time(millisecond),datetime(utc),latitude,longitude,height_above_takeoff(meters),height_above_ground_at_drone_location(meters),ground_elevation_at_drone_location(meters),altitude_above_seaLevel(meters),height_sonar(meters),speed(m/s),distance(meters),mileage(meters),satellites,gpslevel,voltage(v),max_altitude(meters),max_ascent(meters),max_speed(m/s),max_distance(meters), xSpeed(m/s), ySpeed(m/s), zSpeed(m/s), compass_heading(degrees), pitch(degrees), roll(degrees),isPhoto,isVideo,rc_elevator,rc_aileron,rc_throttle,rc_rudder,rc_elevator(percent),rc_aileron(percent),rc_throttle(percent),rc_rudder(percent),gimbal_heading(degrees),gimbal_pitch(degrees),battery_percent,voltageCell1,voltageCell2,voltageCell3,voltageCell4,voltageCell5,voltageCell6,current(A),battery_temperature(c),altitude(meters),ascent(meters),flycStateRaw,flycState,message
392800,2022-10-12 09:43:13,45.4389333565873,9.05589746506777,0,Available with any HD 360 subscription,Available with any HD 360 subscription,119.7505646,0.1,0,0,0,15,5,0,119.7505646,0,0,0,0,0,0,61, -1.2, 1.8,0,0,1024,1024,1024,1024,0,0,0,0,0,0,40,3.823,3.826,3.826,3.828,3.828,3.83,0,,119.7505646,0,41,Motors_Started,"GEO: You are in a Warning Zone (Class D Airspace). Fly with caution."
392900,2022-10-12 09:43:13,45.4389333021667,9.0558974662307,0,,,119.7505646,0.1,0,0.00605258,0.00605258,15,5,22.961,119.7505646,0,0,0.00605258,0,0,0,60.9, -1.2, 1.8,0,0,1024,1024,1024,1024,0,0,0,0,0,0,40,3.823,3.826,3.826,3.828,3.828,3.83,0,,119.7505646,0,41,Motors_Started,
393000,2022-10-12 09:43:13,45.4389332608242,9.0558974668465,0,,,119.7505646,0.1,0,0.0106503,0.0106504,15,5,22.961,119.7505646,0,0,0.0106503,0,0,0,60.9, -1.2, 1.8,0,0,623,585,401,1564,-61,-67,-94,82,0,0,40,3.823,3.826,3.826,3.828,3.828,3.83,0,,119.7505646,0,41,Motors_Started,
393100,2022-10-12 09:43:13,45.438933225583,9.0558974920174,0,,,119.7505646,0.1,0,0.0147195,0.015034,15,5,22.961,119.7505646,0,0,0.0147195,0,0,0,60.9, -1.2, 1.8,0,0,1024,1024,1024,1024,0,0,0,0,0,0,40,3.823,3.826,3.826,3.828,3.828,3.83,0,,119.7505646,0,41,Motors_Started,
393200,2022-10-12 09:43:13,45.4389332170304,9.05589748176773,0,,,119.7505646,0.1,0,0.0155742,0.0162767,15,5,22.961,119.7505646,0,0,0.0155742,0,0,0,61, -1.2, 1.8,0,0,1024,1024,1024,1024,0,0,0,0,0,0,40,3.823,3.826,3.826,3.828,3.828,3.83,0,,119.7505646,0,41,Motors_Started,
393300,2022-10-12 09:43:13,45.4389332282675,9.05589747272678,0,,,119.7505646,0.1,0,0.0142824,0.0177117,15,5,22.961,119.7505646,0,0,0.0155742,0,0,0,61, -1.2, 1.8,0,0,1024,1024,1024,1024,0,0,0,0,0,0,40,3.823,3.826,3.826,3.828,3.828,3.83,0,,119.7505646,0,41,Motors_Started,
393400,2022-10-12 09:43:13,45.4389332293903,9.05589746866797,0,,,119.7505646,0.1,0,0.0141479,0.0180521,15,5,22.961,119.7505646,0,0,0.0155742,0,0,0,61, -1.2, 1.7,0,0,1024,1024,1024,1024,0,0,0,0,0,0,40,3.823,3.826,3.826,3.828,3.828,3.83,0,,119.7505646,0,41,Motors_Started,
393500,2022-10-12 09:43:13,45.4389331911968,9.05589747366308,0,,,119.7505646,0.1,0,0.0184047,0.0223173,15,5,22.961,119.7505646,0,0,0.0184047,0,0,0,61, -1.2, 1.8,0,0,1024,1024,1024,1024,0,0,0,0,0,0,40,3.823,3.826,3.826,3.828,3.828,3.83,0,,119.7505646,0,41,Motors_Started,
393600,2022-10-12 09:43:13,45.4389331550527,9.0558974758058,0,,,119.7505646,0.1,0,0.0224275,0.0263403,15,5,22.961,119.7505646,0,0,0.0224275,0,0,0,61, -1.2, 1.8,0,0,1024,1024,1024,1024,0,0,0,0,0,0,40,3.823,3.826,3.826,3.828,3.828,3.83,0,,119.7505646,0,41,Motors_Started,
393700,2022-10-12 09:43:14,45.4389331460995,9.05589748307412,0,,,119.7505646,0.1,0,0.0234497,0.0274861,15,5,22.961,119.7505646,0,0,0.0234497,0,0,0,61, -1.3, 1.8,0,0,1024,1024,1024,1024,0,0,0,0,0,0,40,3.823,3.826,3.826,3.828,3.828,3.83,0,,119.7505646,0,41,Motors_Started,
393800,2022-10-12 09:43:14,45.4389331423256,9.05589749386023,0,,,119.7505646,0.1,0,0.0239329,0.0284266,15,5,22.961,119.7505646,0,0,0.0239329,0,0,0,61, -1.3, 1.8,0,0,1024,1024,1024,1024,0,0,0,0,0,0,40,3.823,3.826,3.826,3.828,3.828,3.83,0,,119.7505646,0,41,Motors_Started,
393900,2022-10-12 09:43:14,45.4389331469027,9.05589751385288,0,,,119.7505646,0.1,0,0.0236269,0.0300676,15,5,22.959,119.7505646,0,0,0.0239329,0,0,0,61, -1.3, 1.8,0,0,1024,1024,1024,1024,0,0,0,0,0,0,40,3.823,3.826,3.826,3.828,3.828,3.828,0,,119.7505646,0,41,Motors_Started,
394000,2022-10-12 09:43:14,45.4389331842828,9.05589756171619,0,,,119.7505646,0.1,0,0.020592,0.0356558,15,5,22.959,119.7505646,0,0,0.0239329,0,0,0,61, -1.2, 1.8,0,0,1024,1024,1024,1024,0,0,0,0,0,0,40,3.823,3.826,3.826,3.828,3.828,3.828,0,,119.7505646,0,41,Motors_Started,
394100,2022-10-12 09:43:14,45.4389331350028,9.05589757450844,0,,,119.7505646,0.1,0,0.0260793,0.0412262,15,5,22.959,119.7505646,0,0,0.0260793,0,0,0,61, -1.2, 1.8,0,0,1024,1024,1024,1024,0,0,0,0,0,0,40,3.823,3.826,3.826,3.828,3.828,3.828,0,,119.7505646,0,41,Motors_Started,
394200,2022-10-12 09:43:14,45.4389330895497,9.05589758661238,0,,,119.7505646,0.2,0,0.0311739,0.0463683,15,5,22.959,119.7505646,0,0,0.0311739,0,0,0,61, -1.3, 1.8,0,0,1024,1024,1024,1024,0,0,0,0,0,0,40,3.823,3.826,3.826,3.828,3.828,3.828,0,,119.7505646,0,41,Motors_Started,
394300,2022-10-12 09:43:14,45.4389330743189,9.05589758392787,0,,,119.7505646,0.2,0,0.0327315,0.048075,15,5,22.959,119.7505646,0,0,0.0327315,0,0,0,61, -1.3, 1.8,0,0,1024,1024,1024,1024,0,0,0,0,0,0,40,3.823,3.826,3.826,3.828,3.828,3.828,0,,119.7505646,0,10,Assisted_Takeoff,
394400,2022-10-12 09:43:14,45.4389330370861,9.05589755019219,0,,,119.7505646,0.1,0,0.036146,0.0529814,15,5,22.959,119.7505646,0,0,0.036146,0,0,0,61, -1.2, 1.8,0,0,1024,1024,1024,1024,0,0,0,0,0,0,40,3.823,3.826,3.826,3.828,3.828,3.828,0,,119.7505646,0,10,Assisted_Takeoff,
394500,2022-10-12 09:43:14,45.4389330317562,9.05589753165702,0,,,119.7505646,0.1,0,0.036495,0.0545445,15,5,22.959,119.7505646,0,0,0.036495,0,0,0,61, -1.3, 1.8,0,0,1024,1024,1024,1024,0,0,0,0,0,0,40,3.823,3.826,3.826,3.828,3.828,3.828,0,,119.7505646,0,10,Assisted_Takeoff,
394600,2022-10-12 09:43:14,45.4389330320913,9.05589750009534,0,,,119.7505646,0.1,0,0.0361893,0.0570075,15,5,22.959,119.7505646,0,0,0.036495,0,0,0,61, -1.3, 1.8,0,0,1024,1024,1024,1024,0,0,0,0,0,0,40,3.823,3.826,3.826,3.828,3.828,3.828,0,,119.7505646,0,10,Assisted_Takeoff,
394700,2022-10-12 09:43:15,45.4389330411479,9.05589742942896,0,,,119.7505646,0.1,0,0.0351888,0.0626128,15,5,22.959,119.7505646,0,0,0.036495,0,0,0,61, -1.2, 1.8,0,0,1024,1024,1024,1024,0,0,0,0,0,0,40,3.823,3.826,3.826,3.828,3.828,3.828,0,,119.7505646,0,10,Assisted_Takeoff,
394800,2022-10-12 09:43:15,45.4389331210271,9.05589727623186,0,,,119.7505646,0.1,0,0.0300555,0.077506,15,5,22.959,119.7505646,0,0,0.036495,0,0,0,61, -1.2, 1.8,0,0,1024,1024,1024,1024,0,0,0,0,0,0,40,3.823,3.826,3.826,3.828,3.828,3.828,0,,119.7505646,0,10,Assisted_Takeoff,
394900,2022-10-12 09:43:15,45.4389331354091,9.05589723730267,0,,,119.7505646,0.1,0,0.0303454,0.0809389,15,5,22.959,119.7505646,0,0,0.036495,0,0,0,61, -1.3, 1.8,0,0,1024,1024,1024,1024,0,0,0,0,0,0,40,3.823,3.826,3.826,3.828,3.828,3.828,0,,119.7505646,0,10,Assisted_Takeoff,
395000,2022-10-12 09:43:15,45.4389331404068,9.05589720954265,0,,,119.7505646,0.1,0,0.0312329,0.0831752,15,5,22.856,119.7505646,0,0,0.036495,0,0,0,61, -1.2, 1.8,0,0,1024,1024,1024,1024,0,0,0,0,0,0,40,3.805,3.813,3.808,3.81,3.81,3.81,0,,119.7505646,0,10,Assisted_Takeoff,
395100,2022-10-12 09:43:15,45.4389331069224,9.05589720954265,0,,,119.7505646,0.1,0,0.0341819,0.0868989,15,5,22.856,119.7505646,0,0,0.036495,0,0,0,61, -1.3, 1.8,0,0,1024,1024,1024,1024,0,0,0,0,0,0,40,3.805,3.813,3.808,3.81,3.81,3.81,0,,119.7505646,0,10,Assisted_Takeoff,
395200,2022-10-12 09:43:15,45.4389330385269,9.05589731739459,0,,,119.7505646,0.1,0,0.0371999,0.0982424,15,5,22.856,119.7505646,0,0,0.0371999,0,0,0,61, -1.3, 1.8,0,0,1024,1024,1024,1024,0,0,0,0,0,0,40,3.805,3.813,3.808,3.81,3.81,3.81,0,,119.7505646,0,10,Assisted_Takeoff,
395300,2022-10-12 09:43:15,45.4389330357777,9.05589733591602,0,,,119.7505646,0.1,0,0.037072,0.0997196,15,5,22.856,119.7505646,0,0,0.0371999,0,0,0,61, -1.3, 1.8,0,0,1024,1024,1024,1024,0,0,0,0,0,0,40,3.805,3.813,3.808,3.81,3.81,3.81,0,,119.7505646,0,10,Assisted_Takeoff,
395400,2022-10-12 09:43:15,45.4389330343727,9.05589735500671,0,,,119.7505646,0.1,0,0.036847,0.101217,15,5,22.856,119.7505646,0,0,0.0371999,0,0,0,61, -1.2, 1.8,0,0,1024,1024,1024,1024,0,0,0,0,0,0,40,3.805,3.813,3.808,3.81,3.81,3.81,0,,119.7505646,0,10,Assisted_Takeoff,
395500,2022-10-12 09:43:15,45.4389330398256,9.0558973906768,0,,,119.7505646,0.1,0,0.0357009,0.104066,15,5,22.856,119.7505646,0,0,0.0371999,0,0,0,61, -1.3, 1.8,0,0,1024,1024,1024,1024,0,0,0,0,0,0,40,3.805,3.813,3.808,3.81,3.81,3.81,0,,119.7505646,0,10,Assisted_Takeoff,
395600,2022-10-12 09:43:15,45.4389330445574,9.05589741686335,0,,,119.7505646,0.1,0,0.0349029,0.106176,15,5,22.856,119.7505646,0,0,0.0371999,0,0,0,61, -1.2, 1.8,0,0,1024,1024,1024,1024,0,0,0,0,0,0,40,3.805,3.813,3.808,3.81,3.81,3.81,0,,119.7505646,0,10,Assisted_Takeoff,
395700,2022-10-12 09:43:15,45.4389330787295,9.0558974736234,0,,,119.7505646,0.1,0,0.0309067,0.112012,15,5,22.856,119.7505646,0,0,0.0371999,0,0,0,61, -1.2, 1.8,0,0,1024,1024,1024,1024,0,0,0,0,0,0,40,3.805,3.813,3.808,3.81,3.81,3.81,0,,119.7505646,0,10,Assisted_Takeoff,
395800,2022-10-12 09:43:16,45.4389330710359,9.05589748894448,0,,,119.7505646,0.1,0,0.0318097,0.113482,15,5,22.856,119.7505646,0,0,0.0371999,0,0,0,61, -1.2, 1.8,0,0,1024,1024,1024,1024,0,0,0,0,0,0,40,3.805,3.813,3.808,3.81,3.81,3.81,0,,119.7505646,0,10,Assisted_Takeoff,
395900,2022-10-12 09:43:16,45.4389330207105,9.05589749887671,0,,,119.7505646,0.1,0,0.0374446,0.119132,15,5,22.856,119.7505646,0,0,0.0374446,0,0,0,61, -1.2, 1.8,0,0,1024,1024,1024,1024,0,0,0,0,0,0,40,3.805,3.813,3.808,3.81,3.81,3.81,0,,119.7505646,0,10,Assisted_Takeoff,
396000,2022-10-12 09:43:16,45.4389329784117,9.05589751402304,0,,,119.7505646,0.1,0,0.0422286,0.123982,15,5,22.934,119.7505646,0,0,0.0422286,0,0,0,61, -1.2, 1.8,0,0,1024,1024,1024,1024,0,0,0,0,0,0,40,3.818,3.823,3.821,3.825,3.824,3.823,0,,119.7505646,0,10,Assisted_Takeoff,
396100,2022-10-12 09:43:16,45.4389328905807,9.05589749583584,0,,,119.7505646,0.1,0,0.0518783,0.133852,15,5,22.934,119.7505646,0,0,0.0518783,0,0,0,61, -1.2, 1.8,0,0,1024,1024,1024,1024,0,0,0,0,0,0,40,3.818,3.823,3.821,3.825,3.824,3.823,0,,119.7505646,0,10,Assisted_Takeoff,
396200,2022-10-12 09:43:16,45.4389328805007,9.05589751005122,0,,,119.7505646,0.1,0,0.05306,0.135429,15,5,22.934,119.7505646,0,0,0.05306,0,0,0,61, -1.2, 1.8,0,0,1024,1024,1024,1024,0,0,0,0,0,0,40,3.818,3.823,3.821,3.825,3.824,3.823,0,,119.7505646,0,10,Assisted_Takeoff,
396300,2022-10-12 09:43:16,45.4389328830891,9.05589753134873,0,,,119.7505646,0.1,0,0.0529093,0.137115,15,5,22.934,119.7505646,0,0,0.05306,0,0,0,61, -1.2, 1.8,0,0,1024,1024,1024,1024,0,0,0,0,0,0,40,3.818,3.823,3.821,3.825,3.824,3.823,0,,119.7505646,0,10,Assisted_Takeoff,
396400,2022-10-12 09:43:16,45.4389328886054,9.0558975538954,0,,,119.7505646,0.1,0,0.052502,0.138979,15,5,22.934,119.7505646,0,0,0.05306,0,0,0,61, -1.2, 1.8,0,0,1024,1024,1024,1024,0,0,0,0,0,0,40,3.818,3.823,3.821,3.825,3.824,3.823,0,,119.7505646,0,10,Assisted_Takeoff,
396500,2022-10-12 09:43:16,45.4389329444285,9.05589754932457,0,,,119.7505646,0.1,0,0.0463037,0.145197,15,5,22.934,119.7505646,0,0,0.05306,0,0,0,61, -1.2, 1.8,0,0,1024,1024,1024,1024,0,0,0,0,0,0,40,3.818,3.823,3.821,3.825,3.824,3.823,0,,119.7505646,0,10,Assisted_Takeoff,
396600,2022-10-12 09:43:16,45.4389329327941,9.05589757119896,0,,,119.7505646,0.1,0,0.0478505,0.147339,15,5,22.934,119.7505646,0,0,0.05306,0,0,0,61, -1.2, 1.8,0,0,1024,1024,1024,1024,0,0,0,0,0,0,40,3.818,3.823,3.821,3.825,3.824,3.823,0,,119.7505646,0,10,Assisted_Takeoff,
396700,2022-10-12 09:43:16,45.4389328789439,9.05589758649868,0,,,119.7505646,0.1,0,0.0539554,0.153445,15,5,22.934,119.7505646,0,0,0.0539554,0,0,0,61, -1.2, 1.8,0,0,1024,1024,1024,1024,0,0,0,0,0,0,40,3.818,3.823,3.821,3.825,3.824,3.823,0,,119.7505646,0,10,Assisted_Takeoff,
396800,2022-10-12 09:43:17,45.4389328303267,9.05589759658276,0,,,119.7505646,0.1,0,0.0594163,0.158908,15,5,22.934,119.7505646,0,0,0.0594163,0,0,0,61, -1.2, 1.8,0,0,1024,1024,1033,1024,0,0,1,0,0,0,40,3.818,3.823,3.821,3.825,3.824,3.823,0,,119.7505646,0,10,Assisted_Takeoff,
396900,2022-10-12 09:43:17,45.4389327501551,9.05589753149448,0,,,119.7505646,0.1,0,0.0676378,0.169169,15,5,22.934,119.7505646,0,0,0.0676378,0,0,0,61, -1.2, 1.7,0,0,1024,1024,1033,1024,0,0,1,0,0,0,40,3.818,3.823,3.821,3.825,3.824,3.823,0,,119.7505646,0,10,Assisted_Takeoff,
397000,2022-10-12 09:43:17,45.4389327226548,9.05589752722811,0,,,119.7505646,0.1,0,0.0706638,0.172245,15,5,22.934,119.7505646,0,0,0.0706638,0,0,0,61, -1.2, 1.7,0,0,1024,1024,1033,1024,0,0,1,0,0,0,40,3.818,3.823,3.821,3.825,3.824,3.823,0,,119.7505646,0,10,Assisted_Takeoff,
397100,2022-10-12 09:43:17,45.4389326698989,9.05589751182996,0,,,119.7505646,0.1,0,0.0764511,0.178234,15,5,22.934,119.7505646,0,0,0.0764511,0,0,0,61, -1.2, 1.7,0,0,1024,1024,1029,1024,0,0,1,0,0,0,40,3.818,3.823,3.821,3.825,3.824,3.823,0,,119.7505646,0,10,Assisted_Takeoff,
397200,2022-10-12 09:43:17,45.4389326281488,9.05589749509565,0,,,119.7505646,0.1,0,0.0810407,0.183057,15,5,22.934,119.7505646,0,0,0.0810407,0,0,0,61, -1.2, 1.7,0,0,1024,1024,1024,1024,0,0,0,0,0,0,40,3.818,3.823,3.821,3.825,3.824,3.823,0,,119.7505646,0,10,Assisted_Takeoff,
397300,2022-10-12 09:43:17,45.4389326196712,9.05589747672684,0,,,119.7505646,0.1,0,0.0819546,0.184772,15,5,22.934,119.7505646,0,0,0.0819546,0,0,0,61, -1.2, 1.7,0,0,1024,1024,1024,1024,0,0,0,0,0,0,40,3.818,3.823,3.821,3.825,3.824,3.823,0,,119.7505646,0,10,Assisted_Takeoff,
397400,2022-10-12 09:43:17,45.4389326152548,9.05589740726154,0,,,119.7505646,0.1,0,0.082564,0.190215,15,5,22.934,119.7505646,0,0,0.082564,0,0,0,61, -1.2, 1.7,0,0,1024,1024,1024,1024,0,0,0,0,0,0,40,3.818,3.823,3.821,3.825,3.824,3.823,0,,119.7505646,0,10,Assisted_Takeoff,
397500,2022-10-12 09:43:17,45.4389326262151,9.05589739726446,0,,,119.7505646,0.1,0,0.081394,0.191662,15,5,22.934,119.7505646,0,0,0.082564,0,0,0,61, -1.2, 1.7,0,0,1026,1024,1024,1024,0,0,0,0,0,0,40,3.818,3.823,3.821,3.825,3.824,3.823,0,,119.7505646,0,10,Assisted_Takeoff,
397600,2022-10-12 09:43:17,45.4389326391254,9.05589738942459,0,,,119.7505646,0.1,0,0.0800042,0.193223,15,5,22.934,119.7505646,0,0,0.082564,0,0,0,61, -1.2, 1.7,0,0,1092,1024,1024,1024,10,0,0,0,0,0,40,3.818,3.823,3.821,3.825,3.824,3.823,0,,119.7505646,0,10,Assisted_Takeoff,
397700,2022-10-12 09:43:18,45.438932653314,9.05589738677594,0,,,119.7505646,0.1,0,0.0784465,0.194814,15,5,22.934,119.7505646,0,0,0.082564,0,0,0,61, -1.2, 1.7,0,0,1148,1024,1024,1024,19,0,0,0,0,0,40,3.818,3.823,3.821,3.825,3.824,3.823,0,,119.7505646,0,10,Assisted_Takeoff,
397800,2022-10-12 09:43:18,45.438932744585,9.05589738786944,0,,,119.7505646,0.1,0,0.0683244,0.204964,15,5,22.934,119.7505646,0,0,0.082564,0,0,0,61, -1.2, 1.7,0,0,1148,1024,1024,1024,19,0,0,0,0,0,40,3.818,3.823,3.821,3.825,3.824,3.823,0,,119.7505646,0,10,Assisted_Takeoff,
397900,2022-10-12 09:43:18,45.4389327036468,9.05589739133458,0,,,119.7505646,0.1,0,0.0728385,0.209525,15,5,22.934,119.7505646,0,0,0.082564,0,0,0,61, -1.2, 1.7,0,0,1170,1024,1056,1024,22,0,5,0,0,0,40,3.818,3.823,3.821,3.825,3.824,3.823,0,,119.7505646,0,10,Assisted_Takeoff,
398000,2022-10-12 09:43:18,45.438932666221,9.05589739467304,0,,,119.7505646,0.1,0,0.0769692,0.213695,15,5,22.934,119.7505646,0,0,0.082564,0,0,0,61, -1.2, 1.8,0,0,1179,1024,1125,1024,23,0,15,0,0,0,40,3.818,3.823,3.821,3.825,3.824,3.823,0,,119.7505646,0,10,Assisted_Takeoff,
398100,2022-10-12 09:43:18,45.4389326538074,9.05589740148351,0,,,119.7505646,0.1,0,0.0783107,0.215174,15,5,22.931,119.7505646,0,0,0.082564,0,0,0,61, -1.2, 1.8,0,0,1180,1024,1169,1024,24,0,22,0,0,0,40,3.817,3.823,3.821,3.823,3.824,3.823,0,,119.7505646,0,10,Assisted_Takeoff,
398200,2022-10-12 09:43:18,45.4389325921114,9.05589742296874,0,,,119.7505646,0.1,0,0.0850778,0.222237,15,5,22.931,119.7505646,0,0,0.0850778,0,0,0,61, -1.3, 1.8,0,0,1207,1024,1191,1024,28,0,25,0,0,0,40,3.817,3.823,3.821,3.823,3.824,3.823,0,,119.7505646,0,10,Assisted_Takeoff,
398300,2022-10-12 09:43:18,45.4389325964805,9.05589742280392,0,,,119.7505646,0.1,0,0.0845928,0.222723,15,5,22.931,119.7505646,0,0,0.0850778,0,0,0,61, -1.3, 1.8,0,0,1215,1024,1200,1024,29,0,27,0,0,0,40,3.817,3.823,3.821,3.823,3.824,3.823,0,,119.7505646,0,10,Assisted_Takeoff,
398400,2022-10-12 09:43:18,45.4389325930086,9.05589742117398,0,,,119.7505646,0.1,0,0.0849836,0.22313,14,5,22.931,119.7505646,0,0,0.0850778,0,0,0,61, -1.3, 1.7,0,0,1234,1024,1236,1024,32,0,32,0,0,0,40,3.817,3.823,3.821,3.823,3.824,3.823,0,,119.7505646,0,10,Assisted_Takeoff,
398500,2022-10-12 09:43:18,45.4389325506373,9.0558974258547,0,,,119.7505646,0.1,0,0.0896788,0.227856,14,5,22.931,119.7505646,0,0,0.0896788,0,0,0,61, -1.3, 1.7,0,0,1257,1024,1214,1024,35,0,29,0,0,0,40,3.817,3.823,3.821,3.823,3.824,3.823,0,,119.7505646,0,10,Assisted_Takeoff,
398600,2022-10-12 09:43:18,45.4389324989961,9.05589743389144,0,,,119.7505646,0.1,0,0.0954004,0.233633,14,5,22.931,119.7505646,0,0,0.0954004,0,0,0,61, -1.3, 1.7,0,0,1288,1024,1200,1024,40,0,27,0,0,0,40,3.817,3.823,3.821,3.823,3.824,3.823,0,,119.7505646,0,10,Assisted_Takeoff,
398700,2022-10-12 09:43:19,45.4389324982601,9.05589743959316,0,,,119.7505646,0.1,0,0.0954719,0.234085,14,5,22.931,119.7505646,0,0,0.0954719,0,0,0,61, -1.4, 1.7,0,0,1312,1024,1199,1024,44,0,27,0,0,0,40,3.817,3.823,3.821,3.823,3.824,3.823,0,,119.7505646,0,10,Assisted_Takeoff,
398800,2022-10-12 09:43:19,45.4389325078093,9.05589744645324,0,,,119.7505646,0.1,0,0.0944005,0.235274,14,5,22.931,119.7505646,0,0,0.0954719,0,0,0,60.9, -1.7, 1.6,0,0,1323,1024,1175,1024,45,0,23,0,0,0,40,3.817,3.823,3.821,3.823,3.824,3.823,0,,119.7505646,0,10,Assisted_Takeoff,
398900,2022-10-12 09:43:19,45.4389325326235,9.05589746889613,0,,,119.7505646,0.1,0,0.0916303,0.238542,14,5,22.931,119.7505646,0,0,0.0954719,0,0,0,60.8, -2.3, 1.5,0,0,1332,1024,1183,1024,47,0,24,0,0,0,40,3.817,3.823,3.821,3.823,3.824,3.823,0,,119.7505646,0,10,Assisted_Takeoff,
399000,2022-10-12 09:43:19,45.4389325454491,9.05589752268474,0,,,119.7505646,0.2,0,0.0903155,0.242975,14,5,22.931,119.7505646,0,0,0.0954719,0,0,0,60.8, -3.6, 1.5,0,0,1337,1024,1173,1024,47,0,23,0,0,0,40,3.817,3.823,3.821,3.823,3.824,3.823,0,,119.7505646,0,10,Assisted_Takeoff,
399100,2022-10-12 09:43:19,45.4389324995734,9.05589764237127,0,,,119.7505646,0.2,0.1,0.0963041,0.253617,14,5,22.936,119.7505646,0,0.1,0.0963041,0,0.1,-0.2,60.9, -5, 1.3,0,0,1341,1024,1183,1024,48,0,24,0,0,0,40,3.818,3.823,3.821,3.825,3.824,3.825,0,,119.7505646,0,10,Assisted_Takeoff,
399200,2022-10-12 09:43:19,45.4389325123697,9.0558978660806,0,,,119.7505646,0.2,0.2,0.0989595,0.271131,14,5,22.936,119.7505646,0,0.2,0.0989595,0,0.2,-0.3,61, -6, 0.8,0,0,1353,1024,1164,1024,50,0,21,0,0,0,40,3.818,3.823,3.821,3.825,3.824,3.825,0,,119.7505646,0,6,P-GPS,
399300,2022-10-12 09:43:19,45.4389325869386,9.05589823700374,0,,,119.7505646,0.2,0.32,0.10466,0.301239,14,5,22.936,119.7505646,0,0.32,0.10466,0.1,0.3,-0.5,61.1, -6.9, 0.2,0,0,1365,1024,1154,1024,52,0,20,0,0,0,40,3.818,3.823,3.821,3.825,3.824,3.825,0,,119.7505646,0,6,P-GPS,
399400,2022-10-12 09:43:19,45.438932710842,9.0558987234859,0.1,,,119.8505646,0.3,0.32,0.121651,0.341622,14,5,22.936,119.8505646,0.1,0.32,0.121651,0.1,0.4,-0.5,61.1, -7.3, 0,0,0,1396,1024,1148,1024,56,0,19,0,0,0,40,3.818,3.823,3.821,3.825,3.824,3.825,0,,119.8505646,0.1,6,P-GPS,
399500,2022-10-12 09:43:19,45.4389328968226,9.05589941138866,0.1,,,119.8505646,0.4,0.54,0.160247,0.399146,14,5,22.936,119.8505646,0.1,0.54,0.160247,0.2,0.5,-0.5,61.1, -7.6, -0.1,0,0,1388,1024,1142,1024,55,0,18,0,0,0,40,3.818,3.823,3.821,3.825,3.824,3.825,0,,119.8505646,0.1,6,P-GPS,
399600,2022-10-12 09:43:19,45.4389331363349,9.05590017995335,0.2,,,119.9505646,0.4,0.67,0.213253,0.464766,15,5,22.936,119.9505646,0.2,0.67,0.213253,0.3,0.6,-0.4,61.1, -8, 0,0,0,1366,1024,1138,1024,52,0,17,0,0,0,40,3.818,3.823,3.821,3.825,3.824,3.825,0,,119.9505646,0.2,6,P-GPS,
399700,2022-10-12 09:43:20,45.4389334751689,9.05590119041535,0.2,,,119.9505646,0.5,0.76,0.290987,0.552153,15,5,22.936,119.9505646,0.2,0.76,0.290987,0.3,0.7,-0.3,61.1, -9.1, 0,0,0,1342,1024,1152,1024,48,0,19,0,0,0,40,3.818,3.823,3.821,3.825,3.824,3.825,0,,119.9505646,0.2,6,P-GPS,
399800,2022-10-12 09:43:20,45.4389338497098,9.05590226062636,0.3,,,120.0505646,0.5,0.76,0.378194,0.645472,15,5,22.936,120.0505646,0.3,0.76,0.378194,0.4,0.8,-0.2,61.1, -9.7, 0,0,0,1334,1024,1144,1024,47,0,18,0,0,0,40,3.818,3.823,3.821,3.825,3.824,3.825,0,,120.0505646,0.3,6,P-GPS,
399900,2022-10-12 09:43:20,45.4389343870784,9.05590354691059,0.3,,,120.0505646,0.5,1.03,0.488206,0.762284,15,5,22.936,120.0505646,0.3,1.03,0.488206,0.5,0.9,-0.2,61.1, -9.7, 0,0,0,1333,1024,1150,1024,47,0,19,0,0,0,40,3.818,3.823,3.821,3.825,3.824,3.825,0,,120.0505646,0.3,6,P-GPS,
400000,2022-10-12 09:43:20,45.4389348845269,9.05590485695554,0.3,,,120.0505646,0.5,1.12,0.601295,0.878515,15,5,22.936,120.0505646,0.3,1.12,0.601295,0.5,1,-0.1,61, -9.3, 0,0,0,1324,1024,1151,1024,45,0,19,0,0,0,40,3.818,3.823,3.821,3.825,3.824,3.825,0,,120.0505646,0.3,6,P-GPS,
400100,2022-10-12 09:43:20,45.4389354725495,9.05590648035855,0.3,,,120.0505646,0.6,1.34,0.741774,1.02107,15,5,22.561,120.0505646,0.3,1.34,0.741774,0.6,1.2,-0.1,61.1, -8.7, 0,0,0,1330,1024,1153,1024,46,0,20,0,0,0,40,3.752,3.763,3.756,3.763,3.765,3.762,0,,120.0505646,0.3,6,P-GPS,
400200,2022-10-12 09:43:20,45.4389360961573,9.05590817495369,0.3,,,120.0505646,0.6,1.48,0.889492,1.17038,15,5,22.561,120.0505646,0.3,1.48,0.889492,0.7,1.3,-0.1,61.1, -8, 0.2,0,0,1321,1024,1153,1024,45,0,20,0,0,0,40,3.752,3.763,3.756,3.763,3.765,3.762,0,,120.0505646,0.3,6,P-GPS,
400300,2022-10-12 09:43:20,45.4389368815188,9.05591051594319,0.3,,,120.0505646,0.6,1.48,1.0912,1.37285,15,5,22.561,120.0505646,0.3,1.48,1.0912,0.7,1.3,-0.1,61, -7.3, 0.3,0,0,1313,1024,1155,1024,44,0,20,0,0,0,40,3.752,3.763,3.756,3.763,3.765,3.762,0,,120.0505646,0.3,6,P-GPS,
400400,2022-10-12 09:43:20,45.4389376193002,9.05591250202198,0.4,,,120.1505646,0.6,1.61,1.26547,1.54821,15,5,22.561,120.1505646,0.4,1.61,1.26547,0.8,1.4,-0.1,61, -6.9, 0.2,0,0,1285,1024,1161,1024,40,0,21,0,0,0,40,3.752,3.763,3.756,3.763,3.765,3.762,0,,120.1505646,0.4,6,P-GPS,
400500,2022-10-12 09:43:20,45.4389384346724,9.05591464528571,0.4,,,120.1505646,0.6,1.7,1.45466,1.73844,15,5,22.561,120.1505646,0.4,1.7,1.45466,0.8,1.5,-0.1,60.9, -6.5, 0.2,0,0,1271,1024,1162,1024,37,0,21,0,0,0,40,3.752,3.763,3.756,3.763,3.765,3.762,0,,120.1505646,0.4,6,P-GPS,
400600,2022-10-12 09:43:20,45.4389392453876,9.05591674409862,0.4,,,120.1505646,0.6,1.7,1.6407,1.92539,15,5,22.561,120.1505646,0.4,1.7,1.6407,0.8,1.5,-0.1,60.9, -6.2, 0.1,0,0,1254,1024,1160,1024,35,0,21,0,0,0,40,3.752,3.763,3.756,3.763,3.765,3.762,0,,120.1505646,0.4,6,P-GPS,
400700,2022-10-12 09:43:20,45.4389401323753,9.05591897527201,0.4,,,120.1505646,0.7,1.92,1.83982,2.12549,15,5,22.561,120.1505646,0.4,1.92,1.83982,0.9,1.7,-0.1,60.8, -5.6, 0.3,0,0,1204,1024,1156,1024,27,0,20,0,0,0,40,3.752,3.763,3.756,3.763,3.765,3.762,0,,120.1505646,0.4,6,P-GPS,
400800,2022-10-12 09:43:21,45.4389410708144,9.05592113085488,0.4,,,120.1505646,0.7,1.92,2.03618,2.32344,15,5,22.561,120.1505646,0.4,1.92,2.03618,0.9,1.7,-0.1,60.7, -4.7, 0.5,0,0,1168,1024,1151,1024,22,0,19,0,0,0,40,3.752,3.763,3.756,3.763,3.765,3.762,0,,120.1505646,0.4,6,P-GPS,
400900,2022-10-12 09:43:21,45.4389419427817,9.05592344281688,0.5,,,120.2505646,0.7,2.01,2.24067,2.52825,15,5,22.561,120.2505646,0.5,2.01,2.24067,0.9,1.8,-0.1,60.7, -3.5, 0.4,0,0,1146,1024,1149,1024,18,0,19,0,0,0,40,3.752,3.763,3.756,3.763,3.765,3.762,0,,120.2505646,0.5,6,P-GPS,
401000,2022-10-12 09:43:21,45.4389427885654,9.05592569312522,0.5,,,120.2505646,0.7,2.06,2.43962,2.72744,15,5,22.561,120.2505646,0.5,2.06,2.43962,1,1.8,-0.1,60.6, -2, 0.2,0,0,1120,1024,1143,1024,15,0,18,0,0,0,40,3.752,3.763,3.756,3.763,3.765,3.762,0,,120.2505646,0.5,6,P-GPS,
401100,2022-10-12 09:43:21,45.4389437157347,9.05592812157568,0.5,,,120.2505646,0.8,2.06,2.65506,2.94317,15,5,22.478,120.2505646,0.5,2.06,2.65506,1,1.8,-0.1,60.7, -0.4, -0.1,0,0,1081,1024,1134,1024,9,0,17,0,0,0,40,3.737,3.75,3.741,3.75,3.752,3.748,0,,120.2505646,0.5,6,P-GPS,
401200,2022-10-12 09:43:21,45.4389444092918,9.05593026821833,0.5,,,120.2505646,0.8,1.92,2.83944,3.12758,15,5,22.478,120.2505646,0.5,2.06,2.83944,0.9,1.7,-0.1,60.7, 0.8, 0,0,0,1051,1024,1125,1024,4,0,15,0,0,0,40,3.737,3.75,3.741,3.75,3.752,3.748,0,,120.2505646,0.5,6,P-GPS,
401300,2022-10-12 09:43:21,45.43894530072,9.05593254919325,0.5,,,120.2505646,0.8,1.84,3.04282,3.3313,15,5,22.478,120.2505646,0.5,2.06,3.04282,0.9,1.6,-0.2,60.8, 1.6, 0.5,0,0,1024,1024,1112,1024,0,0,13,0,0,0,40,3.737,3.75,3.741,3.75,3.752,3.748,0,,120.2505646,0.5,6,P-GPS,
401400,2022-10-12 09:43:21,45.4389461393784,9.05593463732001,0.6,,,120.3505646,0.8,1.84,3.23015,3.51904,15,5,22.478,120.3505646,0.6,2.06,3.23015,0.9,1.6,-0.1,60.9, 1.8, 0.7,0,0,1024,1024,1096,1024,0,0,11,0,0,0,40,3.737,3.75,3.741,3.75,3.752,3.748,0,,120.3505646,0.6,6,P-GPS,
401500,2022-10-12 09:43:21,45.4389470289261,9.05593673187189,0.6,,,120.3505646,0.9,1.7,3.42049,3.71009,15,5,22.478,120.3505646,0.6,2.06,3.42049,0.8,1.5,-0.1,60.9, 2.5, 0.6,0,0,1024,1024,1070,1024,0,0,7,0,0,0,40,3.737,3.75,3.741,3.75,3.752,3.748,0,,120.3505646,0.6,6,P-GPS,
401600,2022-10-12 09:43:21,45.4389478068468,9.0559384693154,0.6,,,120.3505646,0.9,1.7,3.58043,3.87091,15,5,22.478,120.3505646,0.6,2.06,3.58043,0.8,1.5,-0.1,61, 6.1, 0.6,0,0,1024,1024,1043,1024,0,0,3,0,0,0,40,3.737,3.75,3.741,3.75,3.752,3.748,0,,120.3505646,0.6,6,P-GPS,
401700,2022-10-12 09:43:21,45.4389485331516,9.05594028589927,0.6,,,120.3505646,0.9,1.48,3.74336,4.03406,15,5,22.478,120.3505646,0.6,2.06,3.74336,0.7,1.3,0,61, 9.9, 0.8,0,0,1024,1024,1025,1024,0,0,0,0,0,0,40,3.737,3.75,3.741,3.75,3.752,3.748,0,,120.3505646,0.6,6,P-GPS,
401800,2022-10-12 09:43:22,45.4389491426171,9.05594182446019,0.6,,,120.3505646,0.9,1.34,3.88108,4.17192,15,5,22.478,120.3505646,0.6,2.06,3.88108,0.6,1.2,0,61, 12, 0.7,0,0,1024,1024,1024,1024,0,0,0,0,0,0,40,3.737,3.75,3.741,3.75,3.752,3.748,0,,120.3505646,0.6,6,P-GPS,
401900,2022-10-12 09:43:22,45.4389496661781,9.05594317050565,0.6,,,120.3505646,0.9,1.12,4.00109,4.29201,15,5,22.478,120.3505646,0.6,2.06,4.00109,0.5,1,0,60.9, 12.7, 0.4,0,0,1024,1024,1024,1024,0,0,0,0,0,0,40,3.737,3.75,3.741,3.75,3.752,3.748,0,,120.3505646,0.6,6,P-GPS,
402000,2022-10-12 09:43:22,45.4389499661668,9.0559438910712,0.6,,,120.3505646,0.9,0.81,4.06633,4.35739,15,5,22.478,120.3505646,0.6,2.06,4.06633,0.4,0.7,0,60.9, 12.4, 0.5,0,0,1024,1024,1024,1024,0,0,0,0,0,0,40,3.737,3.75,3.741,3.75,3.752,3.748,0,,120.3505646,0.6,6,P-GPS,
402100,2022-10-12 09:43:22,45.4389503683094,9.05594479029471,0.6,,,120.3505646,0.9,0.58,4.14916,4.44059,15,5,22.371,120.3505646,0.6,2.06,4.14916,0.3,0.5,0,61, 11, 0.8,0,0,1024,1024,1024,1024,0,0,0,0,0,0,40,3.718,3.735,3.723,3.731,3.734,3.73,0,,120.3505646,0.6,6,P-GPS,
402200,2022-10-12 09:43:22,45.4389506365158,9.05594541118394,0.6,,,120.3505646,0.9,0.32,4.20588,4.49749,15,5,22.371,120.3505646,0.6,2.06,4.20588,0.1,0.3,0,61, 9.3, 0.5,0,0,1024,1024,1024,1024,0,0,0,0,0,0,40,3.718,3.735,3.723,3.731,3.734,3.73,0,,120.3505646,0.6,6,P-GPS,
402300,2022-10-12 09:43:22,45.4389507569238,9.0559457787129,0.6,,,120.3505646,0.9,0.22,4.23751,4.52914,15,5,22.371,120.3505646,0.6,2.06,4.23751,0.1,0.2,0,60.9, 7, 0.4,0,0,1024,1024,1024,1024,0,0,0,0,0,0,40,3.718,3.735,3.723,3.731,3.734,3.73,0,,120.3505646,0.6,6,P-GPS,
402400,2022-10-12 09:43:22,45.4389508110321,9.05594595595459,0.6,,,120.3505646,0.9,0.14,4.25256,4.54422,15,5,22.371,120.3505646,0.6,2.06,4.25256,0.1,0.1,0,60.9, 5.1, 0.6,0,0,1024,1024,1024,1024,0,0,0,0,0,0,40,3.718,3.735,3.723,3.731,3.734,3.73,0,,120.3505646,0.6,6,P-GPS,
402500,2022-10-12 09:43:22,45.4389506566979,9.05594570481641,0.6,,,120.3505646,0.9,0,4.2273,4.57027,15,5,22.371,120.3505646,0.6,2.06,4.25256,0,0,0,60.9, 3.6, 0.4,0,0,1024,1024,1024,1024,0,0,0,0,0,0,40,3.718,3.735,3.723,3.731,3.734,3.73,0,,120.3505646,0.6,6,P-GPS,
402600,2022-10-12 09:43:22,45.4389506329788,9.0559456439533,0.6,,,120.3505646,0.9,0,4.22187,4.5757,15,5,22.371,120.3505646,0.6,2.06,4.25256,0,0,0,60.9, 2.4, 0.3,0,0,1024,1024,1024,1024,0,0,0,0,0,0,40,3.718,3.735,3.723,3.731,3.734,3.73,0,,120.3505646,0.6,6,P-GPS,
402700,2022-10-12 09:43:23,45.4389506239621,9.05594554056537,0.6,,,120.3505646,0.9,0,4.21423,4.58383,15,5,22.371,120.3505646,0.6,2.06,4.25256,0,0,0,60.9, 1.5, 0.5,0,0,1024,1024,1024,1024,0,0,0,0,0,0,40,3.718,3.735,3.723,3.731,3.734,3.73,0,,120.3505646,0.6,6,P-GPS,"Setting new Return-To-Home altitude to 45m (148 ft). Data Recorder File Index is 159. Setting new Maximum Flight Altitude to 100m (328 ft)"
402800,2022-10-12 09:43:23,45.4389506123049,9.05594540249706,0.6,,,120.3505646,0.9,0,4.20354,4.59468,15,5,22.371,120.3505646,0.6,2.06,4.25256,0,0,0,60.9, 0.8, 0.8,0,0,1024,1024,1024,1024,0,0,0,0,0,0,40,3.718,3.735,3.723,3.731,3.734,3.73,0,,120.3505646,0.6,6,P-GPS,
402900,2022-10-12 09:43:23,45.4389507490128,9.05594514898418,0.7,,,120.4505646,0.9,0,4.19293,4.61963,15,5,22.371,120.4505646,0.7,2.06,4.25256,0,0,0,60.9, 0.4, 0.7,0,0,1024,1024,1024,1024,0,0,0,0,0,0,40,3.718,3.735,3.723,3.731,3.734,3.73,0,,120.4505646,0.7,6,P-GPS,
403000,2022-10-12 09:43:23,45.4389507487791,9.05594499599006,0.6,,,120.3505646,0.9,0,4.18233,4.63157,15,5,22.371,120.4505646,0.7,2.06,4.25256,0,0,0,60.9, 0.3, 0.7,0,0,1024,1024,1024,1024,0,0,0,0,0,0,40,3.718,3.735,3.723,3.731,3.734,3.73,0,,120.3505646,0.6,6,P-GPS,
403100,2022-10-12 09:43:23,45.4389507110937,9.05594484599331,0.6,,,120.3505646,0.9,0,4.17002,4.644,15,5,22.379,120.4505646,0.7,2.06,4.25256,0,0,0,61, 0.1, 0.7,0,0,1024,1024,1024,1024,0,0,0,0,0,0,40,3.72,3.736,3.725,3.733,3.735,3.73,0,,120.3505646,0.6,6,P-GPS,
403200,2022-10-12 09:43:23,45.4389506753314,9.05594470747936,0.6,,,120.3505646,0.9,0,4.15859,4.65552,15,5,22.379,120.4505646,0.7,2.06,4.25256,0,0,0,61, 0.1, 0.8,0,0,1024,1024,1024,1024,0,0,0,0,0,0,40,3.72,3.736,3.725,3.733,3.735,3.73,0,,120.3505646,0.6,6,P-GPS,
403300,2022-10-12 09:43:23,45.438950725095,9.05594476992357,0.6,,,120.3505646,0.9,0,4.16548,4.66289,15,5,22.379,120.4505646,0.7,2.06,4.25256,0,0,0,61, 0.1, 0.9,0,0,1024,1024,1024,1024,0,0,0,0,0,0,40,3.72,3.736,3.725,3.733,3.735,3.73,0,,120.3505646,0.6,6,P-GPS,
403400,2022-10-12 09:43:23,45.438950717307,9.05594469020327,0.6,,,120.3505646,0.9,0,4.15956,4.66917,15,5,22.379,120.4505646,0.7,2.06,4.25256,0,0,0,61, 0, 0.8,0,0,1024,1024,1024,1024,0,0,0,0,0,0,40,3.72,3.736,3.725,3.733,3.735,3.73,0,,120.3505646,0.6,6,P-GPS,
403500,2022-10-12 09:43:23,45.4389507299592,9.05594462824743,0.6,,,120.3505646,0.9,0,4.15593,4.67421,15,5,22.379,120.4505646,0.7,2.06,4.25256,0,0,0,61, -0.1, 0.7,0,0,1024,1024,1024,1024,0,0,0,0,0,0,40,3.72,3.736,3.725,3.733,3.735,3.73,0,,120.3505646,0.6,6,P-GPS,
403600,2022-10-12 09:43:23,45.4389507169031,9.0559445626166,0.6,,,120.3505646,0.9,0,4.15072,4.67953,15,5,22.379,120.4505646,0.7,2.06,4.25256,0,0,0,61, -0.3, 0.6,0,0,1024,1024,1024,1024,0,0,0,0,0,0,40,3.72,3.736,3.725,3.733,3.735,3.73,0,,120.3505646,0.6,6,P-GPS,
403700,2022-10-12 09:43:24,45.4389506913471,9.05594465162815,0.6,,,120.3505646,0.9,0,4.15556,4.68703,15,5,22.379,120.4505646,0.7,2.06,4.25256,0,0,0,61, -0.5, 0.4,0,0,1024,1024,1024,1024,0,0,0,0,0,0,40,3.72,3.736,3.725,3.733,3.735,3.73,0,,120.3505646,0.6,6,P-GPS,
403800,2022-10-12 09:43:24,45.4389506147948,9.05594459201038,0.6,,,120.3505646,0.9,0,4.14749,4.69673,15,5,22.379,120.4505646,0.7,2.06,4.25256,0,0,0,61, -0.5, 0.3,0,0,1024,1024,1024,1024,0,0,0,0,0,0,40,3.72,3.736,3.725,3.733,3.735,3.73,0,,120.3505646,0.6,6,P-GPS,
403900,2022-10-12 09:43:24,45.4389505586037,9.0559445670913,0.6,,,120.3505646,0.9,0,4.14288,4.70328,15,5,22.379,120.4505646,0.7,2.06,4.25256,0,0,0,61, -0.5, 0.2,0,0,1024,1024,1024,1024,0,0,0,0,0,0,40,3.72,3.736,3.725,3.733,3.735,3.73,0,,120.3505646,0.6,6,P-GPS,
404000,2022-10-12 09:43:24,45.4389505126962,9.05594452963331,0.6,,,120.3505646,0.9,0,4.13793,4.70916,15,5,22.379,120.4505646,0.7,2.06,4.25256,0,0,0,61, -0.6, 0.1,0,0,1024,1024,1024,1024,0,0,0,0,0,0,40,3.72,3.736,3.725,3.733,3.735,3.73,0,,120.3505646,0.6,6,P-GPS,
404100,2022-10-12 09:43:24,45.4389504942004,9.05594445423509,0.6,,,120.3505646,0.9,0,4.13176,4.71539,15,5,22.319,120.4505646,0.7,2.06,4.25256,0,0,0,61.1, -0.8, 0.1,0,0,1024,1024,1024,1024,0,0,0,0,0,0,40,3.71,3.726,3.713,3.723,3.725,3.722,0,,120.3505646,0.6,6,P-GPS,
404200,2022-10-12 09:43:24,45.4389505690681,9.05594447056496,0.6,,,120.3505646,0.9,0,4.13674,4.72382,15,5,22.319,120.4505646,0.7,2.06,4.25256,0,0,0,61.1, -0.9, 0,0,0,1024,1024,1024,1024,0,0,0,0,0,0,40,3.71,3.726,3.713,3.723,3.725,3.722,0,,120.3505646,0.6,6,P-GPS,
404300,2022-10-12 09:43:24,45.4389505481255,9.0559443775732,0.6,,,120.3505646,0.9,0,4.12923,4.73144,15,5,22.319,120.4505646,0.7,2.06,4.25256,0,0,0,61.1, -0.9, 0.1,0,0,1024,1024,1024,1024,0,0,0,0,0,0,40,3.71,3.726,3.713,3.723,3.725,3.722,0,,120.3505646,0.6,6,P-GPS,
404400,2022-10-12 09:43:24,45.4389505298999,9.05594429013666,0.6,,,120.3505646,0.9,0,4.12224,4.73855,15,5,22.319,120.4505646,0.7,2.06,4.25256,0,0,0,61.1, -0.9, 0.3,0,0,1024,1024,1024,1024,0,0,0,0,0,0,40,3.71,3.726,3.713,3.723,3.725,3.722,0,,120.3505646,0.6,6,P-GPS,
404500,2022-10-12 09:43:24,45.438950510734,9.05594419861001,0.6,,,120.3505646,0.9,0,4.11492,4.74601,15,5,22.319,120.4505646,0.7,2.06,4.25256,0,0,0,61.1, -0.9, 0.2,0,0,1024,1024,1024,1024,0,0,0,0,0,0,40,3.71,3.726,3.713,3.723,3.725,3.722,0,,120.3505646,0.6,6,P-GPS,
404600,2022-10-12 09:43:24,45.438950507149,9.05594404488944,0.6,,,120.3505646,0.9,0,4.10411,4.75801,15,5,22.319,120.4505646,0.7,2.06,4.25256,0,0,0,61.1, -0.8, 0.2,0,0,1024,1024,1024,1024,0,0,0,0,0,0,40,3.71,3.726,3.713,3.723,3.725,3.722,0,,120.3505646,0.6,6,P-GPS,
404700,2022-10-12 09:43:24,45.4389504929489,9.05594398679782,0.6,,,120.3505646,0.9,0,4.09937,4.76281,15,5,22.319,120.4505646,0.7,2.06,4.25256,0,0,0,61.1, -0.7, 0.3,0,0,1024,1024,1024,1024,0,0,0,0,0,0,39,3.71,3.726,3.713,3.723,3.725,3.722,0,,120.3505646,0.6,6,P-GPS,
404800,2022-10-12 09:43:25,45.4389504800077,9.0559439492849,0.6,,,120.3505646,0.9,0,4.09611,4.76607,15,5,22.319,120.4505646,0.7,2.06,4.25256,0,0,0,61.1, -0.6, 0.3,0,0,1024,1024,1024,1024,0,0,0,0,0,0,39,3.71,3.726,3.713,3.723,3.725,3.722,0,,120.3505646,0.6,6,P-GPS,
404900,2022-10-12 09:43:25,45.4389504481675,9.05594395945521,0.6,,,120.3505646,0.9,0,4.09516,4.7697,15,5,22.319,120.4505646,0.7,2.06,4.25256,0,0,0,61.1, -0.5, 0.2,0,0,1024,1024,1024,1024,0,0,0,0,0,0,39,3.71,3.726,3.713,3.723,3.725,3.722,0,,120.3505646,0.6,6,P-GPS,
405000,2022-10-12 09:43:25,45.4389503627418,9.05594401584974,0.6,,,120.3505646,0.9,0,4.09467,4.78017,15,5,22.319,120.4505646,0.7,2.06,4.25256,0,0,0,61.1, -0.5, 0.1,0,0,1024,1024,1068,1024,0,0,7,0,0,0,39,3.71,3.726,3.713,3.723,3.725,3.722,0,,120.3505646,0.6,6,P-GPS,
405100,2022-10-12 09:43:25,45.4389503675017,9.05594408757298,0.6,,,120.3505646,0.9,0,4.09988,4.78579,15,5,22.319,120.4505646,0.7,2.06,4.25256,0,0,0,61, -0.4, 0.1,0,0,1024,1024,1137,1024,0,0,17,0,0,0,39,3.71,3.726,3.713,3.723,3.725,3.722,0,,120.3505646,0.6,6,P-GPS,
405200,2022-10-12 09:43:25,45.4389503665564,9.05594413966985,0.6,,,120.3505646,0.9,0,4.10344,4.78986,15,5,22.307,120.4505646,0.7,2.06,4.25256,0,0,0,61, -0.4, 0.1,0,0,1024,1024,1199,1024,0,0,27,0,0,0,39,3.708,3.721,3.711,3.721,3.724,3.722,0,,120.3505646,0.6,6,P-GPS,
405300,2022-10-12 09:43:25,45.4389503343556,9.05594413928526,0.6,,,120.3505646,0.9,0,4.10176,4.79344,15,5,22.307,120.4505646,0.7,2.06,4.25256,0,0,0,61, -0.5, 0.2,0,0,1024,1024,1232,1024,0,0,32,0,0,0,39,3.708,3.721,3.711,3.721,3.724,3.722,0,,120.3505646,0.6,6,P-GPS,
405400,2022-10-12 09:43:25,45.4389502988254,9.05594420154023,0.6,,,120.3505646,0.9,0,4.10426,4.7997,15,5,22.307,120.4505646,0.7,2.06,4.25256,0,0,-0.1,61, -0.6, 0.3,0,0,1024,1024,1239,1024,0,0,33,0,0,0,39,3.708,3.721,3.711,3.721,3.724,3.722,0,,120.3505646,0.6,6,P-GPS,
405500,2022-10-12 09:43:25,45.4389503013926,9.05594421010502,0.6,,,120.3505646,0.9,0,4.10499,4.80043,15,5,22.307,120.4505646,0.7,2.06,4.25256,0,0,-0.2,60.9, -0.6, 0.2,0,0,1024,1024,1248,1024,0,0,34,0,0,0,39,3.708,3.721,3.711,3.721,3.724,3.722,0,,120.3505646,0.6,6,P-GPS,
405600,2022-10-12 09:43:25,45.4389502916228,9.05594421649656,0.7,,,120.4505646,0.9,0,4.10493,4.80162,15,5,22.307,120.4505646,0.7,2.06,4.25256,0,0,-0.3,60.9, -0.5, 0,0,0,1024,1024,1268,1024,0,0,37,0,0,0,39,3.708,3.721,3.711,3.721,3.724,3.722,0,,120.4505646,0.7,6,P-GPS,
405700,2022-10-12 09:43:25,45.4389502596914,9.05594421128321,0.7,,,120.4505646,1,0,4.10294,4.8052,15,5,22.307,120.4505646,0.7,2.06,4.25256,0,0,-0.4,61, -0.4, 0,0,0,1024,1024,1268,1024,0,0,37,0,0,0,39,3.708,3.721,3.711,3.721,3.724,3.722,0,,120.4505646,0.7,6,P-GPS,
405800,2022-10-12 09:43:26,45.4389502422492,9.05594421440268,0.8,,,120.5505646,1,0,4.10227,4.80715,15,5,22.307,120.5505646,0.8,2.06,4.25256,0,0,-0.5,61, -0.2, 0.2,0,0,1024,1024,1252,1024,0,0,35,0,0,0,39,3.708,3.721,3.711,3.721,3.724,3.722,0,,120.5505646,0.8,6,P-GPS,
405900,2022-10-12 09:43:26,45.438950217794,9.05594430255346,0.8,,,120.5505646,1.1,0,4.10715,4.81455,15,5,22.307,120.5505646,0.8,2.06,4.25256,0,0,-0.5,61, -0.1, 0.5,0,0,1024,1024,1252,1024,0,0,35,0,0,0,39,3.708,3.721,3.711,3.721,3.724,3.722,0,,120.5505646,0.8,6,P-GPS,
406000,2022-10-12 09:43:26,45.4389502137107,9.0559443399565,0.9,,,120.6505646,1.1,0,4.10954,4.8175,15,5,22.307,120.6505646,0.9,2.06,4.25256,0,0,-0.6,61, 0, 0.5,0,0,1024,1024,1254,1024,0,0,35,0,0,0,39,3.708,3.721,3.711,3.721,3.724,3.722,0,,120.6505646,0.9,6,P-GPS,
406100,2022-10-12 09:43:26,45.4389501682242,9.05594433690419,0.9,,,120.6505646,1.2,0,4.10703,4.82257,15,5,22.307,120.6505646,0.9,2.06,4.25256,0,0,-0.6,61, 0.1, 0.4,0,0,1024,1024,1254,1024,0,0,35,0,0,0,39,3.708,3.721,3.711,3.721,3.724,3.722,0,,120.6505646,0.9,6,P-GPS,
406200,2022-10-12 09:43:26,45.4389501367846,9.05594430890838,1,,,120.7505646,1.2,0,4.10349,4.82669,15,5,22.137,120.7505646,1,2.06,4.25256,0,0,-0.6,61, -0.1, 0.4,0,0,1024,1024,1252,1024,0,0,35,0,0,0,39,3.678,3.696,3.681,3.695,3.697,3.69,0,,120.7505646,1,6,P-GPS,
406300,2022-10-12 09:43:26,45.4389502099539,9.05594409992874,1.1,,,120.8505646,1.3,0,4.09269,4.84491,15,5,22.137,120.8505646,1.1,2.06,4.25256,0,0,-0.6,61, -0.3, 0.4,0,0,1024,1024,1247,1024,0,0,34,0,0,0,39,3.678,3.696,3.681,3.695,3.697,3.69,0,,120.8505646,1.1,6,P-GPS,
406400,2022-10-12 09:43:26,45.4389502458431,9.05594401958577,1.1,,,120.8505646,1.4,0,4.08894,4.85234,15,5,22.137,120.8505646,1.1,2.06,4.25256,0,0,-0.6,60.9, -0.5, 0.6,0,0,1024,1024,1246,1024,0,0,34,0,0,0,39,3.678,3.696,3.681,3.695,3.697,3.69,0,,120.8505646,1.1,6,P-GPS,
406500,2022-10-12 09:43:26,45.4389502918011,9.05594400876227,1.2,,,120.9505646,1.4,0,4.09054,4.85752,15,5,22.137,120.9505646,1.2,2.06,4.25256,0,0,-0.6,60.9, -0.7, 0.6,0,0,1024,1024,1241,1024,0,0,33,0,0,0,39,3.678,3.696,3.681,3.695,3.697,3.69,0,,120.9505646,1.2,6,P-GPS,
406600,2022-10-12 09:43:26,45.4389503141995,9.05594399021031,1.3,,,121.0505646,1.5,0,4.09041,4.8604,15,5,22.137,121.0505646,1.3,2.06,4.25256,0,0,-0.6,60.9, -0.8, 0.6,0,0,1024,1024,1240,1024,0,0,33,0,0,0,39,3.678,3.696,3.681,3.695,3.697,3.69,0,,121.0505646,1.3,6,P-GPS,
406700,2022-10-12 09:43:26,45.4389502713389,9.05594382602641,1.3,,,121.0505646,1.6,0,4.07684,4.87407,15,5,22.137,121.0505646,1.3,2.06,4.25256,0,0,-0.6,60.9, -0.9, 0.4,0,0,1024,1024,1243,1024,0,0,33,0,0,0,39,3.678,3.696,3.681,3.695,3.697,3.69,0,,121.0505646,1.3,6,P-GPS,
406800,2022-10-12 09:43:27,45.4389502060008,9.05594376623771,1.4,,,121.1505646,1.6,0,4.06935,4.88271,15,5,22.137,121.1505646,1.4,2.06,4.25256,0,0,-0.6,60.9, -0.9, 0.2,0,0,1024,1024,1248,1024,0,0,34,0,0,0,39,3.678,3.696,3.681,3.695,3.697,3.69,0,,121.1505646,1.4,6,P-GPS,
406900,2022-10-12 09:43:27,45.4389501106009,9.05594382243689,1.5,,,121.2505646,1.7,0,4.06838,4.89419,15,5,22.137,121.2505646,1.5,2.06,4.25256,0,0,-0.6,60.9, -0.8, 0,0,0,1024,1024,1279,1024,0,0,39,0,0,0,39,3.678,3.696,3.681,3.695,3.697,3.69,0,,121.2505646,1.5,6,P-GPS,
407000,2022-10-12 09:43:27,45.4389500195814,9.05594387162186,1.5,,,121.2505646,1.8,0,4.06717,4.90501,15,5,22.137,121.2505646,1.5,2.06,4.25256,0,0,-0.6,60.9, -0.7, -0.2,0,0,1024,1024,1290,1024,0,0,40,0,0,0,39,3.678,3.696,3.681,3.695,3.697,3.69,0,,121.2505646,1.5,6,P-GPS,
407100,2022-10-12 09:43:27,45.4389497834986,9.05594401490962,1.6,,,121.3505646,1.8,0,4.06528,4.93355,15,5,22.137,121.3505646,1.6,2.06,4.25256,0,0,-0.6,60.9, -0.8, -0.1,0,0,1024,1024,1304,1024,0,0,42,0,0,0,39,3.678,3.696,3.681,3.695,3.697,3.69,0,,121.3505646,1.6,6,P-GPS,
407200,2022-10-12 09:43:27,45.4389497169367,9.055944026368,1.7,,,121.4505646,1.9,0,4.06276,4.941,15,5,22.221,121.4505646,1.7,2.06,4.25256,0,0,-0.7,60.9, -0.8, 0.1,0,0,1024,1024,1300,1024,0,0,42,0,0,0,39,3.692,3.708,3.698,3.708,3.71,3.705,0,,121.4505646,1.7,6,P-GPS,
407300,2022-10-12 09:43:27,45.4389496733563,9.05594408684042,1.7,,,121.4505646,2,0,4.06481,4.94777,15,5,22.221,121.4505646,1.7,2.06,4.25256,0,0,-0.7,60.9, -0.7, 0.2,0,0,1024,1024,1314,1024,0,0,44,0,0,0,39,3.692,3.708,3.698,3.708,3.71,3.705,0,,121.4505646,1.7,6,P-GPS,
407400,2022-10-12 09:43:27,45.4389496334562,9.0559441320818,1.8,,,121.5505646,2.1,0,4.066,4.95344,15,5,22.221,121.5505646,1.8,2.06,4.25256,0,0,-0.8,60.9, -0.7, 0.2,0,0,1024,1024,1312,1024,0,0,44,0,0,0,39,3.692,3.708,3.698,3.708,3.71,3.705,0,,121.5505646,1.8,6,P-GPS,
407500,2022-10-12 09:43:27,45.4389495976801,9.05594411470804,1.9,,,121.6505646,2.2,0,4.06301,4.95764,15,5,22.221,121.6505646,1.9,2.06,4.25256,0,0,-0.9,60.9, -0.5, 0.1,0,0,1024,1024,1311,1024,0,0,43,0,0,0,39,3.692,3.708,3.698,3.708,3.71,3.705,0,,121.6505646,1.9,6,P-GPS,
407600,2022-10-12 09:43:27,45.438949549334,9.05594406075536,2,,,121.7505646,2.2,0,4.05685,4.96447,15,5,22.221,121.7505646,2,2.06,4.25256,0,0,-0.9,61, -0.5, 0,0,0,1024,1024,1313,1024,0,0,44,0,0,0,39,3.692,3.708,3.698,3.708,3.71,3.705,0,,121.7505646,2,6,P-GPS,
407700,2022-10-12 09:43:28,45.4389495151742,9.05594405868589,2.1,,,121.8505646,2.4,0,4.05503,4.96827,15,5,22.221,121.8505646,2.1,2.06,4.25256,0,0,-0.9,61, -0.5, -0.2,0,0,1024,1024,1319,1024,0,0,45,0,0,0,39,3.692,3.708,3.698,3.708,3.71,3.705,0,,121.8505646,2.1,6,P-GPS,
407800,2022-10-12 09:43:28,45.4389494948618,9.05594408041225,2.2,,,121.9505646,2.4,0,4.05555,4.9711,15,5,22.221,121.9505646,2.2,2.06,4.25256,0,0,-1,61, -0.4, -0.3,0,0,1024,1024,1310,1024,0,0,43,0,0,0,39,3.692,3.708,3.698,3.708,3.71,3.705,0,,121.9505646,2.2,6,P-GPS,
407900,2022-10-12 09:43:28,45.4389495029999,9.05594419560043,2.3,,,122.0505646,2.6,0,4.06401,4.98013,15,5,22.221,122.0505646,2.3,2.06,4.25256,0,0,-1,61, -0.5, -0.3,0,0,1024,1024,1316,1024,0,0,44,0,0,0,39,3.692,3.708,3.698,3.708,3.71,3.705,0,,122.0505646,2.3,6,P-GPS,
408000,2022-10-12 09:43:28,45.4389495998752,9.05594444595722,2.4,,,122.1505646,2.7,0,4.08629,5.00244,15,5,22.221,122.1505646,2.4,2.06,4.25256,0,0,-1,60.9, -0.5, -0.4,0,0,1024,1024,1313,1024,0,0,44,0,0,0,39,3.692,3.708,3.698,3.708,3.71,3.705,0,,122.1505646,2.4,6,P-GPS,
408100,2022-10-12 09:43:28,45.4389496457249,9.05594451089211,2.5,,,122.2505646,2.8,0,4.09309,5.00963,15,5,22.221,122.2505646,2.5,2.06,4.25256,0,0,-1,60.9, -0.4, -0.2,0,0,1024,1024,1310,1024,0,0,43,0,0,0,39,3.692,3.708,3.698,3.708,3.71,3.705,0,,122.2505646,2.5,6,P-GPS,
408200,2022-10-12 09:43:28,45.4389496698942,9.05594457879997,2.6,,,122.3505646,2.9,0,4.09903,5.01557,15,5,22.221,122.3505646,2.6,2.06,4.25256,0,0,-1,60.8, -0.3, -0.1,0,0,1024,1024,1308,1024,0,0,43,0,0,0,39,3.692,3.708,3.698,3.708,3.71,3.705,0,,122.3505646,2.6,6,P-GPS,
408300,2022-10-12 09:43:28,45.4389496129337,9.05594465197001,2.7,,,122.4505646,3,0,4.10136,5.0241,15,5,22.179,122.4505646,2.7,2.06,4.25256,0,0,-1,60.7, -0.2, 0.1,0,0,1024,1024,1295,1024,0,0,41,0,0,0,39,3.683,3.701,3.691,3.701,3.705,3.698,0,,122.4505646,2.7,6,P-GPS,
408400,2022-10-12 09:43:28,45.4389495300418,9.05594486123656,2.8,,,122.5505646,3.1,0,4.11199,5.04285,15,5,22.179,122.5505646,2.8,2.06,4.25256,0,0,-1,60.7, 0, 0.3,0,0,1024,1024,1295,1024,0,0,41,0,0,0,39,3.683,3.701,3.691,3.701,3.705,3.698,0,,122.5505646,2.8,6,P-GPS,
408500,2022-10-12 09:43:28,45.4389495761236,9.05594487813416,2.9,,,122.6505646,3.3,0,4.11542,5.04814,15,5,22.179,122.6505646,2.9,2.06,4.25256,0,0,-1,60.7, 0, 0.4,0,0,1024,1024,1293,1024,0,0,41,0,0,0,39,3.683,3.701,3.691,3.701,3.705,3.698,0,,122.6505646,2.9,6,P-GPS,
408600,2022-10-12 09:43:28,45.4389496106287,9.05594486505806,3,,,122.7505646,3.4,0,4.11618,5.05211,15,5,22.179,122.7505646,3,2.06,4.25256,0,0,-0.9,60.7, -0.2, 0.3,0,0,1024,1024,1294,1024,0,0,41,0,0,0,39,3.683,3.701,3.691,3.701,3.705,3.698,0,,122.7505646,3,6,P-GPS,
408700,2022-10-12 09:43:28,45.4389496155466,9.05594476469191,3.1,,,122.8505646,3.4,0,4.10939,5.05996,15,5,22.179,122.8505646,3.1,2.06,4.25256,0,0,-0.9,60.7, -0.5, 0,0,0,1024,1024,1294,1024,0,0,41,0,0,0,39,3.683,3.701,3.691,3.701,3.705,3.698,0,,122.8505646,3.1,6,P-GPS,
408800,2022-10-12 09:43:29,45.4389496733319,9.05594454090856,3.2,,,122.9505646,3.5,0,4.09655,5.07857,15,5,22.179,122.9505646,3.2,2.06,4.25256,0,0,-0.9,60.7, -0.7, -0.1,0,0,1024,1024,1299,1024,0,0,42,0,0,0,39,3.683,3.701,3.691,3.701,3.705,3.698,0,,122.9505646,3.2,6,P-GPS,
408900,2022-10-12 09:43:29,45.4389496733246,9.05594454658586,3.3,,,123.0505646,3.6,0,4.09695,5.07901,15,5,22.179,123.0505646,3.3,2.06,4.25256,0,0,-0.9,60.7, -0.7, -0.3,0,0,1024,1024,1298,1024,0,0,42,0,0,0,39,3.683,3.701,3.691,3.701,3.705,3.698,0,,123.0505646,3.3,6,P-GPS,
409000,2022-10-12 09:43:29,45.4389496964346,9.05594456289131,3.4,,,123.1505646,3.7,0,4.09923,5.08188,15,5,22.179,123.1505646,3.4,2.06,4.25256,0,0,-0.9,60.8, -0.6, -0.4,0,0,1024,1024,1300,1024,0,0,42,0,0,0,39,3.683,3.701,3.691,3.701,3.705,3.698,0,,123.1505646,3.4,6,P-GPS,
409100,2022-10-12 09:43:29,45.4389497792858,9.05594458588133,3.5,,,123.2505646,3.8,0,4.10492,5.09127,15,5,22.179,123.2505646,3.5,2.06,4.25256,0,0,-0.9,60.8, -0.5, -0.2,0,0,1024,1024,1294,1024,0,0,41,0,0,0,39,3.683,3.701,3.691,3.701,3.705,3.698,0,,123.2505646,3.5,6,P-GPS,
409200,2022-10-12 09:43:29,45.4389498652359,9.05594462445646,3.6,,,123.3505646,3.9,0,4.11188,5.10129,15,5,22.186,123.3505646,3.6,2.06,4.25256,0,0,-0.9,60.9, -0.2, 0,0,0,1024,1024,1295,1024,0,0,41,0,0,0,39,3.688,3.703,3.693,3.701,3.704,3.697,0,,123.3505646,3.6,6,P-GPS,
409300,2022-10-12 09:43:29,45.4389500161967,9.05594485408804,3.7,,,123.4505646,4,0,4.13541,5.12584,15,5,22.186,123.4505646,3.7,2.06,4.25256,0,0,-0.9,60.9, 0, 0.3,0,0,1024,1024,1294,1024,0,0,41,0,0,0,39,3.688,3.703,3.693,3.701,3.704,3.697,0,,123.4505646,3.7,6,P-GPS,
409400,2022-10-12 09:43:29,45.4389500841647,9.05594493683624,3.8,,,123.5505646,4.1,0,4.14457,5.13578,15,5,22.186,123.5505646,3.8,2.06,4.25256,0,0,-0.9,60.9, 0.4, 0.3,0,0,1024,1024,1294,1024,0,0,41,0,0,0,39,3.688,3.703,3.693,3.701,3.704,3.697,0,,123.5505646,3.8,6,P-GPS,
409500,2022-10-12 09:43:29,45.4389501295861,9.05594498243169,3.9,,,123.6505646,4.2,0,4.15001,5.14196,15,5,22.186,123.6505646,3.9,2.06,4.25256,0,0,-0.9,60.9, 0.7, 0.5,0,0,1024,1024,1294,1024,0,0,41,0,0,0,39,3.688,3.703,3.693,3.701,3.704,3.697,0,,123.6505646,3.9,6,P-GPS,
409600,2022-10-12 09:43:29,45.4389501750767,9.05594500846791,4,,,123.7505646,4.3,0,4.1541,5.14741,15,5,22.186,123.7505646,4,2.06,4.25256,0,0,-0.9,60.9, 0.8, 0.7,0,0,1024,1024,1300,1024,0,0,42,0,0,0,39,3.688,3.703,3.693,3.701,3.704,3.697,0,,123.7505646,4,6,P-GPS,
409700,2022-10-12 09:43:29,45.4389503060744,9.05594489685094,4.1,,,123.8505646,4.4,0,4.15291,5.16438,15,5,22.186,123.8505646,4.1,2.06,4.25256,0,0,-0.9,61, 0.7, 0.8,0,0,1024,1024,1307,1024,0,0,43,0,0,0,39,3.688,3.703,3.693,3.701,3.704,3.697,0,,123.8505646,4.1,6,P-GPS,
409800,2022-10-12 09:43:30,45.4389503699916,9.0559448628726,4.2,,,123.9505646,4.5,0,4.15378,5.17197,15,5,22.186,123.9505646,4.2,2.06,4.25256,0,0,-0.9,61, 0.6, 0.7,0,0,1024,1024,1307,1024,0,0,43,0,0,0,39,3.688,3.703,3.693,3.701,3.704,3.697,0,,123.9505646,4.2,6,P-GPS,
409900,2022-10-12 09:43:30,45.4389503835663,9.05594480897486,4.2,,,123.9505646,4.6,0,4.15072,5.17644,15,5,22.186,123.9505646,4.2,2.06,4.25256,0,0,-0.9,60.9, 0.5, 0.5,0,0,1024,1024,1306,1024,0,0,43,0,0,0,39,3.688,3.703,3.693,3.701,3.704,3.697,0,,123.9505646,4.2,6,P-GPS,
410000,2022-10-12 09:43:30,45.4389503812792,9.05594476657214,4.3,,,124.0505646,4.7,0,4.14766,5.17976,15,5,22.186,124.0505646,4.3,2.06,4.25256,0,0,-0.9,60.9, 0.2, 0.4,0,0,1024,1024,1307,1024,0,0,43,0,0,0,39,3.688,3.703,3.693,3.701,3.704,3.697,0,,124.0505646,4.3,6,P-GPS,
410100,2022-10-12 09:43:30,45.438950202292,9.05594480762574,4.4,,,124.1505646,4.8,0,4.14148,5.19992,15,5,22.186,124.1505646,4.4,2.06,4.25256,0,0,-0.9,60.9, 0.3, 0.3,0,0,1024,1024,1305,1024,0,0,43,0,0,0,39,3.688,3.703,3.693,3.701,3.704,3.697,0,,124.1505646,4.4,6,P-GPS,
410200,2022-10-12 09:43:30,45.4389501556501,9.0559448393759,4.5,,,124.2505646,4.9,0,4.14135,5.20567,15,5,22.186,124.2505646,4.5,2.06,4.25256,0,0,-0.9,60.9, 0.5, 0,0,0,1024,1024,1304,1024,0,0,42,0,0,0,39,3.688,3.703,3.693,3.701,3.704,3.697,0,,124.2505646,4.5,6,P-GPS,
410300,2022-10-12 09:43:30,45.4389501560475,9.055944896796,4.6,,,124.3505646,5,0,4.14537,5.21015,15,5,22.156,124.3505646,4.6,2.06,4.25256,0,0,-0.9,60.9, 0.7, 0,0,0,1024,1024,1306,1024,0,0,43,0,0,0,39,3.682,3.7,3.686,3.696,3.699,3.693,0,,124.3505646,4.6,6,P-GPS,
410400,2022-10-12 09:43:30,45.4389501677829,9.05594491743574,4.7,,,124.4505646,5.1,0,4.14739,5.21222,15,5,22.156,124.4505646,4.7,2.06,4.25256,0,0,-0.9,60.9, 0.7, 0.2,0,0,1024,1024,1307,1024,0,0,43,0,0,0,39,3.682,3.7,3.686,3.696,3.699,3.693,0,,124.4505646,4.7,6,P-GPS,
410500,2022-10-12 09:43:30,45.4389502834602,9.05594480514726,4.8,,,124.5505646,5.2,0,4.1454,5.22778,15,5,22.156,124.5505646,4.8,2.06,4.25256,0,0,-0.9,60.9, 0.5, 0.4,0,0,1024,1024,1311,1024,0,0,43,0,0,0,39,3.682,3.7,3.686,3.696,3.699,3.693,0,,124.5505646,4.8,6,P-GPS,
410600,2022-10-12 09:43:30,45.4389503151815,9.05594473010311,4.9,,,124.6505646,5.3,0,4.14178,5.23462,15,5,22.156,124.6505646,4.9,2.06,4.25256,0,0,-0.9,61, 0.3, 0.5,0,0,1024,1024,1312,1024,0,0,44,0,0,0,39,3.682,3.7,3.686,3.696,3.699,3.693,0,,124.6505646,4.9,6,P-GPS,
410700,2022-10-12 09:43:30,45.4389503244693,9.05594466090107,5,,,124.7505646,5.4,0,4.13744,5.24012,15,5,22.156,124.7505646,5,2.06,4.25256,0,0,-1,61, 0.1, 0.5,0,0,1024,1024,1312,1024,0,0,44,0,0,0,39,3.682,3.7,3.686,3.696,3.699,3.693,0,,124.7505646,5,6,P-GPS,
410800,2022-10-12 09:43:31,45.4389503451261,9.0559446007522,5.1,,,124.8505646,5.5,0,4.13432,5.24534,15,5,22.156,124.8505646,5.1,2.06,4.25256,0,0,-1,61.1, 0.1, 0.5,0,0,1024,1024,1312,1024,0,0,44,0,0,0,39,3.682,3.7,3.686,3.696,3.699,3.693,0,,124.8505646,5.1,6,P-GPS,
410900,2022-10-12 09:43:31,45.4389503959116,9.05594455019369,5.2,,,124.9505646,5.6,0,4.13339,5.25223,15,5,22.156,124.9505646,5.2,2.06,4.25256,0,0,-1,61.1, 0, 0.6,0,0,1024,1024,1319,1024,0,0,45,0,0,0,39,3.682,3.7,3.686,3.696,3.699,3.693,0,,124.9505646,5.2,6,P-GPS,
411000,2022-10-12 09:43:31,45.4389505249796,9.05594445891733,5.3,,,125.0505646,5.7,0,4.13367,5.26825,15,5,22.156,125.0505646,5.3,2.06,4.25256,0,0,-1,61.1, -0.1, 1,0,0,1024,1024,1319,1024,0,0,45,0,0,0,39,3.682,3.7,3.686,3.696,3.699,3.693,0,,125.0505646,5.3,6,P-GPS,
411100,2022-10-12 09:43:31,45.4389505975121,9.0559443258365,5.4,,,125.1505646,5.8,0,4.1282,5.2814,15,5,22.156,125.1505646,5.4,2.06,4.25256,0,0,-1,61.1, -0.2, 1.3,0,0,1024,1024,1320,1024,0,0,45,0,0,0,39,3.682,3.7,3.686,3.696,3.699,3.693,0,,125.1505646,5.4,6,P-GPS,
411300,2022-10-12 09:43:31,45.4389506559912,9.05594415924128,5.7,,,125.4505646,6,0,4.11972,5.29594,15,5,22.123,125.4505646,5.7,2.06,4.25256,0,0,-1,61, -0.1, 1.4,0,0,1024,1024,1320,1024,0,0,45,0,0,0,39,3.677,3.693,3.68,3.691,3.694,3.688,0,,125.4505646,5.7,6,P-GPS,
411400,2022-10-12 09:43:31,45.438950654822,9.05594406387482,5.8,,,125.5505646,6.1,0,4.11308,5.30338,15,5,22.123,125.5505646,5.8,2.06,4.25256,0,0,-1,61, -0.3, 1.2,0,0,1024,1024,1319,1024,0,0,45,0,0,0,39,3.677,3.693,3.68,3.691,3.694,3.688,0,,125.5505646,5.8,6,P-GPS,
411500,2022-10-12 09:43:31,45.438950615754,9.05594399516727,5.9,,,125.6505646,6.2,0,4.10631,5.31028,15,5,22.123,125.6505646,5.9,2.06,4.25256,0,0,-1,61, -0.4, 1,0,0,1024,1024,1315,1024,0,0,44,0,0,0,39,3.677,3.693,3.68,3.691,3.694,3.688,0,,125.6505646,5.9,6,P-GPS,
411600,2022-10-12 09:43:31,45.4389505992147,9.05594392511669,6,,,125.7505646,6.3,0,4.10061,5.31605,16,5,22.123,125.7505646,6,2.06,4.25256,0,0,-1,61, -0.5, 1.1,0,0,1024,1024,1313,1024,0,0,44,0,0,0,39,3.677,3.693,3.68,3.691,3.694,3.688,0,,125.7505646,6,6,P-GPS,
411700,2022-10-12 09:43:32,45.4389506585258,9.0559438517391,6.1,,,125.8505646,6.4,0,4.09864,5.32478,16,5,22.123,125.8505646,6.1,2.06,4.25256,0,0,-1,61, -0.4, 1.3,0,0,1024,1024,1316,1024,0,0,44,0,0,0,39,3.677,3.693,3.68,3.691,3.694,3.688,0,,125.8505646,6.1,6,P-GPS,
411800,2022-10-12 09:43:32,45.4389507868554,9.0559437840388,6.2,,,125.9505646,6.5,0,4.1007,5.34,16,5,22.123,125.9505646,6.2,2.06,4.25256,0,0,-1,61, -0.3, 1.3,0,0,1024,1024,1317,1024,0,0,44,0,0,0,39,3.677,3.693,3.68,3.691,3.694,3.688,0,,125.9505646,6.2,6,P-GPS,
411900,2022-10-12 09:43:32,45.4389507956555,9.05594381527617,6.3,,,126.0505646,6.6,0,4.10331,5.34263,16,5,22.123,126.0505646,6.3,2.06,4.25256,0,0,-1,61, -0.3, 1.4,0,0,1024,1024,1317,1024,0,0,44,0,0,0,39,3.677,3.693,3.68,3.691,3.694,3.688,0,,126.0505646,6.3,6,P-GPS,
412000,2022-10-12 09:43:32,45.4389508021229,9.05594385445565,6.4,,,126.1505646,6.7,0,4.10634,5.34577,16,5,22.123,126.1505646,6.4,2.06,4.25256,0,0,-1,61, -0.2, 1.4,0,0,1024,1024,1316,1024,0,0,44,0,0,0,39,3.677,3.693,3.68,3.691,3.694,3.688,0,,126.1505646,6.4,6,P-GPS,
412100,2022-10-12 09:43:32,45.4389508219435,9.05594390648537,6.5,,,126.2505646,6.8,0,4.11096,5.35039,16,5,22.123,126.2505646,6.5,2.06,4.25256,0,0,-1,61, -0.2, 1.3,0,0,1024,1024,1318,1024,0,0,45,0,0,0,39,3.677,3.693,3.68,3.691,3.694,3.688,0,,126.2505646,6.5,6,P-GPS,
412200,2022-10-12 09:43:32,45.438950816638,9.05594414859481,6.6,,,126.3505646,6.9,0,4.12735,5.36929,16,5,22.123,126.3505646,6.6,2.06,4.25256,0,0,-1,60.9, -0.2, 1.2,0,0,1024,1024,1319,1024,0,0,45,0,0,0,39,3.677,3.693,3.68,3.691,3.694,3.688,0,,126.3505646,6.6,6,P-GPS,
412300,2022-10-12 09:43:32,45.4389507886255,9.05594418831151,6.7,,,126.4505646,7.1,0,4.12862,5.37368,16,5,22.14,126.4505646,6.7,2.06,4.25256,0,0,-1,60.9, -0.2, 1.1,0,0,1024,1024,1319,1024,0,0,45,0,0,0,39,3.678,3.695,3.683,3.695,3.697,3.692,0,,126.4505646,6.7,6,P-GPS,
412400,2022-10-12 09:43:32,45.4389507607685,9.05594421211954,6.8,,,126.5505646,7.2,0,4.12881,5.3773,16,5,22.14,126.5505646,6.8,2.06,4.25256,0,0,-1,60.9, -0.3, 1.1,0,0,1024,1024,1317,1024,0,0,44,0,0,0,39,3.678,3.695,3.683,3.695,3.697,3.692,0,,126.5505646,6.8,6,P-GPS,
412500,2022-10-12 09:43:32,45.4389507258123,9.05594417949032,7,,,126.7505646,7.3,0,4.12474,5.38194,16,5,22.14,126.7505646,7,2.06,4.25256,0,0,-1,60.9, -0.2, 1.1,0,0,1024,1024,1320,1024,0,0,45,0,0,0,39,3.678,3.695,3.683,3.695,3.697,3.692,0,,126.7505646,7,6,P-GPS,
412600,2022-10-12 09:43:32,45.4389506908553,9.05594415714739,7.1,,,126.8505646,7.4,0,4.12138,5.3862,16,5,22.14,126.8505646,7.1,2.06,4.25256,0,0,-1,60.9, -0.3, 1.1,0,0,1024,1024,1318,1024,0,0,45,0,0,0,39,3.678,3.695,3.683,3.695,3.697,3.692,0,,126.8505646,7.1,6,P-GPS,
412700,2022-10-12 09:43:33,45.4389506546062,9.05594408041225,7.2,,,126.9505646,7.5,0,4.1142,5.39342,16,5,22.14,126.9505646,7.2,2.06,4.25256,0,0,-1,61, -0.3, 1,0,0,1024,1024,1319,1024,0,0,45,0,0,0,39,3.678,3.695,3.683,3.695,3.697,3.692,0,,126.9505646,7.2,6,P-GPS,
412800,2022-10-12 09:43:33,45.438950623533,9.05594409003314,7.3,,,127.0505646,7.6,0,4.11326,5.39696,16,5,22.14,127.0505646,7.3,2.06,4.25256,0,0,-1,61, -0.2, 0.9,0,0,1024,1024,1318,1024,0,0,45,0,0,0,39,3.678,3.695,3.683,3.695,3.697,3.692,0,,127.0505646,7.3,6,P-GPS,
412900,2022-10-12 09:43:33,45.4389505628067,9.05594410682086,7.4,,,127.1505646,7.7,0,4.11127,5.40384,16,5,22.14,127.1505646,7.4,2.06,4.25256,0,0,-1,61, -0.1, 0.7,0,0,1024,1024,1320,1024,0,0,45,0,0,0,39,3.678,3.695,3.683,3.695,3.697,3.692,0,,127.1505646,7.4,6,P-GPS,
413000,2022-10-12 09:43:33,45.4389505158033,9.05594411645396,7.5,,,127.2505646,7.8,0,4.10951,5.40912,16,5,22.14,127.2505646,7.5,2.06,4.25256,0,0,-1,61, -0.3, 0.5,0,0,1024,1024,1320,1024,0,0,45,0,0,0,39,3.678,3.695,3.683,3.695,3.697,3.692,0,,127.2505646,7.5,6,P-GPS,
413100,2022-10-12 09:43:33,45.4389505097895,9.05594410077728,7.6,,,127.3505646,7.9,0,4.10811,5.41051,16,5,22.14,127.3505646,7.6,2.06,4.25256,0,0,-1,61, -0.3, 0.5,0,0,1024,1024,1320,1024,0,0,45,0,0,0,39,3.678,3.695,3.683,3.695,3.697,3.692,0,,127.3505646,7.6,6,P-GPS,
413200,2022-10-12 09:43:33,45.4389505200723,9.05594411041649,7.7,,,127.4505646,8,0,4.10931,5.41188,15,5,22.14,127.4505646,7.7,2.06,4.25256,0,0,-1,60.9, -0.2, 0.7,0,0,1024,1024,1320,1024,0,0,45,0,0,0,39,3.678,3.695,3.683,3.695,3.697,3.692,0,,127.4505646,7.7,6,P-GPS,
413300,2022-10-12 09:43:33,45.4389505509867,9.05594415527327,7.8,,,127.5505646,8.1,0,4.11401,5.41679,15,5,22.114,127.5505646,7.8,2.06,4.25256,0,0,-1,60.9, -0.1, 0.8,0,0,1024,1024,1320,1024,0,0,45,0,0,0,39,3.673,3.691,3.68,3.691,3.692,3.687,0,,127.5505646,7.8,6,P-GPS,
413400,2022-10-12 09:43:33,45.4389505852011,9.05594420013006,7.9,,,127.6505646,8.2,0,4.11887,5.42196,15,5,22.114,127.6505646,7.9,2.06,4.25256,0,0,-1,60.9, 0, 0.9,0,0,1024,1024,1320,1024,0,0,45,0,0,0,39,3.673,3.691,3.68,3.691,3.692,3.687,0,,127.6505646,7.9,6,P-GPS,
413500,2022-10-12 09:43:33,45.4389506911061,9.05594434148876,8,,,127.7505646,8.4,0,4.13412,5.43809,15,5,22.114,127.7505646,8,2.06,4.25256,0,0,-1,61, 0.1, 1,0,0,1024,1024,1320,1024,0,0,45,0,0,0,39,3.673,3.691,3.68,3.691,3.692,3.687,0,,127.7505646,8,6,P-GPS,
413600,2022-10-12 09:43:33,45.4389507097363,9.05594436837964,8.1,,,127.8505646,8.5,0,4.13694,5.44104,16,5,22.114,127.8505646,8.1,2.06,4.25256,0,0,-1,61, 0.2, 1,0,0,1024,1024,1321,1024,0,0,45,0,0,0,39,3.673,3.691,3.68,3.691,3.692,3.687,0,,127.8505646,8.1,6,P-GPS,
413700,2022-10-12 09:43:34,45.4389507170603,9.05594435443667,8.2,,,127.9505646,8.6,0,4.13636,5.4424,16,5,22.114,127.9505646,8.2,2.06,4.25256,0,0,-1.1,61, 0.2, 1,0,0,1024,1024,1324,1024,0,0,45,0,0,0,38,3.673,3.691,3.68,3.691,3.692,3.687,0,,127.9505646,8.2,6,P-GPS,
413800,2022-10-12 09:43:34,45.4389507165245,9.0559443344074,8.4,,,128.1505646,8.7,0,4.13495,5.44396,16,5,22.114,128.1505646,8.4,2.06,4.25256,0,0,-1.1,61, 0.1, 0.9,0,0,1024,1024,1323,1024,0,0,45,0,0,0,38,3.673,3.691,3.68,3.691,3.692,3.687,0,,128.1505646,8.4,6,P-GPS,
413900,2022-10-12 09:43:34,45.4389507020713,9.05594426965564,8.5,,,128.2505646,8.8,0,4.12973,5.44927,16,5,22.114,128.2505646,8.5,2.06,4.25256,0,0,-1.1,61, 0, 0.9,0,0,1024,1024,1324,1024,0,0,45,0,0,0,38,3.673,3.691,3.68,3.691,3.692,3.687,0,,128.2505646,8.5,6,P-GPS,
414000,2022-10-12 09:43:34,45.4389506770038,9.055944240036,8.6,,,128.3505646,8.9,0,4.12638,5.45289,16,5,22.114,128.3505646,8.6,2.06,4.25256,0,0,-1.1,61, -0.1, 0.8,0,0,1024,1024,1329,1024,0,0,46,0,0,0,38,3.673,3.691,3.68,3.691,3.692,3.687,0,,128.3505646,8.6,6,P-GPS,
414100,2022-10-12 09:43:34,45.4389506008423,9.05594420746782,8.7,,,128.4505646,9,0,4.12019,5.46173,16,5,22.114,128.4505646,8.7,2.06,4.25256,0,0,-1.1,61, -0.1, 0.8,0,0,1024,1024,1330,1024,0,0,46,0,0,0,38,3.673,3.691,3.68,3.691,3.692,3.687,0,,128.4505646,8.7,6,P-GPS,
414200,2022-10-12 09:43:34,45.4389505353479,9.05594417557115,8.8,,,128.5505646,9.1,0,4.1146,5.46943,16,5,22.114,128.5505646,8.8,2.06,4.25256,0,0,-1.1,61, -0.2, 0.9,0,0,1024,1024,1325,1024,0,0,46,0,0,0,38,3.673,3.691,3.68,3.691,3.692,3.687,0,,128.5505646,8.8,6,P-GPS,
414300,2022-10-12 09:43:34,45.438950499295,9.05594414653755,8.9,,,128.6505646,9.3,0,4.11073,5.47403,16,5,22.103,128.6505646,8.9,2.06,4.25256,0,0,-1.1,61, -0.3, 0.9,0,0,1024,1024,1325,1024,0,0,46,0,0,0,38,3.672,3.69,3.676,3.688,3.69,3.687,0,,128.6505646,8.9,6,P-GPS,
414400,2022-10-12 09:43:34,45.4389503580047,9.05594406640824,9,,,128.7505646,9.4,0,4.09793,5.49094,16,5,22.103,128.7505646,9,2.06,4.25256,0,0,-1.1,61, -0.5, 0.9,0,0,1024,1024,1324,1024,0,0,45,0,0,0,38,3.672,3.69,3.676,3.688,3.69,3.687,0,,128.7505646,9,6,P-GPS,
414500,2022-10-12 09:43:34,45.4389503027279,9.05594399599139,9.2,,,128.9505646,9.5,0,4.09022,5.49919,16,5,22.103,128.9505646,9.2,2.06,4.25256,0,0,-1.1,61, -0.6, 0.9,0,0,1024,1024,1325,1024,0,0,46,0,0,0,38,3.672,3.69,3.676,3.688,3.69,3.687,0,,128.9505646,9.2,6,P-GPS,
414600,2022-10-12 09:43:34,45.4389502623946,9.05594393483526,9.3,,,129.0505646,9.6,0,4.08392,5.50574,16,5,22.103,129.0505646,9.3,2.06,4.25256,0,0,-1.1,61, -0.7, 0.9,0,0,1024,1024,1320,1024,0,0,45,0,0,0,38,3.672,3.69,3.676,3.688,3.69,3.687,0,,129.0505646,9.3,6,P-GPS,
