time(millisecond),datetime(utc),latitude,longitude,height_above_takeoff(meters),height_above_ground_at_drone_location(meters),ground_elevation_at_drone_location(meters),altitude_above_seaLevel(meters),height_sonar(meters),speed(m/s),distance(meters),mileage(meters),satellites,gpslevel,voltage(v),max_altitude(meters),max_ascent(meters),max_speed(m/s),max_distance(meters), xSpeed(m/s), ySpeed(m/s), zSpeed(m/s), compass_heading(degrees), pitch(degrees), roll(degrees),isPhoto,isVideo,rc_elevator,rc_aileron,rc_throttle,rc_rudder,rc_elevator(percent),rc_aileron(percent),rc_throttle(percent),rc_rudder(percent),gimbal_heading(degrees),gimbal_pitch(degrees),battery_percent,voltageCell1,voltageCell2,voltageCell3,voltageCell4,voltageCell5,voltageCell6,current(A),battery_temperature(c),altitude(meters),ascent(meters),flycStateRaw,flycState,message
657600,2022-10-12 10:27:26,45.4389432587868,9.05596248750497,0,Available with any HD 360 subscription,Available with any HD 360 subscription,119.7548904,0.1,0,0,0,16,5,0,119.7548904,0,0,0,0,0,0,54.7, 1.3, 0.1,0,0,1024,1024,1024,1024,0,0,0,0,0,0,55,3.886,3.89,3.888,3.89,3.892,3.887,0,,119.7548904,0,41,Motors_Started,"GEO: You are in a Warning Zone (Class D Airspace). Fly with caution."
657700,2022-10-12 10:27:26,45.4389432871209,9.05596244911147,0,,,119.7548904,0.1,0,0.0043478,0.0043478,16,5,0,119.7548904,0,0,0.0043478,0,0,0,54.6, 1.3, 0.1,0,0,1024,1024,1024,1024,0,0,0,0,0,0,55,3.886,3.89,3.888,3.89,3.892,3.887,0,,119.7548904,0,41,Motors_Started,
657800,2022-10-12 10:27:26,45.4389433126191,9.05596239308019,0,,,119.7548904,0.1,0,0.0094934,0.00955892,17,5,23.333,119.7548904,0,0,0.0094934,0,0,0,54.6, 1.3, 0.1,0,0,1024,505,364,1647,0,-79,-100,94,0,0,55,3.886,3.89,3.888,3.89,3.892,3.887,0,,119.7548904,0,41,Motors_Started,
657900,2022-10-12 10:27:26,45.4389433593896,9.05596236951711,0,,,119.7548904,0.1,0,0.0144888,0.0150755,17,5,23.333,119.7548904,0,0,0.0144888,0,0,0,54.6, 1.3, 0.1,0,0,1024,1024,1024,1037,0,0,0,2,0,0,55,3.886,3.89,3.888,3.89,3.892,3.887,0,,119.7548904,0,41,Motors_Started,
658000,2022-10-12 10:27:27,45.4389433741164,9.05596230867691,0,,,119.7548904,0.1,0,0.0189526,0.0200974,17,5,23.333,119.7548904,0,0,0.0189526,0,0,0,54.6, 1.3, 0.1,0,0,1024,1024,1024,1024,0,0,0,0,0,0,55,3.886,3.89,3.888,3.89,3.892,3.887,0,,119.7548904,0,41,Motors_Started,
658100,2022-10-12 10:27:27,45.4389433924079,9.05596231251749,0,,,119.7548904,0.1,0,0.0201803,0.0221535,17,5,23.333,119.7548904,0,0,0.0201803,0,0,0,54.5, 1.3, 0.1,0,0,1024,1024,1024,1024,0,0,0,0,0,0,55,3.886,3.89,3.888,3.89,3.892,3.887,0,,119.7548904,0,41,Motors_Started,
658200,2022-10-12 10:27:27,45.438943403886,9.05596232609798,0,,,119.7548904,0.1,0,0.0204693,0.0238125,17,5,23.333,119.7548904,0,0,0.0204693,0,0,0,54.5, 1.3, 0.1,0,0,1024,1024,1024,1024,0,0,0,0,0,0,55,3.886,3.89,3.888,3.89,3.892,3.887,0,,119.7548904,0,41,Motors_Started,
658300,2022-10-12 10:27:27,45.4389434431144,9.05596233936485,0,,,119.7548904,0.1,0,0.023533,0.028296,17,5,23.333,119.7548904,0,0,0.023533,0,0,0,54.5, 1.3, 0.1,0,0,1024,1024,1024,1024,0,0,0,0,0,0,55,3.886,3.89,3.888,3.89,3.892,3.887,0,,119.7548904,0,41,Motors_Started,
658400,2022-10-12 10:27:27,45.43894343624,9.05596241559175,0,,,119.7548904,0.1,0,0.0205162,0.0342929,17,5,23.333,119.7548904,0,0,0.023533,0,0,0,54.5, 1.3, 0.1,0,0,1024,1024,1024,1024,0,0,0,0,0,0,55,3.886,3.89,3.888,3.89,3.892,3.887,0,,119.7548904,0,41,Motors_Started,"Home Point recorded. Return-to-Home Altitude:45M"
658500,2022-10-12 10:27:27,45.4389434530374,9.05596241688746,0,,,119.7548904,0.1,0,0.0250995,0.0361637,17,5,23.333,119.7548904,0,0,0.0250995,0,0,0,54.5, 1.3, 0.1,0,0,1024,1024,1024,1024,0,0,0,0,0,0,55,3.886,3.89,3.888,3.89,3.892,3.887,0,,119.7548904,0,41,Motors_Started,
658600,2022-10-12 10:27:27,45.4389434669679,9.0559624219398,0,,,119.7548904,0.1,0,0.0265477,0.0377622,17,5,23.333,119.7548904,0,0,0.0265477,0,0,0,54.4, 1.3, 0.1,0,0,1024,1024,1024,1024,0,0,0,0,0,0,55,3.886,3.89,3.888,3.89,3.892,3.887,0,,119.7548904,0,41,Motors_Started,
658700,2022-10-12 10:27:27,45.4389435078483,9.05596242253271,0,,,119.7548904,0.1,0,0.0310276,0.0423086,17,5,23.333,119.7548904,0,0,0.0310276,0,0,0,54.4, 1.3, 0.1,0,0,1024,1024,1024,1024,0,0,0,0,0,0,55,3.886,3.89,3.888,3.89,3.892,3.887,0,,119.7548904,0,41,Motors_Started,
658800,2022-10-12 10:27:27,45.4389435274621,9.05596241534909,0,,,119.7548904,0.1,0,0.0332684,0.0445606,16,5,23.324,119.7548904,0,0,0.0332684,0,0,0,54.4, 1.3, 0.1,0,0,1024,1024,1024,1024,0,0,0,0,0,0,55,3.884,3.888,3.888,3.888,3.89,3.886,0,,119.7548904,0,41,Motors_Started,
658900,2022-10-12 10:27:27,45.43894353469,9.05596241854639,0,,,119.7548904,0.1,0,0.034026,0.0454022,16,5,23.324,119.7548904,0,0,0.034026,0,0,0,54.4, 1.3, 0.1,0,0,1024,1024,1024,1024,0,0,0,0,0,0,55,3.884,3.888,3.888,3.888,3.89,3.886,0,,119.7548904,0,41,Motors_Started,
659000,2022-10-12 10:27:28,45.4389435287909,9.05596242107523,0,,,119.7548904,0.1,0,0.0333486,0.0460873,16,5,23.324,119.7548904,0,0,0.034026,0,0,0,54.4, 1.3, 0.1,0,0,1024,1024,1024,1024,0,0,0,0,0,0,55,3.884,3.888,3.888,3.888,3.89,3.886,0,,119.7548904,0,41,Motors_Started,
659100,2022-10-12 10:27:28,45.4389435095444,9.05596242653505,0,,,119.7548904,0.1,0,0.0311699,0.0482696,16,5,23.324,119.7548904,0,0,0.034026,0,0,0,54.3, 1.3, 0.1,0,0,1024,1024,1024,1024,0,0,0,0,0,0,55,3.884,3.888,3.888,3.888,3.89,3.886,0,,119.7548904,0,10,Assisted_Takeoff,
659200,2022-10-12 10:27:28,45.4389434903019,9.05596243335621,0,,,119.7548904,0.1,0,0.0289782,0.0504747,16,5,23.324,119.7548904,0,0,0.034026,0,0,0,54.3, 1.3, 0.1,0,0,1024,1024,1024,1024,0,0,0,0,0,0,55,3.884,3.888,3.888,3.888,3.89,3.886,0,,119.7548904,0,10,Assisted_Takeoff,
659300,2022-10-12 10:27:28,45.4389434424582,9.05596244917404,0,,,119.7548904,0.1,0,0.0235492,0.0559365,16,5,23.324,119.7548904,0,0,0.034026,0,0,0,54.3, 1.3, 0.1,0,0,1024,1024,1024,1024,0,0,0,0,0,0,55,3.884,3.888,3.888,3.888,3.89,3.886,0,,119.7548904,0,10,Assisted_Takeoff,
659400,2022-10-12 10:27:28,45.4389434696076,9.05596245694447,0,,,119.7548904,0.1,0,0.0265031,0.059016,16,5,23.324,119.7548904,0,0,0.034026,0,0,0,54.3, 1.3, 0.1,0,0,1024,1024,1028,1024,0,0,1,0,0,0,55,3.884,3.888,3.888,3.888,3.89,3.886,0,,119.7548904,0,10,Assisted_Takeoff,
659500,2022-10-12 10:27:28,45.4389434815653,9.05596241538648,0,,,119.7548904,0.1,0,0.0282361,0.0625208,16,5,23.324,119.7548904,0,0,0.034026,0,0,0,54.3, 1.4, 0.1,0,0,1024,1024,1024,1024,0,0,0,0,0,0,55,3.884,3.888,3.888,3.888,3.89,3.886,0,,119.7548904,0,10,Assisted_Takeoff,
659600,2022-10-12 10:27:28,45.4389434908189,9.05596236720041,0,,,119.7548904,0.1,0,0.030137,0.066419,16,5,23.324,119.7548904,0,0,0.034026,0,0,0,54.3, 1.3, 0.1,0,0,1024,1024,1024,1024,0,0,0,0,0,0,55,3.884,3.888,3.888,3.888,3.89,3.886,0,,119.7548904,0,10,Assisted_Takeoff,
659700,2022-10-12 10:27:28,45.4389435831207,9.05596226249163,0,,,119.7548904,0.1,0,0.0426243,0.0795383,16,5,23.324,119.7548904,0,0,0.0426243,0,0,0,54.3, 1.3, 0.1,0,0,1024,1024,1024,1024,0,0,0,0,0,0,55,3.884,3.888,3.888,3.888,3.89,3.886,0,,119.7548904,0,10,Assisted_Takeoff,
659800,2022-10-12 10:27:28,45.4389436409223,9.05596224522165,0,,,119.7548904,0.1,0,0.0490723,0.0861059,16,5,23.215,119.7548904,0,0,0.0490723,0,0,0,54.3, 1.4, 0.1,0,0,1024,1024,1024,1024,0,0,0,0,0,0,55,3.864,3.872,3.868,3.871,3.873,3.867,0,,119.7548904,0,10,Assisted_Takeoff,
659900,2022-10-12 10:27:28,45.4389436681939,9.05596223962524,0,,,119.7548904,0.1,0,0.0520525,0.08917,16,5,23.215,119.7548904,0,0,0.0520525,0,0,0,54.3, 1.3, 0.1,0,0,1024,1024,1024,1024,0,0,0,0,0,0,55,3.864,3.872,3.868,3.871,3.873,3.867,0,,119.7548904,0,10,Assisted_Takeoff,
660000,2022-10-12 10:27:29,45.438943690541,9.05596223933527,0,,,119.7548904,0.1,0,0.0543843,0.0916552,16,5,23.215,119.7548904,0,0,0.0543843,0,0,0,54.3, 1.3, 0.1,0,0,1024,1024,1024,1024,0,0,0,0,0,0,55,3.864,3.872,3.868,3.871,3.873,3.867,0,,119.7548904,0,10,Assisted_Takeoff,
660100,2022-10-12 10:27:29,45.4389436349761,9.05596228673538,0,,,119.7548904,0.1,0,0.0473241,0.0988567,16,5,23.215,119.7548904,0,0,0.0543843,0,0,0,54.3, 1.4, 0.1,0,0,1024,1024,1024,1024,0,0,0,0,0,0,55,3.864,3.872,3.868,3.871,3.873,3.867,0,,119.7548904,0,10,Assisted_Takeoff,
660200,2022-10-12 10:27:29,45.438943637409,9.05596228591736,0,,,119.7548904,0.1,0,0.0476009,0.0991347,16,5,23.215,119.7548904,0,0,0.0543843,0,0,0,54.3, 1.3, 0.1,0,0,1024,1024,1024,1024,0,0,0,0,0,0,55,3.864,3.872,3.868,3.871,3.873,3.867,0,,119.7548904,0,10,Assisted_Takeoff,
660300,2022-10-12 10:27:29,45.4389436776364,9.05596228223856,0,,,119.7548904,0.1,0,0.0519438,0.103617,16,5,23.215,119.7548904,0,0,0.0543843,0,0,0,54.3, 1.3, 0.1,0,0,1024,1024,1024,1024,0,0,0,0,0,0,55,3.864,3.872,3.868,3.871,3.873,3.867,0,,119.7548904,0,10,Assisted_Takeoff,
660400,2022-10-12 10:27:29,45.4389437255428,9.05596228243467,0,,,119.7548904,0.1,0,0.0570459,0.108945,16,5,23.215,119.7548904,0,0,0.0570459,0,0,0,54.3, 1.4, 0.1,0,0,1024,1024,1024,1024,0,0,0,0,0,0,55,3.864,3.872,3.868,3.871,3.873,3.867,0,,119.7548904,0,10,Assisted_Takeoff,
660500,2022-10-12 10:27:29,45.4389437483907,9.05596231662437,0,,,119.7548904,0.1,0,0.0588559,0.112629,16,5,23.215,119.7548904,0,0,0.0588559,0,0,0,54.3, 1.4, 0.1,0,0,1024,1024,1072,1024,0,0,7,0,0,0,55,3.864,3.872,3.868,3.871,3.873,3.867,0,,119.7548904,0,10,Assisted_Takeoff,
660600,2022-10-12 10:27:29,45.4389437575995,9.05596233454754,0,,,119.7548904,0.1,0,0.0595713,0.114363,16,5,23.215,119.7548904,0,0,0.0595713,0,0,0,54.3, 1.4, 0.1,0,0,1024,1024,1142,1024,0,0,18,0,0,0,55,3.864,3.872,3.868,3.871,3.873,3.867,0,,119.7548904,0,10,Assisted_Takeoff,
660700,2022-10-12 10:27:29,45.4389437536286,9.05596230533235,0,,,119.7548904,0.1,0,0.0596211,0.116685,16,5,23.215,119.7548904,0,0,0.0596211,0,0,0,54.3, 1.4, 0.1,0,0,1024,1024,1185,1024,0,0,24,0,0,0,55,3.864,3.872,3.868,3.871,3.873,3.867,0,,119.7548904,0,10,Assisted_Takeoff,
660800,2022-10-12 10:27:29,45.438943755586,9.05596226366677,0,,,119.7548904,0.1,0,0.0606612,0.119943,16,5,23.312,119.7548904,0,0,0.0606612,0,0,0,54.3, 1.3, 0.1,0,0,1024,1024,1216,1024,0,0,29,0,0,0,55,3.882,3.887,3.885,3.886,3.888,3.884,0,,119.7548904,0,10,Assisted_Takeoff,
660900,2022-10-12 10:27:29,45.438943800211,9.05596224759559,0,,,119.7548904,0.1,0,0.0657767,0.125062,16,5,23.312,119.7548904,0,0,0.0657767,0,0,0,54.3, 1.4, 0.1,0,0,1024,1024,1223,1024,0,0,30,0,0,0,55,3.882,3.887,3.885,3.886,3.888,3.884,0,,119.7548904,0,10,Assisted_Takeoff,
661000,2022-10-12 10:27:30,45.4389438675105,9.05596216472305,0,,,119.7548904,0.1,0,0.0748742,0.134952,16,5,23.312,119.7548904,0,0,0.0748742,0,0,0,54.3, 1.3, 0.1,0,0,1024,1024,1223,1024,0,0,30,0,0,0,55,3.882,3.887,3.885,3.886,3.888,3.884,0,,119.7548904,0,10,Assisted_Takeoff,
661100,2022-10-12 10:27:30,45.4389438913135,9.05596216331059,0,,,119.7548904,0.1,0,0.0774133,0.137602,16,5,23.312,119.7548904,0,0,0.0774133,0,0,0,54.2, 1.3, 0.1,0,0,1024,1024,1226,1024,0,0,31,0,0,0,55,3.882,3.887,3.885,3.886,3.888,3.884,0,,119.7548904,0,10,Assisted_Takeoff,
661200,2022-10-12 10:27:30,45.4389439069897,9.05596216039716,0,,,119.7548904,0.1,0,0.0791383,0.13936,16,5,23.312,119.7548904,0,0,0.0791383,0,0,0,54.2, 1.4, 0.1,0,0,1024,1024,1232,1024,0,0,32,0,0,0,55,3.882,3.887,3.885,3.886,3.888,3.884,0,,119.7548904,0,10,Assisted_Takeoff,
661300,2022-10-12 10:27:30,45.4389439506011,9.05596211306191,0,,,119.7548904,0.1,0,0.0849303,0.145456,16,5,23.312,119.7548904,0,0,0.0849303,0,0,0,54.2, 1.4, 0.2,0,0,1024,1024,1231,1024,0,0,31,0,0,0,55,3.882,3.887,3.885,3.886,3.888,3.884,0,,119.7548904,0,10,Assisted_Takeoff,
661400,2022-10-12 10:27:30,45.4389440081006,9.05596200517644,0,,,119.7548904,0.1,0,0.0939717,0.156027,16,5,23.312,119.7548904,0,0,0.0939717,0,0,0,54.1, 1.5, 0.2,0,0,1024,1024,1234,1024,0,0,32,0,0,0,55,3.882,3.887,3.885,3.886,3.888,3.884,0,,119.7548904,0,10,Assisted_Takeoff,
661500,2022-10-12 10:27:30,45.438944021418,9.05596196702713,0,,,119.7548904,0.1,0,0.0965326,0.159352,16,5,23.312,119.7548904,0,0,0.0965326,0,0,0,54.1, 1.6, 0.4,0,0,1024,1024,1239,1024,0,0,33,0,0,0,55,3.882,3.887,3.885,3.886,3.888,3.884,0,,119.7548904,0,10,Assisted_Takeoff,
661600,2022-10-12 10:27:30,45.4389440246228,9.05596193528461,0,,,119.7548904,0.1,0,0.0979088,0.161855,16,5,23.312,119.7548904,0,0,0.0979088,0,0,0,54, 2, 0.5,0,0,1024,1024,1261,1024,0,0,36,0,0,0,55,3.882,3.887,3.885,3.886,3.888,3.884,0,,119.7548904,0,10,Assisted_Takeoff,
661700,2022-10-12 10:27:30,45.4389439934658,9.05596189245458,0,,,119.7548904,0.1,0,0.0963491,0.166669,16,5,23.312,119.7548904,0,0,0.0979088,0,0,0,54.2, 2.4, 1.1,0,0,1024,1024,1298,1024,0,0,42,0,0,0,55,3.882,3.887,3.885,3.886,3.888,3.884,0,,119.7548904,0,10,Assisted_Takeoff,
661800,2022-10-12 10:27:30,45.4389438223636,9.05596186992013,0,,,119.7548904,0.1,0.1,0.0811596,0.185777,16,5,23.312,119.7548904,0,0.1,0.0979088,-0.1,0,-0.2,54.5, 2.5, 1.6,0,0,1024,1024,1370,1014,0,0,52,-2,0,0,55,3.882,3.887,3.885,3.886,3.888,3.884,0,,119.7548904,0,10,Assisted_Takeoff,
661900,2022-10-12 10:27:30,45.4389437351181,9.05596172363811,0,,,119.7548904,0.2,0.1,0.0814004,0.200758,16,5,23.312,119.7548904,0,0.1,0.0979088,-0.1,-0.1,-0.4,54.6, 1.6, 1.4,0,0,1024,1024,1516,1001,0,0,75,-3,0,0,55,3.882,3.887,3.885,3.886,3.888,3.884,0,,119.7548904,0,6,P-GPS,
662000,2022-10-12 10:27:30,45.4389435972825,9.05596153375687,0,,,119.7548904,0.2,0.22,0.0843599,0.222076,16,5,23.151,119.7548904,0,0.22,0.0979088,-0.2,-0.1,-0.6,54.6, -0.1, 0.4,0,0,1024,1024,1684,972,0,0,100,-8,0,0,55,3.851,3.863,3.858,3.86,3.862,3.857,0,,119.7548904,0,6,P-GPS,
662100,2022-10-12 10:27:31,45.4389434194613,9.05596133937576,0.1,,,119.8548904,0.3,0.22,0.0915057,0.246998,16,5,23.151,119.8548904,0.1,0.22,0.0979088,-0.2,-0.1,-0.8,54.7, -1.3, -0.5,0,0,1024,1024,1684,1013,0,0,100,-2,0,0,55,3.851,3.863,3.858,3.86,3.862,3.857,0,,119.8548904,0.1,6,P-GPS,
662200,2022-10-12 10:27:31,45.4389432584171,9.05596106478602,0.2,,,119.9548904,0.4,0.22,0.110562,0.274923,16,5,23.151,119.9548904,0.2,0.22,0.110562,-0.1,-0.1,-1.1,54.8, -1.8, -0.9,0,0,1024,1024,1684,1002,0,0,100,-3,0,0,55,3.851,3.863,3.858,3.86,3.862,3.857,0,,119.9548904,0.2,6,P-GPS,
662300,2022-10-12 10:27:31,45.4389431018862,9.05596083024489,0.3,,,120.0548904,0.5,0.14,0.129633,0.300181,16,5,23.151,120.0548904,0.3,0.22,0.129633,-0.1,-0.1,-1.3,54.9, -1.8, -0.7,0,0,1024,1024,1684,998,0,0,100,-4,0,0,55,3.851,3.863,3.858,3.86,3.862,3.857,0,,120.0548904,0.3,6,P-GPS,
662400,2022-10-12 10:27:31,45.4389429579269,9.05596058355861,0.5,,,120.2548904,0.7,0.14,0.151175,0.325217,15,5,23.151,120.2548904,0.5,0.22,0.151175,-0.1,-0.1,-1.6,55, -2, -0.8,0,0,1024,1024,1684,1003,0,0,100,-3,0,0,55,3.851,3.863,3.858,3.86,3.862,3.857,0,,120.2548904,0.5,6,P-GPS,
662500,2022-10-12 10:27:31,45.4389427950491,9.05596035957237,0.7,,,120.4548904,0.9,0,0.172531,0.350388,15,5,23.151,120.4548904,0.7,0.22,0.172531,0,0,-1.9,55.1, -2.3, -0.9,0,0,1024,1024,1684,995,0,0,100,-4,0,0,55,3.851,3.863,3.858,3.86,3.862,3.857,0,,120.4548904,0.7,6,P-GPS,
662600,2022-10-12 10:27:31,45.4389426494825,9.0559601463524,0.9,,,120.6548904,1.1,0,0.193358,0.373601,16,5,23.151,120.6548904,0.9,0.22,0.193358,0,0,-2.2,55.2, -2.6, -0.7,0,0,1024,1024,1684,1010,0,0,100,-2,0,0,55,3.851,3.863,3.858,3.86,3.862,3.857,0,,120.6548904,0.9,6,P-GPS,
662700,2022-10-12 10:27:31,45.4389424865135,9.05595944269009,1.1,,,120.8548904,1.3,0,0.251167,0.431421,16,5,23.151,120.8548904,1.1,0.22,0.251167,0,0,-2.5,55.3, -2.6, -0.3,0,0,1024,1024,1684,1015,0,0,100,-1,0,0,55,3.851,3.863,3.858,3.86,3.862,3.857,0,,120.8548904,1.1,6,P-GPS,
662800,2022-10-12 10:27:31,45.4389424939677,9.05595917102598,1.3,,,121.0548904,1.6,0,0.271015,0.452635,16,5,23.151,121.0548904,1.3,0.22,0.271015,0,0,-2.8,55.4, -2.2, 0.1,0,0,1024,1024,1684,1024,0,0,100,0,0,0,55,3.851,3.863,3.858,3.86,3.862,3.857,0,,121.0548904,1.3,6,P-GPS,
662900,2022-10-12 10:27:31,45.4389426146256,9.05595921967372,1.6,,,121.3548904,1.9,0,0.263592,0.46658,16,5,23.151,121.3548904,1.6,0.22,0.271015,0,0,-3.2,55.4, -1.6, 0.5,0,0,1024,1024,1684,1014,0,0,100,-2,0,0,55,3.851,3.863,3.858,3.86,3.862,3.857,0,,121.3548904,1.6,6,P-GPS,
663000,2022-10-12 10:27:32,45.4389427661515,9.05595935594264,2,,,121.7548904,2.2,0,0.249303,0.486505,16,5,22.697,121.7548904,2,0.22,0.271015,0,0,-3.5,55.5, -1.1, 0.5,0,0,1024,1024,1684,991,0,0,100,-5,0,0,55,3.764,3.795,3.78,3.783,3.794,3.781,0,,121.7548904,2,6,P-GPS,
663100,2022-10-12 10:27:32,45.4389432512845,9.05596003470571,2.3,,,122.0548904,2.6,0,0.190912,0.562107,16,5,22.697,122.0548904,2.3,0.22,0.271015,0,0,-3.9,55.5, -0.7, 0.2,0,0,1024,1024,1684,1024,0,0,100,0,0,0,55,3.764,3.795,3.78,3.783,3.794,3.781,0,,122.0548904,2.3,6,P-GPS,
663200,2022-10-12 10:27:32,45.4389434125591,9.05596015992221,2.7,,,122.4548904,3,0,0.18224,0.582531,17,5,22.697,122.4548904,2.7,0.22,0.271015,0,0,-4.2,55.5, -0.7, 0,0,0,1024,1024,1684,1023,0,0,100,-0,0,0,55,3.764,3.795,3.78,3.783,3.794,3.781,0,,122.4548904,2.7,6,P-GPS,
663300,2022-10-12 10:27:32,45.4389435506601,9.05596024958996,3.2,,,122.9548904,3.5,0,0.177704,0.599407,17,5,22.697,122.9548904,3.2,0.22,0.271015,0,0,-4.5,55.6, -1, 0,0,0,1024,1024,1684,1024,0,0,100,0,0,0,55,3.764,3.795,3.78,3.783,3.794,3.781,0,,122.9548904,3.2,6,P-GPS,
663400,2022-10-12 10:27:32,45.438943696125,9.05596033826495,3.6,,,123.3548904,3.9,0,0.175001,0.617001,17,5,22.697,123.3548904,3.6,0.22,0.271015,0,0,-4.7,55.6, -1.2, 0.1,0,0,1024,1024,1684,1024,0,0,100,0,0,0,55,3.764,3.795,3.78,3.783,3.794,3.781,0,,123.3548904,3.6,6,P-GPS,
663500,2022-10-12 10:27:32,45.4389441218141,9.05596045375678,4.1,,,123.8548904,4.4,0,0.186606,0.665191,17,5,22.697,123.8548904,4.1,0.22,0.271015,0,0,-4.9,55.6, -1.2, 0.3,0,0,1024,1024,1684,1024,0,0,100,0,0,0,55,3.764,3.795,3.78,3.783,3.794,3.781,0,,123.8548904,4.1,6,P-GPS,
663600,2022-10-12 10:27:32,45.4389443704587,9.05596052853001,4.6,,,124.3548904,4.9,0,0.198109,0.693451,16,5,22.697,124.3548904,4.6,0.22,0.271015,0,0,-5,55.7, -1, 0.5,0,0,1024,1024,1684,1024,0,0,100,0,0,0,55,3.764,3.795,3.78,3.783,3.794,3.781,0,,124.3548904,4.6,6,P-GPS,
663700,2022-10-12 10:27:32,45.4389445512128,9.05596053961372,5.2,,,124.9548904,5.4,0,0.210899,0.71357,16,5,22.697,124.9548904,5.2,0.22,0.271015,0,0,-5.1,55.7, -0.9, 0.6,0,0,1024,1024,1684,1024,0,0,100,0,0,0,55,3.764,3.795,3.78,3.783,3.794,3.781,0,,124.9548904,5.2,6,P-GPS,
663800,2022-10-12 10:27:32,45.438944715305,9.05596055005415,5.7,,,125.4548904,5.9,0,0.223428,0.731836,18,5,22.697,125.4548904,5.7,0.22,0.271015,0,0,-5.1,55.7, -1, 0.5,0,0,1024,1024,1684,1024,0,0,100,0,0,0,55,3.764,3.795,3.78,3.783,3.794,3.781,0,,125.4548904,5.7,6,P-GPS,
663900,2022-10-12 10:27:32,45.438944627838,9.05595999621988,6.2,,,125.9548904,6.5,0,0.248389,0.776133,18,5,22.697,125.9548904,6.2,0.22,0.271015,0,0,-5.1,55.7, -1.1, 0.2,0,0,1024,1024,1684,1024,0,0,100,0,0,0,55,3.764,3.795,3.78,3.783,3.794,3.781,0,,125.9548904,6.2,6,P-GPS,
664000,2022-10-12 10:27:33,45.438944701267,9.05595989076787,6.7,,,126.4548904,7,0,0.259919,0.787726,18,5,22.395,126.4548904,6.7,0.22,0.271015,0,0,-5.1,55.6, -0.9, 0.1,0,0,1024,1024,1684,1024,0,0,100,0,0,0,55,3.704,3.748,3.73,3.733,3.749,3.731,0,,126.4548904,6.7,6,P-GPS,
664100,2022-10-12 10:27:33,45.4389448538982,9.05595987470966,7.3,,,127.0548904,7.5,0,0.271847,0.804745,18,5,22.395,127.0548904,7.3,0.22,0.271847,0,0,-5.1,55.6, -0.6, 0.2,0,0,1024,1024,1684,1024,0,0,100,0,0,0,55,3.704,3.748,3.73,3.733,3.749,3.731,0,,127.0548904,7.3,6,P-GPS,
664200,2022-10-12 10:27:33,45.4389450352295,9.05595986830743,7.8,,,127.5548904,8,0,0.285982,0.824917,18,5,22.395,127.5548904,7.8,0.22,0.285982,0,0,-5.1,55.6, -0.3, 0.5,0,0,1024,1024,1684,1024,0,0,100,0,0,0,55,3.704,3.748,3.73,3.733,3.749,3.731,0,,127.5548904,7.8,6,P-GPS,
664300,2022-10-12 10:27:33,45.4389451598816,9.05595991504824,8.3,,,128.0548904,8.5,0,0.293366,0.83925,18,5,22.395,128.0548904,8.3,0.22,0.293366,0,0,-5.1,55.6, -0.2, 0.8,0,0,1024,1024,1684,1024,0,0,100,0,0,0,55,3.704,3.748,3.73,3.733,3.749,3.731,0,,128.0548904,8.3,6,P-GPS,
664400,2022-10-12 10:27:33,45.4389452508383,9.05596004383518,8.9,,,128.6548904,9,0,0.294245,0.853509,18,5,22.395,128.6548904,8.9,0.22,0.294245,0,0,-5.1,55.6, -0.2, 0.8,0,0,1024,1024,1684,1024,0,0,100,0,0,0,55,3.704,3.748,3.73,3.733,3.749,3.731,0,,128.6548904,8.9,6,P-GPS,
664500,2022-10-12 10:27:33,45.4389453631171,9.05596012850935,9.4,,,129.1548904,9.5,0,0.299789,0.867635,18,5,22.395,129.1548904,9.4,0.22,0.299789,0,0,-5.1,55.6, -0.2, 0.7,0,0,1024,1024,1684,1024,0,0,100,0,0,0,55,3.704,3.748,3.73,3.733,3.749,3.731,0,,129.1548904,9.4,6,P-GPS,
664600,2022-10-12 10:27:33,45.4389454844907,9.05596021198396,9.9,,,129.6548904,10.1,0,0.306764,0.882622,18,5,22.395,129.6548904,9.9,0.22,0.306764,0,0,-5.1,55.6, -0.3, 0.4,0,0,1024,1024,1684,1024,0,0,100,0,0,0,55,3.704,3.748,3.73,3.733,3.749,3.731,0,,129.6548904,9.9,6,P-GPS,
664700,2022-10-12 10:27:33,45.4389455697992,9.05596024311067,10.4,,,130.1548904,10.6,0,0.313198,0.892415,18,5,22.395,130.1548904,10.4,0.22,0.313198,0,0,-5.1,55.6, -0.4, 0.2,0,0,1024,1024,1684,1024,0,0,100,0,0,0,55,3.704,3.748,3.73,3.733,3.749,3.731,0,,130.1548904,10.4,6,P-GPS,
664800,2022-10-12 10:27:33,45.4389456081564,9.05596026840593,11,,,130.7548904,11.1,0,0.315664,0.897115,19,5,22.395,130.7548904,11,0.22,0.315664,0,0,-5.1,55.6, -0.4, 0.2,0,0,1024,1024,1684,1024,0,0,100,0,0,0,55,3.704,3.748,3.73,3.733,3.749,3.731,0,,130.7548904,11,6,P-GPS,
664900,2022-10-12 10:27:33,45.4389456845581,9.05596028152858,11.5,,,131.2548904,11.6,0,0.322263,0.905673,19,5,22.395,131.2548904,11.5,0.22,0.322263,0,0,-5.1,55.6, -0.3, 0.3,0,0,1024,1024,1684,1024,0,0,100,0,0,0,55,3.704,3.748,3.73,3.733,3.749,3.731,0,,131.2548904,11.5,6,P-GPS,
665000,2022-10-12 10:27:34,45.4389457664037,9.05596028964392,12,,,131.7548904,12.1,0,0.329673,0.914796,19,5,22.611,131.7548904,12,0.22,0.329673,0,0,-5.1,55.6, 0, 0.5,0,0,1024,1024,1684,1024,0,0,100,0,0,0,55,3.747,3.78,3.767,3.768,3.78,3.769,0,,131.7548904,12,6,P-GPS,
665100,2022-10-12 10:27:34,45.4389458450221,9.05596035450935,12.5,,,132.2548904,12.6,0,0.33464,0.924899,19,5,22.611,132.2548904,12.5,0.22,0.33464,0,0,-5,55.6, 0.3, 0.7,0,0,1024,1024,1684,1024,0,0,100,0,0,0,55,3.747,3.78,3.767,3.768,3.78,3.769,0,,132.2548904,12.5,6,P-GPS,
665200,2022-10-12 10:27:34,45.4389458792353,9.05596044877541,13.1,,,132.8548904,13.1,0,0.334399,0.93318,19,5,22.611,132.8548904,13.1,0.22,0.33464,0,0,-5,55.6, 0.1, 0.7,0,0,1024,1024,1684,1024,0,0,100,0,0,0,55,3.747,3.78,3.767,3.768,3.78,3.769,0,,132.8548904,13.1,6,P-GPS,
665300,2022-10-12 10:27:34,45.4389459115994,9.0559604266637,13.6,,,133.3548904,13.6,0,0.338386,0.937171,19,5,22.611,133.3548904,13.6,0.22,0.338386,0,0,-5,55.6, -0.4, 0.4,0,0,1024,1024,1684,1024,0,0,100,0,0,0,55,3.747,3.78,3.767,3.768,3.78,3.769,0,,133.3548904,13.6,6,P-GPS,
665400,2022-10-12 10:27:34,45.4389459406276,9.05596037862642,14.1,,,133.8548904,14.1,0,0.343009,0.942118,19,5,22.611,133.8548904,14.1,0.22,0.343009,0,0,-5,55.6, -0.6, 0.1,0,0,1024,1024,1684,1024,0,0,100,0,0,0,55,3.747,3.78,3.767,3.768,3.78,3.769,0,,133.8548904,14.1,6,P-GPS,
665500,2022-10-12 10:27:34,45.4389460094213,9.05596033153842,14.6,,,134.3548904,14.6,0,0.351485,0.950605,19,5,22.611,134.3548904,14.6,0.22,0.351485,0,0,-5,55.6, -0.5, 0.2,0,0,1024,1024,1684,1024,0,0,100,0,0,0,55,3.747,3.78,3.767,3.768,3.78,3.769,0,,134.3548904,14.6,6,P-GPS,
665600,2022-10-12 10:27:34,45.4389460713371,9.0559601221552,15.1,,,134.8548904,15.1,0,0.365501,0.968335,19,5,22.611,134.8548904,15.1,0.22,0.365501,0,0,-5,55.6, -0.1, 0.7,0,0,1024,1024,1684,1024,0,0,100,0,0,0,55,3.747,3.78,3.767,3.768,3.78,3.769,0,,134.8548904,15.1,6,P-GPS,
665700,2022-10-12 10:27:34,45.4389461580119,9.05596006749059,15.6,,,135.3548904,15.4,0,0.375978,0.978875,19,5,22.611,135.3548904,15.6,0.22,0.375978,0,0,-5,55.6, 0.1, 1.2,0,0,1024,1024,1684,1024,0,0,100,0,0,0,55,3.747,3.78,3.767,3.768,3.78,3.769,0,,135.3548904,15.6,6,P-GPS,
665800,2022-10-12 10:27:34,45.4389462398839,9.05595999529809,16.1,,,135.8548904,15.4,0,0.38668,0.989582,19,5,22.611,135.8548904,16.1,0.22,0.38668,0,0,-5,55.6, 0.4, 1.7,0,0,1024,1024,1684,1024,0,0,100,0,0,0,55,3.747,3.78,3.767,3.768,3.78,3.769,0,,135.8548904,16.1,6,P-GPS,
665900,2022-10-12 10:27:34,45.4389462938347,9.05595995146232,16.6,,,136.3548904,15.4,0,0.393586,0.996488,19,5,22.611,136.3548904,16.6,0.22,0.393586,0,0,-5,55.6, 0.4, 2,0,0,1024,1024,1684,1024,0,0,100,0,0,0,55,3.747,3.78,3.767,3.768,3.78,3.769,0,,136.3548904,16.6,6,P-GPS,
666000,2022-10-12 10:27:34,45.4389463239296,9.055959920621,17.1,,,136.8548904,15.4,0,0.397688,1.00061,19,5,22.593,136.8548904,17.1,0.22,0.397688,0,0,-5,55.6, 0.2, 1.9,0,0,1024,1024,1684,1024,0,0,100,0,0,0,55,3.745,3.777,3.765,3.765,3.777,3.764,0,,136.8548904,17.1,6,P-GPS,
666100,2022-10-12 10:27:35,45.4389463382224,9.05595989747074,17.6,,,137.3548904,15.4,0,0.399971,1.00302,19,5,22.593,137.3548904,17.6,0.22,0.399971,0,0,-5,55.6, 0.1, 1.5,0,0,1024,1024,1684,1024,0,0,100,0,0,0,55,3.745,3.777,3.765,3.765,3.777,3.764,0,,137.3548904,17.6,6,P-GPS,
666200,2022-10-12 10:27:35,45.438946341726,9.05595987740027,18.1,,,137.8548904,15.4,0,0.401098,1.00463,19,5,22.593,137.8548904,18.1,0.22,0.401098,0,0,-5,55.6, 0.1, 1.1,0,0,1024,1024,1684,1024,0,0,100,0,0,0,55,3.745,3.777,3.765,3.765,3.777,3.764,0,,137.8548904,18.1,6,P-GPS,
666300,2022-10-12 10:27:35,45.4389463267598,9.05595987257991,18.6,,,138.3548904,15.4,0,0.399856,1.00634,19,5,22.593,138.3548904,18.6,0.22,0.401098,0,0,-5,55.6, 0, 0.8,0,0,1024,1024,1684,1024,0,0,100,0,0,0,55,3.745,3.777,3.765,3.765,3.777,3.764,0,,138.3548904,18.6,6,P-GPS,
666400,2022-10-12 10:27:35,45.4389463058823,9.05595986597471,19.1,,,138.8548904,15.4,0,0.398123,1.00871,19,5,22.593,138.8548904,19.1,0.22,0.401098,0,0,-5,55.6, -0.1, 0.4,0,0,1024,1024,1684,1024,0,0,100,0,0,0,55,3.745,3.777,3.765,3.765,3.777,3.764,0,,138.8548904,19.1,6,P-GPS,
666500,2022-10-12 10:27:35,45.4389461527089,9.05595992909498,19.6,,,139.3548904,15.4,0,0.380999,1.02645,19,5,22.593,139.3548904,19.6,0.22,0.401098,0,0,-5,55.6, -0.3, 0.1,0,0,1024,1024,1684,1024,0,0,100,0,0,0,55,3.745,3.777,3.765,3.765,3.777,3.764,0,,139.3548904,19.6,6,P-GPS,
666600,2022-10-12 10:27:35,45.4389461165293,9.05595990819809,20.1,,,139.8548904,15.4,0,0.378437,1.03079,19,5,22.593,139.8548904,20.1,0.22,0.401098,0,0,-5,55.6, -0.5, 0.3,0,0,1024,1024,1684,1024,0,0,100,0,0,0,55,3.745,3.777,3.765,3.765,3.777,3.764,0,,139.8548904,20.1,6,P-GPS,
666700,2022-10-12 10:27:35,45.4389461454851,9.05595987525602,20.7,,,140.4548904,15.4,0,0.382531,1.03491,19,5,22.593,140.4548904,20.7,0.22,0.401098,0,0,-5,55.6, -0.5, 1,0,0,1024,1024,1684,1024,0,0,100,0,0,0,55,3.745,3.777,3.765,3.765,3.777,3.764,0,,140.4548904,20.7,6,P-GPS,
666800,2022-10-12 10:27:35,45.4389461946641,9.05595984273441,21.2,,,140.9548904,15.4,0,0.388513,1.04094,19,5,22.593,140.9548904,21.2,0.22,0.401098,0,0,-5,55.6, -0.8, 1.8,0,0,1024,1024,1684,1024,0,0,100,0,0,0,55,3.745,3.777,3.765,3.765,3.777,3.764,0,,140.9548904,21.2,6,P-GPS,
666900,2022-10-12 10:27:35,45.4389461718146,9.05595971913564,21.7,,,141.4548904,15.4,0,0.391585,1.05091,19,5,22.593,141.4548904,21.7,0.22,0.401098,0,0,-5,55.6, -1.2, 2.3,0,0,1024,1024,1684,1024,0,0,100,0,0,0,55,3.745,3.777,3.765,3.765,3.777,3.764,0,,141.4548904,21.7,6,P-GPS,
667000,2022-10-12 10:27:36,45.4389461381058,9.05595970932704,22.2,,,141.9548904,15.4,0,0.388885,1.05474,19,5,22.569,141.9548904,22.2,0.22,0.401098,0,0,-5,55.6, -1.3, 2.1,0,0,1024,1024,1684,1024,0,0,100,0,0,0,55,3.742,3.773,3.76,3.761,3.774,3.759,0,,141.9548904,22.2,6,P-GPS,
667100,2022-10-12 10:27:36,45.4389461098022,9.05595980090935,22.7,,,142.4548904,15.4,0,0.382318,1.06254,19,5,22.569,142.4548904,22.7,0.22,0.401098,0,0,-5,55.6, -1, 1.4,0,0,1024,1024,1684,1024,0,0,100,0,0,0,55,3.742,3.773,3.76,3.761,3.774,3.759,0,,142.4548904,22.7,6,P-GPS,
667200,2022-10-12 10:27:36,45.4389460815638,9.05595995848569,23.2,,,142.9548904,15.4,0.1,0.373062,1.07524,19,5,22.569,142.9548904,23.2,0.22,0.401098,0,0.1,-4.9,55.5, -0.4, 0.5,0,0,1024,1024,1684,1024,0,0,100,0,0,0,55,3.742,3.773,3.76,3.761,3.774,3.759,0,,142.9548904,23.2,6,P-GPS,
667300,2022-10-12 10:27:36,45.4389460233001,9.05596028379493,23.7,,,143.4548904,15.4,0.1,0.354628,1.10143,19,5,22.569,143.4548904,23.7,0.22,0.401098,0,0.1,-5,55.6, 0.1, -0.3,0,0,1024,1024,1684,1024,0,0,100,0,0,0,55,3.742,3.773,3.76,3.761,3.774,3.759,0,,143.4548904,23.7,6,P-GPS,
667400,2022-10-12 10:27:36,45.4389459997951,9.05596048317877,24.2,,,143.9548904,15.4,0.1,0.345039,1.11721,19,5,22.569,143.9548904,24.2,0.22,0.401098,0,0.1,-4.9,55.6, 0.5, -1,0,0,1024,1024,1684,1024,0,0,100,0,0,0,55,3.742,3.773,3.76,3.761,3.774,3.759,0,,143.9548904,24.2,6,P-GPS,
667500,2022-10-12 10:27:36,45.4389459585141,9.05596060790384,24.7,,,144.4548904,15.4,0,0.336611,1.12797,19,5,22.569,144.4548904,24.7,0.22,0.401098,0,0,-5,55.6, 0.7, -1.4,0,0,1024,1024,1684,1024,0,0,100,0,0,0,55,3.742,3.773,3.76,3.761,3.774,3.759,0,,144.4548904,24.7,6,P-GPS,
667600,2022-10-12 10:27:36,45.4389459263942,9.05596068814529,25.2,,,144.9548904,15.4,0,0.3307,1.13518,19,5,22.569,144.9548904,25.2,0.22,0.401098,0,0,-5,55.6, 0.6, -1.3,0,0,1024,1024,1684,1024,0,0,100,0,0,0,55,3.742,3.773,3.76,3.761,3.774,3.759,0,,144.9548904,25.2,6,P-GPS,
667700,2022-10-12 10:27:36,45.4389459586419,9.05596067530193,25.7,,,145.4548904,15.4,0,0.334374,1.1389,19,5,22.569,145.4548904,25.7,0.22,0.401098,0,0,-4.9,55.6, 0.4, -0.9,0,0,1024,1024,1684,1024,0,0,100,0,0,0,55,3.742,3.773,3.76,3.761,3.774,3.759,0,,145.4548904,25.7,6,P-GPS,
667800,2022-10-12 10:27:36,45.4389460025643,9.05596045202383,26.2,,,145.9548904,15.4,0,0.346418,1.157,19,5,22.569,145.9548904,26.2,0.22,0.401098,0,0,-4.9,55.6, 0.2, -0.1,0,0,1024,1024,1684,1024,0,0,100,0,0,0,55,3.742,3.773,3.76,3.761,3.774,3.759,0,,145.9548904,26.2,6,P-GPS,
667900,2022-10-12 10:27:37,45.4389460494346,9.05596037872791,26.7,,,146.4548904,15.4,0,0.353679,1.16473,19,5,22.538,146.4548904,26.7,0.22,0.401098,0,0,-4.9,55.6, 0, 0.5,0,0,1024,1024,1684,1024,0,0,100,0,0,0,55,3.737,3.768,3.755,3.755,3.769,3.754,0,,146.4548904,26.7,6,P-GPS,
668100,2022-10-12 10:27:37,45.4389461048884,9.05596025554502,27.7,,,147.4548904,15.4,0,0.363645,1.17615,19,5,22.538,147.4548904,27.7,0.22,0.401098,0,0,-4.9,55.6, -0.1, 1.4,0,0,1024,1024,1684,1024,0,0,100,0,0,0,55,3.737,3.768,3.755,3.755,3.769,3.754,0,,147.4548904,27.7,6,P-GPS,
668200,2022-10-12 10:27:37,45.4389459990159,9.05596016026407,28.2,,,147.9548904,15.4,0,0.357058,1.19008,19,5,22.538,147.9548904,28.2,0.22,0.401098,0,0,-4.9,55.5, -0.1, 1,0,0,1024,1024,1684,1024,0,0,100,0,0,0,55,3.737,3.768,3.755,3.755,3.769,3.754,0,,147.9548904,28.2,6,P-GPS,
668300,2022-10-12 10:27:37,45.4389460241167,9.05596018857731,28.7,,,148.4548904,15.4,0,0.358358,1.19364,19,5,22.538,148.4548904,28.7,0.22,0.401098,0,0,-4.9,55.5, 0.1, 0.5,0,0,1024,1024,1684,1024,0,0,100,0,0,0,55,3.737,3.768,3.755,3.755,3.769,3.754,0,,148.4548904,28.7,6,P-GPS,
668400,2022-10-12 10:27:37,45.4389460619365,9.05596022506082,29.2,,,148.9548904,15.4,0,0.36061,1.19872,19,5,22.538,148.9548904,29.2,0.22,0.401098,0,0,-4.9,55.6, 0.3, 0,0,0,1024,1024,1684,1024,0,0,100,0,0,0,55,3.737,3.768,3.755,3.755,3.769,3.754,0,,148.9548904,29.2,6,P-GPS,
668500,2022-10-12 10:27:37,45.4389461103148,9.05596023764932,29.6,,,149.3548904,15.4,0,0.364843,1.20419,19,5,22.538,149.3548904,29.6,0.22,0.401098,0,0,-4.9,55.6, 0.5, -0.1,0,0,1024,1024,1684,1024,0,0,100,0,0,0,55,3.737,3.768,3.755,3.755,3.769,3.754,0,,149.3548904,29.6,6,P-GPS,
668600,2022-10-12 10:27:37,45.4389462147933,9.0559602080129,30.1,,,149.8548904,15.4,0,0.376163,1.21603,19,5,22.538,149.8548904,30.1,0.22,0.401098,0,0,-4.9,55.6, 0.6, 0,0,0,1024,1024,1684,1024,0,0,100,0,0,0,55,3.737,3.768,3.755,3.755,3.769,3.754,0,,149.8548904,30.1,6,P-GPS,
668700,2022-10-12 10:27:37,45.4389462347922,9.05596014537184,30.6,,,150.3548904,15.4,0,0.380443,1.2214,19,5,22.538,150.3548904,30.6,0.22,0.401098,0,0,-4.9,55.6, 0.4, 0.2,0,0,1024,1024,1684,1024,0,0,100,0,0,0,55,3.737,3.768,3.755,3.755,3.769,3.754,0,,150.3548904,30.6,6,P-GPS,
668800,2022-10-12 10:27:37,45.4389462466546,9.05596005852824,31.1,,,150.8548904,15.4,0,0.384884,1.22831,19,5,22.538,150.8548904,31.1,0.22,0.401098,0,0,-4.9,55.5, 0, 0.4,0,0,1024,1024,1684,1024,0,0,100,0,0,0,55,3.737,3.768,3.755,3.755,3.769,3.754,0,,150.8548904,31.1,6,P-GPS,
668900,2022-10-12 10:27:37,45.4389462504306,9.05595994179946,31.6,,,151.3548904,15.4,0,0.3898,1.23742,19,5,22.538,151.3548904,31.6,0.22,0.401098,0,0,-4.9,55.5, -0.2, 0.7,0,0,1024,1024,1684,1024,0,0,100,0,0,0,55,3.737,3.768,3.755,3.755,3.769,3.754,0,,151.3548904,31.6,6,P-GPS,
669000,2022-10-12 10:27:38,45.4389461653028,9.05595963990603,32.1,,,151.8548904,15.4,0,0.394422,1.26281,19,5,22.496,151.8548904,32.1,0.22,0.401098,0,0,-4.9,55.5, -0.4, 1,0,0,1024,1024,1684,1024,0,0,100,0,0,0,55,3.727,3.762,3.748,3.748,3.762,3.749,0,,151.8548904,32.1,6,P-GPS,
669100,2022-10-12 10:27:38,45.4389461714494,9.05595952598919,32.6,,,152.3548904,15.4,0,0.400044,1.27173,19,5,22.496,152.3548904,32.6,0.22,0.401098,0,0,-4.9,55.6, -0.4, 1.2,0,0,1024,1024,1684,1024,0,0,100,0,0,0,55,3.727,3.762,3.748,3.748,3.762,3.749,0,,152.3548904,32.6,6,P-GPS,
669200,2022-10-12 10:27:38,45.4389461745687,9.05595942387793,33.1,,,152.8548904,15.4,0,0.40497,1.2797,19,5,22.496,152.8548904,33.1,0.22,0.40497,0,0,-4.9,55.6, -0.5, 1.3,0,0,1024,1024,1684,1024,0,0,100,0,0,0,55,3.727,3.762,3.748,3.748,3.762,3.749,0,,152.8548904,33.1,6,P-GPS,
669300,2022-10-12 10:27:38,45.43894616656,9.05595933656733,33.6,,,153.3548904,15.4,0,0.408308,1.28657,19,5,22.496,153.3548904,33.6,0.22,0.408308,0,0,-4.9,55.6, -0.6, 1.3,0,0,1024,1024,1684,1024,0,0,100,0,0,0,55,3.727,3.762,3.748,3.748,3.762,3.749,0,,153.3548904,33.6,6,P-GPS,
669400,2022-10-12 10:27:38,45.4389461509265,9.05595926403983,34.1,,,153.8548904,15.4,0,0.410357,1.29249,19,5,22.496,153.8548904,34.1,0.22,0.410357,0,0,-4.9,55.6, -0.6, 1.1,0,0,1024,1024,1684,1024,0,0,100,0,0,0,55,3.727,3.762,3.748,3.748,3.762,3.749,0,,153.8548904,34.1,6,P-GPS,
669500,2022-10-12 10:27:38,45.4389460945469,9.05595919483096,34.6,,,154.3548904,15.4,0,0.408781,1.30077,19,5,22.496,154.3548904,34.6,0.22,0.410357,0,0,-4.9,55.6, -0.5, 0.8,0,0,1024,1024,1684,1024,0,0,100,0,0,0,55,3.727,3.762,3.748,3.748,3.762,3.749,0,,154.3548904,34.6,6,P-GPS,
669600,2022-10-12 10:27:38,45.4389460273252,9.05595912683614,35.1,,,154.8548904,15.4,0,0.406384,1.30993,19,5,22.496,154.8548904,35.1,0.22,0.410357,0,0,-4.9,55.5, -0.4, 0.5,0,0,1024,1024,1684,1024,0,0,100,0,0,0,55,3.727,3.762,3.748,3.748,3.762,3.749,0,,154.8548904,35.1,6,P-GPS,
669700,2022-10-12 10:27:38,45.4389460029067,9.05595908605421,35.6,,,155.3548904,15.4,0,0.406378,1.31412,19,5,22.496,155.3548904,35.6,0.22,0.410357,0,0,-4.9,55.6, 0, 0.3,0,0,1024,1024,1684,1024,0,0,100,0,0,0,55,3.727,3.762,3.748,3.748,3.762,3.749,0,,155.3548904,35.6,6,P-GPS,
669800,2022-10-12 10:27:38,45.4389459938586,9.05595904367745,36.1,,,155.8548904,15.4,0,0.407783,1.31757,19,5,22.496,155.8548904,36.1,0.22,0.410357,0,0,-4.9,55.6, 0, 0.3,0,0,1024,1024,1684,1024,0,0,100,0,0,0,55,3.727,3.762,3.748,3.748,3.762,3.749,0,,155.8548904,36.1,6,P-GPS,
669900,2022-10-12 10:27:38,45.4389459860511,9.05595899708086,36.6,,,156.3548904,15.4,0,0.409534,1.32131,19,5,22.496,156.3548904,36.6,0.22,0.410357,0,0,-4.9,55.6, -0.2, 0.4,0,0,1024,1024,1684,1024,0,0,100,0,0,0,55,3.727,3.762,3.748,3.748,3.762,3.749,0,,156.3548904,36.6,6,P-GPS,
670000,2022-10-12 10:27:39,45.4389459977555,9.05595894484818,37.1,,,156.8548904,15.4,0,0.413218,1.32559,19,5,22.496,156.8548904,37.1,0.22,0.413218,0,0,-4.9,55.6, -0.4, 0.6,0,0,1024,1024,1684,1024,0,0,100,0,0,0,55,3.727,3.762,3.748,3.748,3.762,3.749,0,,156.8548904,37.1,6,P-GPS,
670100,2022-10-12 10:27:39,45.4389460204739,9.05595887080827,37.6,,,157.3548904,15.4,0,0.418965,1.3319,19,5,22.462,157.3548904,37.6,0.22,0.418965,0,0,-4.9,55.6, -0.6, 1.1,0,0,1024,1024,1684,1024,0,0,100,0,0,0,55,3.722,3.757,3.742,3.743,3.755,3.743,0,,157.3548904,37.6,6,P-GPS,
670200,2022-10-12 10:27:39,45.4389460455129,9.05595879700491,38.1,,,157.8548904,15.4,0,0.424905,1.33829,19,5,22.462,157.8548904,38.1,0.22,0.424905,0,0,-4.9,55.6, -0.6, 1.3,0,0,1024,1024,1684,1024,0,0,100,0,0,0,55,3.722,3.757,3.742,3.743,3.755,3.743,0,,157.8548904,38.1,6,P-GPS,
670300,2022-10-12 10:27:39,45.4389460889203,9.05595869662049,38.6,,,158.3548904,15.4,0,0.433767,1.34749,19,5,22.462,158.3548904,38.6,0.22,0.433767,0,0,-4.9,55.5, -0.5, 1.3,0,0,1024,1024,1684,1024,0,0,100,0,0,0,55,3.722,3.757,3.742,3.743,3.755,3.743,0,,158.3548904,38.6,6,P-GPS,
670400,2022-10-12 10:27:39,45.4389461011772,9.05595864510816,39.1,,,158.8548904,15.4,0,0.437506,1.35174,19,5,22.462,158.8548904,39.1,0.22,0.437506,0,0,-4.9,55.5, -0.4, 1.2,0,0,1024,1024,1684,1024,0,0,100,0,0,0,55,3.722,3.757,3.742,3.743,3.755,3.743,0,,158.8548904,39.1,6,P-GPS,
670500,2022-10-12 10:27:39,45.4389461300291,9.05595862151837,39.6,,,159.3548904,15.4,0,0.441106,1.35544,19,5,22.462,159.3548904,39.6,0.22,0.441106,0,0,-5,55.5, -0.4, 1,0,0,1024,1024,1684,1024,0,0,100,0,0,0,55,3.722,3.757,3.742,3.743,3.755,3.743,0,,159.3548904,39.6,6,P-GPS,
670600,2022-10-12 10:27:39,45.4389461622984,9.05595860240327,40.1,,,159.8548904,15.4,0,0.444749,1.35932,19,5,22.462,159.8548904,40.1,0.22,0.444749,0,0,-4.9,55.5, -0.5, 0.7,0,0,1024,1024,1684,1024,0,0,100,0,0,0,55,3.722,3.757,3.742,3.743,3.755,3.743,0,,159.8548904,40.1,6,P-GPS,
670700,2022-10-12 10:27:39,45.43894618834,9.05595863993144,40.6,,,160.3548904,15.4,0,0.444897,1.36344,19,5,22.462,160.3548904,40.6,0.22,0.444897,0,0,-4.9,55.6, -0.7, 0.5,0,0,1024,1024,1684,1024,0,0,100,0,0,0,55,3.722,3.757,3.742,3.743,3.755,3.743,0,,160.3548904,40.6,6,P-GPS,
670800,2022-10-12 10:27:39,45.4389461849329,9.0559586475729,41,,,160.7548904,15.4,0,0.444215,1.36415,19,5,22.462,160.7548904,41,0.22,0.444897,0,0,-4.9,55.6, -0.6, 0.5,0,0,1024,1024,1684,1024,0,0,100,0,0,0,55,3.722,3.757,3.742,3.743,3.755,3.743,0,,160.7548904,41,6,P-GPS,
670900,2022-10-12 10:27:39,45.4389462230015,9.05595867337866,41.5,,,161.2548904,15.4,0,0.44601,1.36884,19,5,22.462,161.2548904,41.5,0.22,0.44601,0,0,-4.9,55.6, -0.4, 0.6,0,0,1024,1024,1684,1024,0,0,100,0,0,0,55,3.722,3.757,3.742,3.743,3.755,3.743,0,,161.2548904,41.5,6,P-GPS,
671000,2022-10-12 10:27:40,45.438946283777,9.05595870449545,42,,,161.7548904,15.4,0,0.449477,1.37602,19,5,22.462,161.7548904,42,0.22,0.449477,0,0,-4.9,55.6, -0.2, 0.9,0,0,1024,1024,1684,1024,0,0,100,0,0,0,55,3.722,3.757,3.742,3.743,3.755,3.743,0,,161.7548904,42,6,P-GPS,
671100,2022-10-12 10:27:40,45.4389462915064,9.05595868389082,42.5,,,162.2548904,15.4,0,0.451181,1.37784,19,5,22.455,162.2548904,42.5,0.22,0.451181,0,0,-4.9,55.6, -0.1, 1,0,0,1024,1024,1684,1024,0,0,100,0,0,0,55,3.722,3.755,3.742,3.741,3.754,3.741,0,,162.2548904,42.5,6,P-GPS,
671200,2022-10-12 10:27:40,45.4389462466204,9.05595864592923,43,,,162.7548904,15.4,0,0.449396,1.38365,18,5,22.455,162.7548904,43,0.22,0.451181,0,0,-4.9,55.6, 0, 1.1,0,0,1024,1024,1684,1024,0,0,100,0,0,0,55,3.722,3.755,3.742,3.741,3.754,3.741,0,,162.7548904,43,6,P-GPS,
671300,2022-10-12 10:27:40,45.4389462865124,9.05595861779455,43.5,,,163.2548904,15.4,0,0.454169,1.3886,18,5,22.455,163.2548904,43.5,0.22,0.454169,0,0,-4.9,55.6, -0.1, 1.2,0,0,1024,1024,1684,1024,0,0,100,0,0,0,55,3.722,3.755,3.742,3.741,3.754,3.741,0,,163.2548904,43.5,6,P-GPS,
671400,2022-10-12 10:27:40,45.4389463370744,9.05595859367671,44,,,163.7548904,15.4,0,0.45963,1.39452,18,5,22.455,163.7548904,44,0.22,0.45963,0,0,-4.9,55.6, -0.1, 1.2,0,0,1024,1024,1684,1024,0,0,100,0,0,0,55,3.722,3.755,3.742,3.741,3.754,3.741,0,,163.7548904,44,6,P-GPS,
671500,2022-10-12 10:27:40,45.4389463864932,9.05595857901646,44.5,,,164.2548904,15.4,0,0.464522,1.40014,18,5,22.455,164.2548904,44.5,0.22,0.464522,0,0,-4.9,55.6, -0.1, 1.1,0,0,1024,1024,1684,1024,0,0,100,0,0,0,55,3.722,3.755,3.742,3.741,3.754,3.741,0,,164.2548904,44.5,6,P-GPS,
671600,2022-10-12 10:27:40,45.4389465308384,9.0559585880513,45,,,164.7548904,15.4,0,0.476311,1.41621,18,5,22.455,164.7548904,45,0.22,0.476311,0,0,-4.9,55.6, -0.1, 1,0,0,1024,1024,1684,1024,0,0,100,0,0,0,55,3.722,3.755,3.742,3.741,3.754,3.741,0,,164.7548904,45,6,P-GPS,
671700,2022-10-12 10:27:40,45.4389465613266,9.05595862886986,45.5,,,165.2548904,15.4,0,0.476913,1.42086,18,5,22.455,165.2548904,45.5,0.22,0.476913,0,0,-4.9,55.6, -0.1, 0.8,0,0,1024,1024,1684,1024,0,0,100,0,0,0,55,3.722,3.755,3.742,3.741,3.754,3.741,0,,165.2548904,45.5,6,P-GPS,
671800,2022-10-12 10:27:40,45.4389465834152,9.05595867994724,46,,,165.7548904,15.4,0,0.476331,1.42554,18,5,22.455,165.7548904,46,0.22,0.476913,0,0,-5,55.6, -0.2, 0.6,0,0,1024,1024,1684,1024,0,0,100,0,0,0,55,3.722,3.755,3.742,3.741,3.754,3.741,0,,165.7548904,46,6,P-GPS,
671900,2022-10-12 10:27:40,45.4389465656208,9.05595866512369,46.5,,,166.2548904,15.4,0,0.475507,1.42783,18,5,22.455,166.2548904,46.5,0.22,0.476913,0,0,-4.9,55.6, -0.3, 0.5,0,0,1024,1024,1684,1024,0,0,100,0,0,0,55,3.722,3.755,3.742,3.741,3.754,3.741,0,,166.2548904,46.5,6,P-GPS,
672000,2022-10-12 10:27:40,45.4389464981759,9.05595866619658,47,,,166.7548904,15.4,0,0.46963,1.43533,18,5,22.455,166.7548904,47,0.22,0.476913,0,0,-5,55.6, -0.3, 0.5,0,0,1024,1024,1684,1025,0,0,100,0,0,0,55,3.722,3.755,3.742,3.741,3.754,3.741,0,,166.7548904,47,6,P-GPS,
672100,2022-10-12 10:27:41,45.4389465218274,9.05595864216268,47.5,,,167.2548904,15.4,0,0.472853,1.43856,18,5,22.425,167.2548904,47.5,0.22,0.476913,0,0,-5,55.6, -0.2, 0.5,0,0,1024,1024,1684,1024,0,0,100,0,0,0,55,3.717,3.75,3.735,3.736,3.749,3.738,0,,167.2548904,47.5,6,P-GPS,
672200,2022-10-12 10:27:41,45.4389465640066,9.05595862200216,48,,,167.7548904,15.4,0,0.477482,1.44351,18,5,22.425,167.7548904,48,0.22,0.477482,0,0,-4.9,55.6, -0.1, 0.5,0,0,1024,1024,1684,1024,0,0,100,0,0,0,55,3.717,3.75,3.735,3.736,3.749,3.738,0,,167.7548904,48,6,P-GPS,
672300,2022-10-12 10:27:41,45.4389465862165,9.05595864340649,48.5,,,168.2548904,15.4,0,0.478354,1.44649,18,5,22.425,168.2548904,48.5,0.22,0.478354,0,0,-4.9,55.5, 0, 0.6,0,0,1024,1024,1684,1024,0,0,100,0,0,0,55,3.717,3.75,3.735,3.736,3.749,3.738,0,,168.2548904,48.5,6,P-GPS,
672400,2022-10-12 10:27:41,45.4389466317466,9.05595876079991,49,,,168.7548904,15.4,0,0.47668,1.45696,18,5,22.425,168.7548904,49,0.22,0.478354,0,0,-4.9,55.5, -0.1, 0.7,0,0,1024,1024,1684,1024,0,0,100,0,0,0,55,3.717,3.75,3.735,3.736,3.749,3.738,0,,168.7548904,49,6,P-GPS,
672500,2022-10-12 10:27:41,45.4389466347462,9.05595876296095,49.5,,,169.2548904,15.4,0,0.476842,1.45733,18,5,22.425,169.2548904,49.5,0.22,0.478354,0,0,-5,55.5, -0.1, 0.8,0,0,1024,1024,1684,1024,0,0,100,0,0,0,55,3.717,3.75,3.735,3.736,3.749,3.738,0,,169.2548904,49.5,6,P-GPS,
672600,2022-10-12 10:27:41,45.4389466353275,9.05595874925912,50,,,169.7548904,15.4,0,0.477544,1.4584,18,5,22.425,169.7548904,50,0.22,0.478354,0,0,-5,55.6, -0.2, 0.8,0,0,1024,1024,1684,1024,0,0,100,0,0,0,55,3.717,3.75,3.735,3.736,3.749,3.738,0,,169.7548904,50,6,P-GPS,
672700,2022-10-12 10:27:41,45.4389466270697,9.05595869170779,50.5,,,170.2548904,15.4,0,0.479572,1.46299,18,5,22.425,170.2548904,50.5,0.22,0.479572,0,0,-5,55.5, -0.3, 0.7,0,0,1024,1024,1684,1024,0,0,100,0,0,0,55,3.717,3.75,3.735,3.736,3.749,3.738,0,,170.2548904,50.5,6,P-GPS,
672900,2022-10-12 10:27:41,45.4389466499787,9.05595849330908,51.5,,,171.2548904,15.4,0,0.491238,1.47868,18,5,22.425,171.2548904,51.5,0.22,0.491238,0,0,-5,55.5, -0.4, 0.7,0,0,1024,1024,1684,1024,0,0,100,0,0,0,55,3.717,3.75,3.735,3.736,3.749,3.738,0,,171.2548904,51.5,6,P-GPS,
673000,2022-10-12 10:27:42,45.4389467023144,9.05595834376109,52,,,171.7548904,15.4,0,0.503162,1.49172,18,5,22.425,171.7548904,52,0.22,0.503162,0,0,-5,55.5, -0.4, 0.6,0,0,1024,1024,1684,1025,0,0,100,0,0,0,55,3.717,3.75,3.735,3.736,3.749,3.738,0,,171.7548904,52,6,P-GPS,
673200,2022-10-12 10:27:42,45.4389467748363,9.05595828257598,53,,,172.7548904,15.4,0,0.512413,1.50109,18,5,22.425,172.7548904,53,0.22,0.512413,0,0,-5,55.5, -0.2, 0.7,0,0,1024,1024,1684,1024,0,0,100,0,0,0,55,3.717,3.75,3.735,3.736,3.749,3.738,0,,172.7548904,53,6,P-GPS,
673300,2022-10-12 10:27:42,45.4389467560506,9.05595829435179,53.5,,,173.2548904,15.4,0,0.51022,1.50337,18,5,22.425,173.2548904,53.5,0.22,0.512413,0,0,-5,55.5, -0.2, 0.8,0,0,1024,1024,1684,1024,0,0,100,0,0,0,55,3.717,3.75,3.735,3.736,3.749,3.738,0,,173.2548904,53.5,6,P-GPS,
673400,2022-10-12 10:27:42,45.438946773854,9.05595824158802,54,,,173.7548904,15.4,0,0.51438,1.50794,18,5,22.425,173.7548904,54,0.22,0.51438,0,0,-5,55.5, -0.3, 1.1,0,0,1024,1024,1684,1024,0,0,100,0,0,0,55,3.717,3.75,3.735,3.736,3.749,3.738,0,,173.7548904,54,6,P-GPS,
673600,2022-10-12 10:27:42,45.4389468752083,9.05595812302556,55.1,,,174.8548904,15.4,0,0.528961,1.52252,18,5,22.425,174.8548904,55.1,0.22,0.528961,0,0,-5,55.5, -0.5, 1.4,0,0,1024,1024,1684,1024,0,0,100,0,0,0,55,3.717,3.75,3.735,3.736,3.749,3.738,0,,174.8548904,55.1,6,P-GPS,
673700,2022-10-12 10:27:42,45.4389468912278,9.05595793737483,55.6,,,175.3548904,15.4,0,0.539731,1.53712,18,5,22.425,175.3548904,55.6,0.22,0.539731,0,0,-5,55.6, -0.5, 1.3,0,0,1024,1024,1684,1024,0,0,100,0,0,0,55,3.717,3.75,3.735,3.736,3.749,3.738,0,,175.3548904,55.6,6,P-GPS,
673800,2022-10-12 10:27:42,45.4389468967111,9.05595785177733,56.1,,,175.8548904,15.4,0,0.544598,1.54382,18,5,22.425,175.8548904,56.1,0.22,0.544598,0,0,-5,55.6, -0.5, 1,0,0,1024,1024,1684,1024,0,0,100,0,0,0,55,3.717,3.75,3.735,3.736,3.749,3.738,0,,175.8548904,56.1,6,P-GPS,
673900,2022-10-12 10:27:42,45.4389469185742,9.05595784121023,56.6,,,176.3548904,15.4,0,0.546965,1.54639,18,5,22.425,176.3548904,56.6,0.22,0.546965,0,0,-5,55.5, -0.3, 0.9,0,0,1024,1024,1684,1024,0,0,100,0,0,0,55,3.717,3.75,3.735,3.736,3.749,3.738,0,,176.3548904,56.6,6,P-GPS,
674000,2022-10-12 10:27:43,45.438946951564,9.05595785113329,57.1,,,176.8548904,15.4,0,0.549211,1.55014,18,5,22.425,176.8548904,57.1,0.22,0.549211,0,0,-5,55.5, -0.3, 0.9,0,0,1024,1024,1684,1024,0,0,100,0,0,0,55,3.717,3.75,3.735,3.736,3.749,3.738,0,,176.8548904,57.1,6,P-GPS,
674100,2022-10-12 10:27:43,45.4389469233342,9.05595792506638,57.6,,,177.3548904,15.4,0,0.543056,1.55671,18,5,22.425,177.3548904,57.6,0.22,0.549211,0,0,-5,55.5, -0.4, 1,0,0,1024,1024,1684,1024,0,0,100,0,0,0,55,3.717,3.75,3.735,3.736,3.749,3.738,0,,177.3548904,57.6,6,P-GPS,
674200,2022-10-12 10:27:43,45.4389469145882,9.05595789802595,58.1,,,177.8548904,15.4,0,0.543707,1.55903,18,5,22.414,177.8548904,58.1,0.22,0.549211,0,0,-5,55.5, -0.6, 1.2,0,0,1024,1024,1684,1024,0,0,100,0,0,0,55,3.715,3.748,3.733,3.735,3.747,3.736,0,,177.8548904,58.1,6,P-GPS,
674300,2022-10-12 10:27:43,45.4389468951621,9.05595786242074,58.6,,,178.3548904,15.4,0,0.543918,1.56255,18,5,22.414,178.3548904,58.6,0.22,0.549211,0,0,-5,55.5, -0.7, 1,0,0,1024,1024,1684,1024,0,0,100,0,0,0,55,3.715,3.748,3.733,3.735,3.747,3.736,0,,178.3548904,58.6,6,P-GPS,
674400,2022-10-12 10:27:43,45.4389468780089,9.05595783452262,59.1,,,178.8548904,15.4,0,0.54394,1.56544,18,5,22.414,178.8548904,59.1,0.22,0.549211,0,0,-5,55.5, -0.7, 0.7,0,0,1024,1024,1684,1024,0,0,100,0,0,0,54,3.715,3.748,3.733,3.735,3.747,3.736,0,,178.8548904,59.1,6,P-GPS,
674500,2022-10-12 10:27:43,45.4389468650806,9.05595780895188,59.6,,,179.3548904,15.4,0,0.544203,1.5679,18,5,22.414,179.3548904,59.6,0.22,0.549211,0,0,-5,55.5, -0.8, 0.6,0,0,1024,1024,1684,1024,0,0,100,0,0,0,54,3.715,3.748,3.733,3.735,3.747,3.736,0,,179.3548904,59.6,6,P-GPS,
674600,2022-10-12 10:27:43,45.438946809144,9.05595772925298,60.1,,,179.8548904,15.4,0,0.543822,1.5767,18,5,22.414,179.8548904,60.1,0.22,0.549211,0,0,-5,55.5, -1, 0.9,0,0,1024,1024,1684,1024,0,0,100,0,0,0,54,3.715,3.748,3.733,3.735,3.747,3.736,0,,179.8548904,60.1,6,P-GPS,
674800,2022-10-12 10:27:43,45.4389468317256,9.0559577376102,61.1,,,180.8548904,15.4,0,0.545219,1.57929,18,5,22.414,180.8548904,61.1,0.22,0.549211,0,0,-5,55.6, -0.4, 0.8,0,0,1024,1024,1684,1024,0,0,100,0,0,0,54,3.715,3.748,3.733,3.735,3.747,3.736,0,,180.8548904,61.1,6,P-GPS,
674900,2022-10-12 10:27:43,45.4389468611313,9.05595778478062,61.6,,,181.3548904,15.4,0,0.545144,1.58422,18,5,22.414,181.3548904,61.6,0.22,0.549211,0,0,-5,55.6, 0.1, 0.4,0,0,1024,1024,1684,1024,0,0,100,0,0,0,54,3.715,3.748,3.733,3.735,3.747,3.736,0,,181.3548904,61.6,6,P-GPS,
675000,2022-10-12 10:27:44,45.4389469068828,9.05595784208014,62.1,,,181.8548904,15.4,0,0.545946,1.59099,18,5,22.414,181.8548904,62.1,0.22,0.549211,0,0,-4.9,55.6, 0.6, 0.3,0,0,1024,1024,1684,1024,0,0,100,0,0,0,54,3.715,3.748,3.733,3.735,3.747,3.736,0,,181.8548904,62.1,6,P-GPS,
675100,2022-10-12 10:27:44,45.4389469715251,9.05595780494572,62.6,,,182.3548904,15.4,0,0.553255,1.59874,18,5,22.414,182.3548904,62.6,0.22,0.553255,0,0,-4.9,55.6, 0.8, 0.5,0,0,1024,1024,1684,1024,0,0,100,0,0,0,54,3.715,3.748,3.733,3.735,3.747,3.736,0,,182.3548904,62.6,6,P-GPS,
675200,2022-10-12 10:27:44,45.4389470430793,9.05595772336201,63.1,,,182.8548904,15.4,0,0.563435,1.60893,18,5,22.411,182.8548904,63.1,0.22,0.563435,0,0,-4.9,55.6, 0.4, 0.6,0,0,1024,1024,1684,1024,0,0,100,0,0,0,54,3.714,3.747,3.733,3.733,3.749,3.735,0,,182.8548904,63.1,6,P-GPS,
675300,2022-10-12 10:27:44,45.4389470747668,9.05595761607937,63.6,,,183.3548904,15.4,0,0.571615,1.61801,18,5,22.411,183.3548904,63.6,0.22,0.571615,0,0,-5,55.6, -0.1, 1,0,0,1024,1024,1495,1024,0,0,71,0,0,0,54,3.714,3.747,3.733,3.733,3.749,3.735,0,,183.3548904,63.6,6,P-GPS,
675400,2022-10-12 10:27:44,45.438947136778,9.05595739860677,64.1,,,183.8548904,15.4,0,0.588096,1.63633,18,5,22.411,183.8548904,64.1,0.22,0.588096,0,0,-5,55.6, -0.8, 1.5,0,0,1024,1024,1289,1024,0,0,40,0,0,0,54,3.714,3.747,3.733,3.733,3.749,3.735,0,,183.8548904,64.1,6,P-GPS,
675500,2022-10-12 10:27:44,45.4389471214458,9.05595732534214,64.6,,,184.3548904,15.4,0,0.590717,1.6423,18,5,22.411,184.3548904,64.6,0.22,0.590717,0,0,-4.9,55.5, -1.2, 1.7,0,0,1024,1024,1160,1024,0,0,21,0,0,0,54,3.714,3.747,3.733,3.733,3.749,3.735,0,,184.3548904,64.6,6,P-GPS,
675600,2022-10-12 10:27:44,45.438947091081,9.05595728354989,65.1,,,184.8548904,15.4,0,0.590484,1.64699,18,5,22.411,184.8548904,65.1,0.22,0.590717,0,0,-4.7,55.5, -1, 1.6,0,0,1024,1024,1041,1024,0,0,3,0,0,0,54,3.714,3.747,3.733,3.733,3.749,3.735,0,,184.8548904,65.1,6,P-GPS,
675700,2022-10-12 10:27:44,45.4389470938261,9.05595722090273,65.6,,,185.3548904,15.4,0,0.594073,1.65189,18,5,22.411,185.3548904,65.6,0.22,0.594073,0,0,-4.4,55.4, -0.8, 1.5,0,0,1024,1024,1024,1024,0,0,0,0,0,0,54,3.714,3.747,3.733,3.733,3.749,3.735,0,,185.3548904,65.6,6,P-GPS,
675800,2022-10-12 10:27:44,45.4389470831757,9.05595720232026,66,,,185.7548904,15.4,0,0.594222,1.65376,18,5,22.411,185.7548904,66,0.22,0.594222,0,0,-4,55.4, -0.9, 1.3,0,0,1024,1024,1024,1024,0,0,0,0,0,0,54,3.714,3.747,3.733,3.733,3.749,3.735,0,,185.7548904,66,6,P-GPS,
675900,2022-10-12 10:27:44,45.4389470786743,9.05595711766135,66.4,,,186.1548904,15.4,0,0.598462,1.66039,18,5,22.411,186.1548904,66.4,0.22,0.598462,0,0,-3.6,55.4, -1.1, 1.3,0,0,1024,1024,1024,1024,0,0,0,0,0,0,54,3.714,3.747,3.733,3.733,3.749,3.735,0,,186.1548904,66.4,6,P-GPS,
676000,2022-10-12 10:27:44,45.4389470689325,9.0559570288513,66.7,,,186.4548904,15.4,0,0.602561,1.6674,18,5,22.411,186.4548904,66.7,0.22,0.602561,0,0,-3.1,55.3, -1.1, 1.4,0,0,1024,1024,1024,1024,0,0,0,0,0,0,54,3.714,3.747,3.733,3.733,3.749,3.735,0,,186.4548904,66.7,6,P-GPS,
676100,2022-10-12 10:27:45,45.4389470567847,9.05595699192596,67,,,186.7548904,15.4,0,0.603646,1.67058,18,5,22.411,186.7548904,67,0.22,0.603646,0,0,-2.7,55.3, -1.1, 1.4,0,0,1024,1024,1024,1024,0,0,0,0,0,0,54,3.714,3.747,3.733,3.733,3.749,3.735,0,,186.7548904,67,6,P-GPS,
676200,2022-10-12 10:27:45,45.4389470456059,9.055956970981,67.2,,,186.9548904,15.4,0,0.603933,1.67264,18,5,22.404,186.9548904,67.2,0.22,0.603933,0,0,-2.2,55.3, -1.1, 1.3,0,0,1024,1024,1024,1024,0,0,0,0,0,0,54,3.714,3.745,3.732,3.733,3.745,3.735,0,,186.9548904,67.2,6,P-GPS,
676300,2022-10-12 10:27:45,45.4389470253122,9.05595698997248,67.4,,,187.1548904,15.4,0,0.601293,1.67534,18,5,22.404,187.1548904,67.4,0.22,0.603933,0,0,-1.8,55.4, -1.1, 1.2,0,0,1024,1024,1024,1024,0,0,0,0,0,0,54,3.714,3.745,3.732,3.733,3.745,3.735,0,,187.1548904,67.4,6,P-GPS,
676400,2022-10-12 10:27:45,45.438947004815,9.05595702455669,67.6,,,187.3548904,15.4,0,0.597771,1.67887,18,5,22.404,187.3548904,67.6,0.22,0.603933,0,0,-1.3,55.4, -1, 1,0,0,1024,1024,1024,1024,0,0,0,0,0,0,54,3.714,3.745,3.732,3.733,3.745,3.735,0,,187.3548904,67.6,6,P-GPS,
676500,2022-10-12 10:27:45,45.4389469699887,9.05595698219061,67.7,,,187.4548904,15.4,0,0.597429,1.68396,18,5,22.404,187.4548904,67.7,0.22,0.603933,0,0,-0.8,55.4, -0.9, 0.9,0,0,1024,1024,1024,1024,0,0,0,0,0,0,54,3.714,3.745,3.732,3.733,3.745,3.735,0,,187.4548904,67.7,6,P-GPS,
676600,2022-10-12 10:27:45,45.4389469341657,9.05595691769527,67.8,,,187.5548904,15.4,0,0.598305,1.69038,18,5,22.404,187.5548904,67.8,0.22,0.603933,0,0,-0.5,55.4, -0.8, 0.8,0,0,1024,1024,1024,1024,0,0,0,0,0,0,54,3.714,3.745,3.732,3.733,3.745,3.735,0,,187.5548904,67.8,6,P-GPS,
676700,2022-10-12 10:27:45,45.4389468737879,9.05595677805203,67.8,,,187.5548904,15.4,0,0.601718,1.70318,18,5,22.404,187.5548904,67.8,0.22,0.603933,0,0,-0.3,55.5, -0.6, 0.8,0,0,1024,1024,1024,1024,0,0,0,0,0,0,54,3.714,3.745,3.732,3.733,3.745,3.735,0,,187.5548904,67.8,6,P-GPS,
676800,2022-10-12 10:27:45,45.4389468840988,9.0559567297431,67.8,,,187.5548904,15.4,0,0.60528,1.70712,18,5,22.404,187.5548904,67.8,0.22,0.60528,0,0,-0.1,55.5, -0.5, 0.9,0,0,1024,1024,1024,1024,0,0,0,0,0,0,54,3.714,3.745,3.732,3.733,3.745,3.735,0,,187.5548904,67.8,6,P-GPS,
676900,2022-10-12 10:27:45,45.4389468989449,9.05595669011647,67.9,,,187.6548904,15.4,0,0.608681,1.71062,18,5,22.404,187.6548904,67.9,0.22,0.608681,0,0,0,55.5, -0.4, 0.9,0,0,1024,1024,1024,1024,0,0,0,0,0,0,54,3.714,3.745,3.732,3.733,3.745,3.735,0,,187.6548904,67.9,6,P-GPS,
677000,2022-10-12 10:27:46,45.4389469152388,9.05595664147483,67.8,,,187.5548904,15.4,0,0.612714,1.71483,18,5,22.404,187.6548904,67.9,0.22,0.612714,0,0,0,55.6, -0.3, 0.9,0,0,1024,1024,1024,1024,0,0,0,0,0,0,54,3.714,3.745,3.732,3.733,3.745,3.735,0,,187.5548904,67.8,6,P-GPS,
677100,2022-10-12 10:27:46,45.4389470754573,9.05595657715042,67.8,,,187.5548904,15.4,0,0.628436,1.73334,18,5,22.404,187.6548904,67.9,0.22,0.628436,0,0,0,55.6, -0.2, 0.9,0,0,1024,1024,1024,1024,0,0,0,0,0,0,54,3.714,3.745,3.732,3.733,3.745,3.735,0,,187.5548904,67.8,6,P-GPS,
677200,2022-10-12 10:27:46,45.438947144391,9.0559565163438,67.8,,,187.5548904,15.4,0,0.637133,1.74236,18,5,22.799,187.6548904,67.9,0.22,0.637133,0,0,0,55.6, -0.1, 1,0,0,1024,1024,1024,1024,0,0,0,0,0,0,54,3.792,3.805,3.798,3.798,3.805,3.801,0,,187.5548904,67.8,6,P-GPS,
677300,2022-10-12 10:27:46,45.4389471744427,9.05595652371513,67.8,,,187.5548904,15.4,0,0.639001,1.74575,18,5,22.799,187.6548904,67.9,0.22,0.639001,0,0,0,55.6, 0, 1.2,0,0,1024,1024,1024,1024,0,0,0,0,0,0,54,3.792,3.805,3.798,3.798,3.805,3.801,0,,187.5548904,67.8,6,P-GPS,
677400,2022-10-12 10:27:46,45.4389471884192,9.05595654317667,67.8,,,187.5548904,15.4,0,0.638966,1.74792,18,5,22.799,187.6548904,67.9,0.22,0.639001,0,0,0,55.6, 0, 1.2,0,0,1024,1024,1024,1024,0,0,0,0,0,0,54,3.792,3.805,3.798,3.798,3.805,3.801,0,,187.5548904,67.8,6,P-GPS,
677500,2022-10-12 10:27:46,45.4389472406772,9.05595673263669,67.8,,,187.5548904,15.4,0,0.632412,1.7638,18,5,22.799,187.6548904,67.9,0.22,0.639001,0,0,0,55.6, 0, 1.2,0,0,1024,1024,1024,1024,0,0,0,0,0,0,54,3.792,3.805,3.798,3.798,3.805,3.801,0,,187.5548904,67.8,6,P-GPS,
677600,2022-10-12 10:27:46,45.4389472726211,9.05595672339887,67.8,,,187.5548904,15.4,0,0.63543,1.76743,18,5,22.799,187.6548904,67.9,0.22,0.639001,0,0,0,55.6, -0.2, 1.1,0,0,1024,1024,1024,1024,0,0,0,0,0,0,54,3.792,3.805,3.798,3.798,3.805,3.801,0,,187.5548904,67.8,6,P-GPS,
677700,2022-10-12 10:27:46,45.4389472598415,9.05595667862451,67.9,,,187.6548904,15.4,0,0.636905,1.7712,18,5,22.799,187.6548904,67.9,0.22,0.639001,0,0,0,55.6, -0.3, 1.1,0,0,1024,1024,1024,1024,0,0,0,0,0,0,54,3.792,3.805,3.798,3.798,3.805,3.801,0,,187.6548904,67.9,6,P-GPS,
677800,2022-10-12 10:27:46,45.4389472323371,9.05595661869543,67.8,,,187.5548904,15.4,0,0.638102,1.77679,18,5,22.799,187.6548904,67.9,0.22,0.639001,0,0,0,55.6, -0.5, 1,0,0,1024,1024,1024,1024,0,0,0,0,0,0,54,3.792,3.805,3.798,3.798,3.805,3.801,0,,187.5548904,67.8,6,P-GPS,
677900,2022-10-12 10:27:46,45.4389471998672,9.05595655328287,67.9,,,187.6548904,15.4,0,0.639273,1.78304,18,5,22.799,187.6548904,67.9,0.22,0.639273,0,0,0,55.5, -0.6, 0.9,0,0,1024,1024,1024,1024,0,0,0,0,0,0,54,3.792,3.805,3.798,3.798,3.805,3.801,0,,187.6548904,67.9,6,P-GPS,
678000,2022-10-12 10:27:47,45.4389470763774,9.05595639996222,67.9,,,187.6548904,15.4,0,0.638709,1.80125,18,5,22.799,187.6548904,67.9,0.22,0.639273,0,0,0,55.5, -0.8, 0.8,0,0,1024,1024,1024,1024,0,0,0,0,0,0,54,3.792,3.805,3.798,3.798,3.805,3.801,0,,187.6548904,67.9,6,P-GPS,
678100,2022-10-12 10:27:47,45.4389470148963,9.05595630971453,67.9,,,187.6548904,15.4,0,0.63944,1.81107,18,5,22.799,187.6548904,67.9,0.22,0.63944,0,0,0,55.5, -1, 0.8,0,0,1024,1024,1024,1024,0,0,0,0,0,0,54,3.792,3.805,3.798,3.798,3.805,3.801,0,,187.6548904,67.9,6,P-GPS,
678200,2022-10-12 10:27:47,45.4389469456463,9.05595621755152,67.9,,,187.6548904,15.4,0,0.639876,1.82161,18,5,22.584,187.6548904,67.9,0.22,0.639876,0,0,0,55.5, -1, 0.7,0,0,1024,1024,1024,1024,0,0,0,0,0,0,54,3.75,3.773,3.762,3.761,3.774,3.764,0,,187.6548904,67.9,6,P-GPS,
678300,2022-10-12 10:27:47,45.4389468848573,9.05595617422243,67.9,,,187.6548904,15.4,0,0.638137,1.82916,18,5,22.584,187.6548904,67.9,0.22,0.639876,0,0,0,55.5, -1.1, 0.7,0,0,1024,1024,1024,1024,0,0,0,0,0,0,54,3.75,3.773,3.762,3.761,3.774,3.764,0,,187.6548904,67.9,6,P-GPS,
678400,2022-10-12 10:27:47,45.4389466870954,9.05595605515634,67.9,,,187.6548904,15.4,0,0.631716,1.85304,18,5,22.584,187.6548904,67.9,0.22,0.639876,0,0,0,55.5, -1.1, 0.5,0,0,1024,1024,1024,1024,0,0,0,0,0,0,54,3.75,3.773,3.762,3.761,3.774,3.764,0,,187.6548904,67.9,6,P-GPS,
678500,2022-10-12 10:27:47,45.4389466466501,9.05595600831099,67.9,,,187.6548904,15.4,0,0.631909,1.85883,18,5,22.584,187.6548904,67.9,0.22,0.639876,0,0,0,55.6, -1.2, 0.6,0,0,1024,1024,1024,1024,0,0,0,0,0,0,54,3.75,3.773,3.762,3.761,3.774,3.764,0,,187.6548904,67.9,6,P-GPS,
678600,2022-10-12 10:27:47,45.4389466174713,9.05595596187465,67.9,,,187.6548904,15.4,0,0.632873,1.8637,18,5,22.584,187.6548904,67.9,0.22,0.639876,0,0,0,55.6, -1.4, 0.6,0,0,1024,1024,1024,1024,0,0,0,0,0,0,54,3.75,3.773,3.762,3.761,3.774,3.764,0,,187.6548904,67.9,6,P-GPS,
678700,2022-10-12 10:27:47,45.4389466032045,9.05595590112755,67.9,,,187.6548904,15.4,0,0.635752,1.8687,18,5,22.584,187.6548904,67.9,0.22,0.639876,0,0,0,55.6, -1.4, 0.7,0,0,1024,1024,1024,1024,0,0,0,0,0,0,54,3.75,3.773,3.762,3.761,3.774,3.764,0,,187.6548904,67.9,6,P-GPS,
678800,2022-10-12 10:27:47,45.4389465588831,9.0559557189534,67.9,,,187.6548904,15.4,0,0.644444,1.88374,18,5,22.584,187.6548904,67.9,0.22,0.644444,0,0,0,55.6, -1.3, 0.7,0,0,1024,1024,1024,1024,0,0,0,0,0,0,54,3.75,3.773,3.762,3.761,3.774,3.764,0,,187.6548904,67.9,6,P-GPS,
678900,2022-10-12 10:27:47,45.4389465918461,9.0559556822692,67.9,,,187.6548904,15.4,0,0.648894,1.88839,18,5,22.584,187.6548904,67.9,0.22,0.648894,0,0,0,55.6, -1.3, 0.8,0,0,1024,1024,1024,1024,0,0,0,0,0,0,54,3.75,3.773,3.762,3.761,3.774,3.764,0,,187.6548904,67.9,6,P-GPS,
679000,2022-10-12 10:27:48,45.4389466442714,9.05595565545464,67.9,,,187.6548904,15.4,0,0.653971,1.89459,18,5,22.584,187.6548904,67.9,0.22,0.653971,0,0,0,55.6, -1.3, 0.8,0,0,1024,1024,1024,1024,0,0,0,0,0,0,54,3.75,3.773,3.762,3.761,3.774,3.764,0,,187.6548904,67.9,6,P-GPS,
679200,2022-10-12 10:27:48,45.4389468635853,9.05595562851647,67.9,,,187.6548904,15.4,0,0.670095,1.91907,18,5,22.584,187.6548904,67.9,0.22,0.670095,0,0,0,55.6, -1.1, 1.1,0,0,1024,1024,1024,1024,0,0,0,0,0,0,54,3.75,3.773,3.762,3.761,3.774,3.764,0,,187.6548904,67.9,6,P-GPS,
679300,2022-10-12 10:27:48,45.4389469122074,9.0559556322876,67.9,,,187.6548904,15.4,0,0.673134,1.92448,18,5,22.606,187.6548904,67.9,0.22,0.673134,0,0,0,55.6, -1, 1.1,0,0,1024,1024,1024,1024,0,0,0,0,0,0,54,3.754,3.775,3.765,3.766,3.777,3.769,0,,187.6548904,67.9,6,P-GPS,
679500,2022-10-12 10:27:48,45.4389469801327,9.05595568130162,67.9,,,187.6548904,15.4,0,0.674742,1.93295,18,5,22.606,187.6548904,67.9,0.22,0.674742,0,0,0,55.7, -0.8, 1,0,0,1024,1024,1024,1024,0,0,0,0,0,0,54,3.754,3.775,3.765,3.766,3.777,3.769,0,,187.6548904,67.9,6,P-GPS,
679600,2022-10-12 10:27:48,45.4389469959277,9.05595573158997,67.9,,,187.6548904,15.4,0,0.672752,1.93725,18,5,22.606,187.6548904,67.9,0.22,0.674742,0,0,0,55.7, -0.7, 1,0,0,1024,1024,1024,1024,0,0,0,0,0,0,54,3.754,3.775,3.765,3.766,3.777,3.769,0,,187.6548904,67.9,6,P-GPS,
679700,2022-10-12 10:27:48,45.4389470169628,9.05595578771435,67.9,,,187.6548904,15.4,0,0.670794,1.94221,18,5,22.606,187.6548904,67.9,0.22,0.674742,0,0,0,55.7, -0.7, 1,0,0,1024,1024,1024,1024,0,0,0,0,0,0,54,3.754,3.775,3.765,3.766,3.777,3.769,0,,187.6548904,67.9,6,P-GPS,
