time(millisecond),datetime(utc),latitude,longitude,height_above_takeoff(meters),height_above_ground_at_drone_location(meters),ground_elevation_at_drone_location(meters),altitude_above_seaLevel(meters),height_sonar(meters),speed(m/s),distance(meters),mileage(meters),satellites,gpslevel,voltage(v),max_altitude(meters),max_ascent(meters),max_speed(m/s),max_distance(meters), xSpeed(m/s), ySpeed(m/s), zSpeed(m/s), compass_heading(degrees), pitch(degrees), roll(degrees),isPhoto,isVideo,rc_elevator,rc_aileron,rc_throttle,rc_rudder,rc_elevator(percent),rc_aileron(percent),rc_throttle(percent),rc_rudder(percent),gimbal_heading(degrees),gimbal_pitch(degrees),battery_percent,voltageCell1,voltageCell2,voltageCell3,voltageCell4,voltageCell5,voltageCell6,current(A),battery_temperature(c),altitude(meters),ascent(meters),flycStateRaw,flycState,message
0,2022-10-12 11:27:25,45.4389409326775,9.05589612222233,0,Available with any HD 360 subscription,Available with any HD 360 subscription,119.7559814,0.1,0,0,0,17,5,0,119.7559814,0,0,0,0,0,0,62.1, 4.2, 0.4,0,0,1024,1024,1024,1024,0,0,0,0,0,0,29,3.763,3.767,3.765,3.77,3.765,3.768,0,,119.7559814,0,6,P-GPS,
100,2022-10-12 11:27:25,45.4389409249619,9.05589614431152,0,,,119.7559814,0.1,0,0.00192537,0.00192537,17,5,0,119.7559814,0,0,0.00192537,0,0,0,62.1, 4.2, 0.4,0,0,1024,1024,1024,1024,0,0,0,0,0,0,29,3.763,3.767,3.765,3.77,3.765,3.768,0,,119.7559814,0,41,Motors_Started,
200,2022-10-12 11:27:25,45.4389409151505,9.05589616474674,0,,,119.7559814,0.1,0,0.00384828,0.00385749,17,5,0,119.7559814,0,0,0.00384828,0,0,0,62.1, 4.2, 0.4,0,0,467,459,854,1684,-84,-86,-26,100,0,0,29,3.763,3.767,3.765,3.77,3.765,3.768,0,,119.7559814,0,41,Motors_Started,
300,2022-10-12 11:27:25,45.4389409993338,9.05589612026962,0,,,119.7559814,0.1,0,0.00741415,0.0138418,17,5,0,119.7559814,0,0,0.00741415,0,0,0,62.1, 4.2, 0.4,0,0,1024,775,1024,1065,0,-38,0,6,0,0,29,3.763,3.767,3.765,3.77,3.765,3.768,0,,119.7559814,0,41,Motors_Started,
400,2022-10-12 11:27:25,45.43894103862,9.05589613056773,0,,,119.7559814,0.1,0,0.0117994,0.0182839,17,5,0,119.7559814,0,0,0.0117994,0,0,0,62.1, 4.2, 0.4,0,0,1024,1024,1024,1024,0,0,0,0,0,0,29,3.763,3.767,3.765,3.77,3.765,3.768,0,,119.7559814,0,41,Motors_Started,"Home Point recorded. Return-to-Home Altitude:45.0 m"
500,2022-10-12 11:27:25,45.4389410584479,9.05589613614316,0,,,119.7559814,0.1,0,0.0140286,0.0205314,17,5,0,119.7559814,0,0,0.0140286,0,0,0,62.1, 4.2, 0.5,0,0,1024,1024,1024,1024,0,0,0,0,0,0,29,3.763,3.767,3.765,3.77,3.765,3.768,0,,119.7559814,0,41,Motors_Started,
600,2022-10-12 11:27:25,45.4389410666024,9.05589614826464,0,,,119.7559814,0.1,0,0.0150313,0.0218417,17,5,0,119.7559814,0,0,0.0150313,0,0,0,62.1, 4.2, 0.5,0,0,1024,1024,1024,1024,0,0,0,0,0,0,29,3.763,3.767,3.765,3.77,3.765,3.768,0,,119.7559814,0,41,Motors_Started,
700,2022-10-12 11:27:25,45.4389410323309,9.05589615439292,0,,,119.7559814,0.1,0,0.0113628,0.0256828,17,5,0,119.7559814,0,0,0.0150313,0,0,0,62.1, 4.2, 0.3,0,0,1024,1024,1024,1024,0,0,0,0,0,0,29,3.763,3.767,3.765,3.77,3.765,3.768,0,,119.7559814,0,41,Motors_Started,
800,2022-10-12 11:27:25,45.4389408848134,9.05589608465984,0,,,119.7559814,0.1,0,0.0060764,0.0429665,17,5,0,119.7559814,0,0,0.0150313,0,0,0,62.1, 4.2, 0.4,0,0,1024,1024,1024,1024,0,0,0,0,0,0,29,3.763,3.767,3.765,3.77,3.765,3.768,0,,119.7559814,0,41,Motors_Started,
900,2022-10-12 11:27:26,45.4389408692252,9.05589608640767,0,,,119.7559814,0.1,0,0.00758953,0.0447054,17,5,0,119.7559814,0,0,0.0150313,0,0,0,62.1, 4.2, 0.4,0,0,1024,1024,1024,1024,0,0,0,0,0,0,29,3.763,3.767,3.765,3.77,3.765,3.768,0,,119.7559814,0,41,Motors_Started,
1000,2022-10-12 11:27:26,45.4389408650621,9.05589609701368,0,,,119.7559814,0.1,0,0.00777228,0.0456537,17,5,0,119.7559814,0,0,0.0150313,0,0,0,62.1, 4.2, 0.4,0,0,1024,1024,1024,1024,0,0,0,0,0,0,29,3.763,3.767,3.765,3.77,3.765,3.768,0,,119.7559814,0,41,Motors_Started,
1100,2022-10-12 11:27:26,45.4389409071394,9.05589606719223,0,,,119.7559814,0.1,0,0.00514819,0.0508796,17,5,0,119.7559814,0,0,0.0150313,0,0,0,62.1, 4.2, 0.3,0,0,1024,1024,1024,1024,0,0,0,0,0,0,29,3.763,3.767,3.765,3.77,3.765,3.768,0,,119.7559814,0,41,Motors_Started,
1200,2022-10-12 11:27:26,45.43894106184,9.05589589414111,0,,,119.7559814,0.1,0,0.0228704,0.0727497,16,5,0,119.7559814,0,0,0.0228704,0,0,0,62.1, 4.2, 0.3,0,0,1024,1024,1024,1024,0,0,0,0,0,0,29,3.763,3.767,3.765,3.77,3.765,3.768,0,,119.7559814,0,41,Motors_Started,
1300,2022-10-12 11:27:26,45.4389411013851,9.05589586944716,0,,,119.7559814,0.1,0,0.0272217,0.0775509,16,5,0,119.7559814,0,0,0.0272217,0,0,0,62.1, 4.2, 0.4,0,0,1024,1024,1024,1024,0,0,0,0,0,0,29,3.763,3.767,3.765,3.77,3.765,3.768,0,,119.7559814,0,41,Motors_Started,
1400,2022-10-12 11:27:26,45.4389411329012,9.05589585803076,0,,,119.7559814,0.1,0,0.0303439,0.0811672,16,5,0,119.7559814,0,0,0.0303439,0,0,0,62.1, 4.2, 0.4,0,0,1024,1024,1024,1024,0,0,0,0,0,0,29,3.763,3.767,3.765,3.77,3.765,3.768,0,,119.7559814,0,41,Motors_Started,
1500,2022-10-12 11:27:26,45.4389411471509,9.05589586116624,0,,,119.7559814,0.1,0,0.0313656,0.0827706,16,5,0,119.7559814,0,0,0.0313656,0,0,0,62.1, 4.2, 0.4,0,0,1024,1024,1024,1024,0,0,0,0,0,0,29,3.763,3.767,3.765,3.77,3.765,3.768,0,,119.7559814,0,41,Motors_Started,
1600,2022-10-12 11:27:26,45.4389411133941,9.05589587850756,0,,,119.7559814,0.1,0,0.0276682,0.086761,16,5,0,119.7559814,0,0,0.0313656,0,0,0,62.1, 4.2, 0.4,0,0,1024,1024,1024,1024,0,0,0,0,0,0,29,3.763,3.767,3.765,3.77,3.765,3.768,0,,119.7559814,0,10,Assisted_Takeoff,
1700,2022-10-12 11:27:26,45.438941112198,9.05589586613006,0,,,119.7559814,0.1,0,0.0282465,0.0877359,16,5,0,119.7559814,0,0,0.0313656,0,0,0,62.1, 4.2, 0.4,0,0,1024,1024,1024,1024,0,0,0,0,0,0,29,3.763,3.767,3.765,3.77,3.765,3.768,0,,119.7559814,0,10,Assisted_Takeoff,
1800,2022-10-12 11:27:26,45.4389411070472,9.05589583616324,0,,,119.7559814,0.1,0,0.0295676,0.0901433,17,5,0,119.7559814,0,0,0.0313656,0,0,0,62, 4.2, 0.4,0,0,1024,1024,1024,1024,0,0,0,0,0,0,29,3.763,3.767,3.765,3.77,3.765,3.768,0,,119.7559814,0,10,Assisted_Takeoff,
1900,2022-10-12 11:27:27,45.4389410998812,9.05589582942069,0,,,119.7559814,0.1,0,0.0294574,0.0910983,17,5,22.598,119.7559814,0,0,0.0313656,0,0,0,62, 4.2, 0.4,0,0,1024,1024,1024,1024,0,0,0,0,0,0,29,3.763,3.767,3.765,3.77,3.765,3.768,0,,119.7559814,0,10,Assisted_Takeoff,
2000,2022-10-12 11:27:27,45.4389410362245,9.05589576879723,0,,,119.7559814,0.1,0,0.0298852,0.0996123,17,5,22.598,119.7559814,0,0,0.0313656,0,0,0,62, 4.2, 0.4,0,0,1024,1024,1024,1024,0,0,0,0,0,0,29,3.763,3.767,3.765,3.77,3.765,3.768,0,,119.7559814,0,10,Assisted_Takeoff,
2100,2022-10-12 11:27:27,45.4389410565329,9.05589577208304,0,,,119.7559814,0.1,0,0.0305968,0.101885,17,5,22.598,119.7559814,0,0,0.0313656,0,0,0,62, 4.2, 0.4,0,0,1024,1024,1024,1024,0,0,0,0,0,0,29,3.763,3.767,3.765,3.77,3.765,3.768,0,,119.7559814,0,10,Assisted_Takeoff,
2200,2022-10-12 11:27:27,45.4389410937713,9.05589577926513,0,,,119.7559814,0.1,0,0.0322037,0.106064,17,5,22.598,119.7559814,0,0,0.0322037,0,0,0,62, 4.2, 0.4,0,0,1024,1024,1024,1024,0,0,0,0,0,0,29,3.763,3.767,3.765,3.77,3.765,3.768,0,,119.7559814,0,10,Assisted_Takeoff,
2300,2022-10-12 11:27:27,45.4389411112795,9.05589578500805,0,,,119.7559814,0.1,0,0.0329674,0.108062,17,5,22.598,119.7559814,0,0,0.0329674,0,0,0,62, 4.2, 0.4,0,0,1024,1024,1040,1024,0,0,2,0,0,0,29,3.763,3.767,3.765,3.77,3.765,3.768,0,,119.7559814,0,10,Assisted_Takeoff,
2400,2022-10-12 11:27:27,45.4389411214663,9.05589579328591,0,,,119.7559814,0.1,0,0.0331595,0.109366,17,5,22.598,119.7559814,0,0,0.0331595,0,0,0,62, 4.2, 0.4,0,0,1024,1024,1073,1024,0,0,7,0,0,0,29,3.763,3.767,3.765,3.77,3.765,3.768,0,,119.7559814,0,10,Assisted_Takeoff,
2500,2022-10-12 11:27:27,45.4389411835287,9.05589581271845,0,,,119.7559814,0.1,0,0.0368978,0.116432,17,5,22.598,119.7559814,0,0,0.0368978,0,0,0,61.9, 4.2, 0.4,0,0,1024,1024,1105,1024,0,0,12,0,0,0,29,3.763,3.767,3.765,3.77,3.765,3.768,0,,119.7559814,0,10,Assisted_Takeoff,
2600,2022-10-12 11:27:27,45.438941181704,9.05589582026147,0,,,119.7559814,0.1,0,0.0363605,0.117055,17,5,22.598,119.7559814,0,0,0.0368978,0,0,0,61.9, 4.2, 0.4,0,0,1024,1024,1135,1024,0,0,17,0,0,0,29,3.763,3.767,3.765,3.77,3.765,3.768,0,,119.7559814,0,10,Assisted_Takeoff,
2700,2022-10-12 11:27:27,45.4389412149976,9.05589583816098,0,,,119.7559814,0.1,0,0.0384316,0.121012,17,5,22.598,119.7559814,0,0,0.0384316,0,0,0,61.9, 4.2, 0.4,0,0,1024,1024,1151,1024,0,0,19,0,0,0,29,3.763,3.767,3.765,3.77,3.765,3.768,0,,119.7559814,0,10,Assisted_Takeoff,
2800,2022-10-12 11:27:27,45.4389412636889,9.05589586369508,0,,,119.7559814,0.1,0,0.0419757,0.126782,17,5,22.682,119.7559814,0,0,0.0419757,0,0,0,61.9, 4.1, 0.4,0,0,1024,1024,1161,1024,0,0,21,0,0,0,29,3.78,3.78,3.78,3.783,3.778,3.781,0,,119.7559814,0,10,Assisted_Takeoff,
2900,2022-10-12 11:27:28,45.4389413120512,9.05589576426073,0,,,119.7559814,0.1,0,0.0505971,0.136222,17,5,22.682,119.7559814,0,0,0.0505971,0,0,0,61.9, 4.1, 0.3,0,0,1055,1024,1164,1024,5,0,21,0,0,0,29,3.78,3.78,3.78,3.783,3.778,3.781,0,,119.7559814,0,10,Assisted_Takeoff,
3000,2022-10-12 11:27:28,45.4389413310201,9.05589573248847,0,,,119.7559814,0.1,0,0.0537322,0.139478,17,5,22.682,119.7559814,0,0,0.0537322,0,0,0,62, 4.2, 0.3,0,0,1119,1024,1185,1024,14,0,24,0,0,0,29,3.78,3.78,3.78,3.783,3.778,3.781,0,,119.7559814,0,10,Assisted_Takeoff,
3100,2022-10-12 11:27:28,45.4389413345579,9.05589571728034,0,,,119.7559814,0.1,0,0.0547334,0.140728,17,5,22.682,119.7559814,0,0,0.0547334,0,0,0,62, 4.1, 0.3,0,0,1128,1024,1194,1024,16,0,26,0,0,0,29,3.78,3.78,3.78,3.783,3.778,3.781,0,,119.7559814,0,10,Assisted_Takeoff,
3200,2022-10-12 11:27:28,45.4389413307612,9.05589570612796,0,,,119.7559814,0.1,0,0.0548993,0.141695,17,5,22.682,119.7559814,0,0,0.0548993,0,0,0,62, 4.2, 0.3,0,0,1121,1024,1205,1024,15,0,27,0,0,0,29,3.78,3.78,3.78,3.783,3.778,3.781,0,,119.7559814,0,10,Assisted_Takeoff,
3300,2022-10-12 11:27:28,45.4389413711808,9.05589566683175,0,,,119.7559814,0.1,0,0.0603376,0.147136,17,5,22.682,119.7559814,0,0,0.0603376,0,0,0,62.1, 4.3, 0.2,0,0,1140,1024,1224,1024,18,0,30,0,0,0,29,3.78,3.78,3.78,3.783,3.778,3.781,0,,119.7559814,0,10,Assisted_Takeoff,
3400,2022-10-12 11:27:28,45.438941410743,9.05589563479852,0,,,119.7559814,0.1,0,0.0653678,0.152196,17,5,22.682,119.7559814,0,0,0.0653678,0,0,0,62.1, 4.3, 0.1,0,0,1176,1024,1240,1024,23,0,33,0,0,0,29,3.78,3.78,3.78,3.783,3.778,3.781,0,,119.7559814,0,10,Assisted_Takeoff,
3500,2022-10-12 11:27:28,45.4389414619576,9.05589555189014,0,,,119.7559814,0.1,0,0.0737897,0.160815,17,5,22.682,119.7559814,0,0,0.0737897,0,0,0,62.4, 4.2, 0.1,0,0,1183,1024,1243,1024,24,0,33,0,0,0,29,3.78,3.78,3.78,3.783,3.778,3.781,0,,119.7559814,0,10,Assisted_Takeoff,
3600,2022-10-12 11:27:28,45.4389415199644,9.05589541480554,0,,,119.7559814,0.1,0,0.0855125,0.173307,17,5,22.682,119.7559814,0,0,0.0855125,0,0,0,63.1, 3.4, 0.1,0,0,1209,1070,1245,1024,28,7,33,0,0,0,29,3.78,3.78,3.78,3.783,3.778,3.781,0,,119.7559814,0,10,Assisted_Takeoff,
3700,2022-10-12 11:27:28,45.4389415288875,9.05589519887901,0,,,119.7559814,0.1,0.1,0.0979129,0.190185,17,5,22.682,119.7559814,0,0.1,0.0979129,0,-0.1,-0.1,63.7, 1.8, 0,0,0,1212,1088,1248,1024,28,10,34,0,0,0,29,3.78,3.78,3.78,3.783,3.778,3.781,0,,119.7559814,0,10,Assisted_Takeoff,
3800,2022-10-12 11:27:29,45.4389415287377,9.05589499701294,0,,,119.7559814,0.2,0.1,0.110012,0.205936,17,5,22.682,119.7559814,0,0.1,0.110012,0,-0.1,-0.3,64, 0, -0.1,0,0,1215,1101,1257,1024,29,12,35,0,0,0,29,3.78,3.78,3.78,3.783,3.778,3.781,0,,119.7559814,0,6,P-GPS,
3900,2022-10-12 11:27:29,45.4389415059272,9.05589483252622,0,,,119.7559814,0.2,0.1,0.119127,0.219019,17,5,22.276,119.7559814,0,0.1,0.119127,0,-0.1,-0.4,64.1, -1.6, 0.2,0,0,1220,1137,1281,1024,30,17,39,0,0,0,29,3.701,3.717,3.71,3.718,3.715,3.715,0,,119.7559814,0,6,P-GPS,
4000,2022-10-12 11:27:29,45.4389414966549,9.05589470130817,0.1,,,119.8559814,0.3,0,0.127383,0.22931,16,5,22.276,119.8559814,0.1,0.1,0.127383,0,0,-0.6,64, -3, 0.9,0,0,1223,1158,1281,1024,30,20,39,0,0,0,29,3.701,3.717,3.71,3.718,3.715,3.715,0,,119.8559814,0.1,6,P-GPS,
4100,2022-10-12 11:27:29,45.4389415795467,9.05589463786513,0.1,,,119.8559814,0.3,0.1,0.136345,0.239773,16,5,22.276,119.8559814,0.1,0.1,0.136345,0.1,0,-0.7,63.9, -3.7, 1.7,0,0,1223,1178,1285,1024,30,23,40,0,0,0,29,3.701,3.717,3.71,3.718,3.715,3.715,0,,119.8559814,0.1,6,P-GPS,
4200,2022-10-12 11:27:29,45.4389416599007,9.05589476509458,0.2,,,119.9559814,0.4,0.1,0.133245,0.25313,17,5,22.276,119.9559814,0.2,0.1,0.136345,0.1,0,-0.8,63.9, -3.8, 2.6,0,0,1221,1192,1286,1024,30,25,40,0,0,0,29,3.701,3.717,3.71,3.718,3.715,3.715,0,,119.9559814,0.2,6,P-GPS,
4300,2022-10-12 11:27:29,45.4389418361472,9.05589483839276,0.3,,,120.0559814,0.5,0.14,0.14188,0.273547,17,5,22.276,120.0559814,0.3,0.14,0.14188,0.1,0.1,-0.8,63.9, -3.6, 3.4,0,0,1215,1194,1290,1024,29,26,40,0,0,0,29,3.701,3.717,3.71,3.718,3.715,3.715,0,,120.0559814,0.3,6,P-GPS,
4400,2022-10-12 11:27:29,45.4389420293165,9.05589499574241,0.4,,,120.1559814,0.6,0.22,0.150329,0.29829,18,5,22.276,120.1559814,0.4,0.22,0.150329,0.1,0.2,-0.8,63.9, -3.1, 3.9,0,0,1215,1194,1293,1024,29,26,41,0,0,0,29,3.701,3.717,3.71,3.718,3.715,3.715,0,,120.1559814,0.4,6,P-GPS,
4500,2022-10-12 11:27:29,45.4389421773371,9.05589526317745,0.5,,,120.2559814,0.7,0.32,0.153791,0.324869,18,5,22.276,120.2559814,0.5,0.32,0.153791,0.1,0.3,-0.8,63.9, -2.6, 4.1,0,0,1213,1191,1295,1024,29,25,41,0,0,0,29,3.701,3.717,3.71,3.718,3.715,3.715,0,,120.2559814,0.5,6,P-GPS,
4600,2022-10-12 11:27:29,45.43894239322,9.05589554551691,0.5,,,120.2559814,0.8,0.3,0.16854,0.357453,17,5,22.276,120.2559814,0.5,0.32,0.16854,0,0.3,-0.8,63.9, -2.3, 4.2,0,0,1212,1186,1303,1024,28,25,42,0,0,0,29,3.701,3.717,3.71,3.718,3.715,3.715,0,,120.2559814,0.5,6,P-GPS,
4700,2022-10-12 11:27:29,45.4389425294507,9.05589601371423,0.6,,,120.3559814,0.9,0.4,0.177773,0.397003,17,5,22.276,120.3559814,0.6,0.4,0.177773,0,0.4,-0.8,63.9, -2.2, 4.2,0,0,1213,1183,1318,1024,29,24,45,0,0,0,29,3.701,3.717,3.71,3.718,3.715,3.715,0,,120.3559814,0.6,6,P-GPS,
4800,2022-10-12 11:27:30,45.4389426637753,9.05589659663682,0.7,,,120.4559814,0.9,0.4,0.196036,0.444878,17,5,22.276,120.4559814,0.7,0.4,0.196036,0,0.4,-0.8,63.9, -2.4, 4.1,0,0,1214,1178,1320,1024,29,23,45,0,0,0,29,3.701,3.717,3.71,3.718,3.715,3.715,0,,120.4559814,0.7,6,P-GPS,
4900,2022-10-12 11:27:30,45.4389427018475,9.0558972479262,0.8,,,120.5559814,1,0.5,0.21546,0.495874,17,5,22.189,120.5559814,0.8,0.5,0.21546,0,0.5,-0.8,63.9, -2.5, 3.9,0,0,1206,1178,1323,1024,28,23,45,0,0,0,29,3.685,3.703,3.695,3.703,3.703,3.7,0,,120.5559814,0.8,6,P-GPS,
5000,2022-10-12 11:27:30,45.4389427133989,9.05589814783656,0.9,,,120.6559814,1.1,0.5,0.253372,0.566106,17,5,22.189,120.6559814,0.9,0.5,0.253372,0,0.5,-0.9,63.9, -2.6, 3.4,0,0,1208,1174,1337,1024,28,23,47,0,0,0,29,3.685,3.703,3.695,3.703,3.703,3.7,0,,120.6559814,0.9,6,P-GPS,
5100,2022-10-12 11:27:30,45.4389427036852,9.05589887954707,1,,,120.7559814,1.2,0.6,0.291683,0.623212,17,5,22.189,120.7559814,1,0.6,0.291683,0,0.6,-0.9,63.9, -2.5, 3,0,0,1204,1170,1342,1024,27,22,48,0,0,0,29,3.685,3.703,3.695,3.703,3.703,3.7,0,,120.7559814,1,6,P-GPS,
5200,2022-10-12 11:27:30,45.4389426941458,9.05589969299884,1.1,,,120.8559814,1.4,0.6,0.340594,0.686694,17,5,22.189,120.8559814,1.1,0.6,0.340594,0,0.6,-1,63.9, -2.3, 2.7,0,0,1193,1171,1337,1024,26,22,47,0,0,0,29,3.685,3.703,3.695,3.703,3.703,3.7,0,,120.8559814,1.1,6,P-GPS,
5300,2022-10-12 11:27:30,45.4389426955821,9.05590048984241,1.2,,,120.9559814,1.5,0.6,0.393169,0.748872,17,5,22.189,120.9559814,1.2,0.6,0.393169,0,0.6,-1.1,63.8, -2.2, 2.6,0,0,1193,1170,1354,1024,26,22,50,0,0,0,29,3.685,3.703,3.695,3.703,3.703,3.7,0,,120.9559814,1.2,6,P-GPS,
5400,2022-10-12 11:27:30,45.4389427817504,9.05590121269826,1.3,,,121.0559814,1.6,0.7,0.447278,0.806084,17,5,22.189,121.0559814,1.3,0.7,0.447278,0,0.7,-1.2,63.8, -2, 2.6,0,0,1193,1170,1372,1024,26,22,53,0,0,0,29,3.685,3.703,3.695,3.703,3.703,3.7,0,,121.0559814,1.3,6,P-GPS,
5500,2022-10-12 11:27:30,45.4389428208599,9.05590220677559,1.5,,,121.2559814,1.7,0.7,0.519137,0.883774,17,5,22.189,121.2559814,1.5,0.7,0.519137,0,0.7,-1.2,63.8, -1.7, 2.7,0,0,1197,1168,1374,1024,26,22,53,0,0,0,29,3.685,3.703,3.695,3.703,3.703,3.7,0,,121.2559814,1.5,6,P-GPS,
5600,2022-10-12 11:27:30,45.4389428657162,9.05590333396016,1.6,,,121.3559814,1.9,0.8,0.602392,0.971869,17,5,22.189,121.3559814,1.6,0.8,0.602392,0,0.8,-1.3,63.8, -1.5, 2.7,0,0,1202,1168,1382,1024,27,22,54,0,0,0,29,3.685,3.703,3.695,3.703,3.703,3.7,0,,121.3559814,1.6,6,P-GPS,
5700,2022-10-12 11:27:30,45.4389428242251,9.0559044216126,1.7,,,121.4559814,2,0.8,0.680907,1.05686,17,5,22.189,121.4559814,1.7,0.8,0.680907,0,0.8,-1.4,63.8, -1.5, 2.6,0,0,1205,1171,1393,1024,27,22,56,0,0,0,29,3.685,3.703,3.695,3.703,3.703,3.7,0,,121.4559814,1.7,6,P-GPS,
5800,2022-10-12 11:27:31,45.4389427330233,9.05590558468762,1.9,,,121.6559814,2.2,0.8,0.765018,1.14818,17,5,22.189,121.6559814,1.9,0.8,0.765018,0,0.8,-1.4,63.8, -1.6, 2.4,0,0,1228,1171,1393,1024,31,22,56,0,0,0,29,3.685,3.703,3.695,3.703,3.703,3.7,0,,121.6559814,1.9,6,P-GPS,
5900,2022-10-12 11:27:31,45.4389426096475,9.05590684400409,2.1,,,121.8559814,2.3,0.81,0.857152,1.2474,17,5,22.117,121.8559814,2.1,0.81,0.857152,-0.1,0.8,-1.5,63.8, -1.7, 2.3,0,0,1246,1172,1403,1024,34,22,57,0,0,0,29,3.671,3.69,3.682,3.691,3.693,3.69,0,,121.8559814,2.1,6,P-GPS,
6000,2022-10-12 11:27:31,45.438942520947,9.0559080313032,2.2,,,121.9559814,2.5,0.9,0.945901,1.34057,17,5,22.117,121.9559814,2.2,0.9,0.945901,0,0.9,-1.6,63.8, -1.8, 2.3,0,0,1247,1164,1417,1024,34,21,60,0,0,0,29,3.671,3.69,3.682,3.691,3.693,3.69,0,,121.9559814,2.2,6,P-GPS,
6100,2022-10-12 11:27:31,45.4389424616537,9.05590925106859,2.4,,,122.1559814,2.7,0.9,1.03846,1.43598,17,5,22.117,122.1559814,2.4,0.9,1.03846,0,0.9,-1.6,63.7, -2, 2.4,0,0,1250,1158,1425,1024,34,20,61,0,0,0,29,3.671,3.69,3.682,3.691,3.693,3.69,0,,122.1559814,2.4,6,P-GPS,
6200,2022-10-12 11:27:31,45.4389424060073,9.05591058684276,2.6,,,122.3559814,2.8,0.9,1.1405,1.54039,17,5,22.117,122.3559814,2.6,0.9,1.1405,0,0.9,-1.7,63.7, -2.7, 2.8,0,0,1238,1154,1425,1024,32,20,61,0,0,0,29,3.671,3.69,3.682,3.691,3.693,3.69,0,,122.3559814,2.6,6,P-GPS,
6300,2022-10-12 11:27:31,45.4389426253595,9.05591171865621,2.7,,,122.4559814,3,0.9,1.23146,1.63201,17,5,22.117,122.4559814,2.7,0.9,1.23146,0,0.9,-1.8,63.6, -3.2, 3.3,0,0,1239,1148,1439,1024,33,19,63,0,0,0,29,3.671,3.69,3.682,3.691,3.693,3.69,0,,122.4559814,2.7,6,P-GPS,
6400,2022-10-12 11:27:31,45.4389426383317,9.05591302925874,2.9,,,122.6559814,3.2,1,1.33282,1.73429,17,5,22.117,122.6559814,2.9,1,1.33282,0,1,-1.8,63.6, -3.6, 3.2,0,0,1209,1134,1448,1024,28,17,64,0,0,0,29,3.671,3.69,3.682,3.691,3.693,3.69,0,,122.6559814,2.9,6,P-GPS,
6500,2022-10-12 11:27:31,45.4389425959816,9.05591435139442,3.1,,,122.8559814,3.4,1.1,1.4344,1.83756,17,5,22.117,122.8559814,3.1,1.1,1.4344,-0.1,1.1,-1.9,63.7, -3.6, 2.6,0,0,1178,1111,1455,1024,23,13,65,0,0,0,29,3.671,3.69,3.682,3.691,3.693,3.69,0,,122.8559814,3.1,6,P-GPS,
6600,2022-10-12 11:27:31,45.4389425275845,9.05591581895208,3.3,,,123.0559814,3.6,1.1,1.54713,1.95233,17,5,22.117,123.0559814,3.3,1.1,1.54713,-0.1,1.1,-2,63.7, -3.4, 1.9,0,0,1139,1087,1476,1024,17,10,68,0,0,0,29,3.671,3.69,3.682,3.691,3.693,3.69,0,,123.0559814,3.3,6,P-GPS,
6700,2022-10-12 11:27:31,45.4389424474626,9.05591702531822,3.5,,,123.2559814,3.8,1.1,1.63974,2.04688,17,5,22.117,123.2559814,3.5,1.1,1.63974,0,1.2,-2.1,63.7, -2.9, 1.3,0,0,1116,1063,1483,1024,14,6,70,0,0,0,29,3.671,3.69,3.682,3.691,3.693,3.69,0,,123.2559814,3.5,6,P-GPS,
6800,2022-10-12 11:27:32,45.4389423907016,9.05591855369393,3.8,,,123.5559814,4.1,1.2,1.75782,2.16631,17,5,22.117,123.5559814,3.8,1.2,1.75782,0,1.2,-2.1,63.7, -1.9, 0.9,0,0,1055,1033,1502,1024,5,1,72,0,0,0,29,3.671,3.69,3.682,3.691,3.693,3.69,0,,123.5559814,3.8,6,P-GPS,
6900,2022-10-12 11:27:32,45.4389423862331,9.05592014336613,4,,,123.7559814,4.3,1.2,1.88132,2.29035,17,5,22.044,123.7559814,4,1.2,1.88132,0,1.2,-2.2,63.7, -0.7, 0.6,0,0,1024,1024,1510,1024,0,0,74,0,0,0,29,3.659,3.68,3.67,3.68,3.68,3.675,0,,123.7559814,4,6,P-GPS,
7000,2022-10-12 11:27:32,45.4389424124787,9.05592185490183,4.2,,,123.9559814,4.6,1.2,2.01465,2.42393,17,5,22.044,123.9559814,4.2,1.2,2.01465,0,1.2,-2.3,63.7, 0.1, 0.6,0,0,1024,1024,1521,1024,0,0,75,0,0,0,29,3.659,3.68,3.67,3.68,3.68,3.675,0,,123.9559814,4.2,6,P-GPS,
7100,2022-10-12 11:27:32,45.4389426467679,9.05592363991427,4.4,,,124.1559814,4.9,1.1,2.15565,2.56563,17,5,22.044,124.1559814,4.4,1.2,2.15565,0,1.1,-2.5,63.7, 1.1, 0.4,0,0,1024,1024,1529,1024,0,0,77,0,0,0,29,3.659,3.68,3.67,3.68,3.68,3.675,0,,124.1559814,4.4,6,P-GPS,
7200,2022-10-12 11:27:32,45.4389427242997,9.05592521872635,4.7,,,124.4559814,5.1,1.1,2.27912,2.68913,17,5,22.044,124.4559814,4.7,1.2,2.27912,0,1.1,-2.6,63.7, 3.1, -0.2,0,0,1024,1024,1529,1024,0,0,77,0,0,0,29,3.659,3.68,3.67,3.68,3.68,3.675,0,,124.4559814,4.7,6,P-GPS,
7300,2022-10-12 11:27:32,45.4389427575444,9.0559265608333,5,,,124.7559814,5.3,1,2.38377,2.79392,17,5,22.044,124.7559814,5,1.2,2.38377,0,1,-2.7,63.6, 5.5, -1.6,0,0,1024,1024,1527,1024,0,0,76,0,0,0,29,3.659,3.68,3.67,3.68,3.68,3.675,0,,124.7559814,5,6,P-GPS,
7400,2022-10-12 11:27:32,45.43894277339,9.05592777523159,5.3,,,125.0559814,5.6,0.8,2.47835,2.88869,17,5,22.044,125.0559814,5.3,1.2,2.47835,0,0.8,-2.8,63.5, 7, -2.7,0,0,1024,1024,1521,1024,0,0,75,0,0,0,29,3.659,3.68,3.67,3.68,3.68,3.675,0,,125.0559814,5.3,6,P-GPS,
7500,2022-10-12 11:27:32,45.4389428620783,9.05592871552172,5.6,,,125.3559814,5.9,0.6,2.55229,2.96272,17,5,22.044,125.3559814,5.6,1.2,2.55229,0,0.6,-2.9,63.5, 7.3, -3,0,0,1024,1024,1516,1024,0,0,75,0,0,0,29,3.659,3.68,3.67,3.68,3.68,3.675,0,,125.3559814,5.6,6,P-GPS,
7600,2022-10-12 11:27:32,45.4389431011656,9.05592932854773,5.8,,,125.5559814,6.2,0.5,2.60228,3.01745,19,5,22.044,125.5559814,5.8,1.2,2.60228,0,0.5,-2.9,63.5, 6.7, -2.7,0,0,1024,1024,1498,1024,0,0,72,0,0,0,29,3.659,3.68,3.67,3.68,3.68,3.675,0,,125.5559814,5.8,6,P-GPS,
7700,2022-10-12 11:27:32,45.4389432143172,9.05592988987065,6.2,,,125.9559814,6.5,0.3,2.64707,3.06302,19,5,22.044,125.9559814,6.2,1.2,2.64707,0,0.3,-2.9,63.5, 5.5, -2.1,0,0,1024,1024,1497,1024,0,0,72,0,0,0,29,3.659,3.68,3.67,3.68,3.68,3.675,0,,125.9559814,6.2,6,P-GPS,
7800,2022-10-12 11:27:32,45.4389433306175,9.05593033847785,6.5,,,126.2559814,6.8,0.2,2.68317,3.10034,19,5,22.044,126.2559814,6.5,1.2,2.68317,0,0.2,-2.9,63.5, 4.4, -1.3,0,0,1024,1024,1484,1024,0,0,70,0,0,0,29,3.659,3.68,3.67,3.68,3.68,3.675,0,,126.2559814,6.5,6,P-GPS,
7900,2022-10-12 11:27:33,45.4389434302432,9.0559305273365,6.7,,,126.4559814,7.1,0.1,2.69896,3.11878,19,5,21.975,126.4559814,6.7,1.2,2.69896,0,0.1,-2.8,63.5, 3.5, -0.6,0,0,1024,1024,1479,1024,0,0,69,0,0,0,29,3.646,3.67,3.656,3.668,3.67,3.665,0,,126.4559814,6.7,6,P-GPS,
8000,2022-10-12 11:27:33,45.4389435327285,9.05593028548364,7.1,,,126.8559814,7.4,0.1,2.68139,3.14082,20,5,21.975,126.8559814,7.1,1.2,2.69896,0,0.1,-2.7,63.5, 2.9, -0.2,0,0,1024,1024,1477,1024,0,0,69,0,0,0,29,3.646,3.67,3.656,3.668,3.67,3.665,0,,126.8559814,7.1,6,P-GPS,
8100,2022-10-12 11:27:33,45.4389436463833,9.05593029940828,7.3,,,127.0559814,7.6,0,2.68386,3.15351,20,5,21.975,127.0559814,7.3,1.2,2.69896,0,0,-2.7,63.6, 2.4, 0,0,0,1024,1024,1484,1024,0,0,70,0,0,0,29,3.646,3.67,3.656,3.668,3.67,3.665,0,,127.0559814,7.3,6,P-GPS,
8200,2022-10-12 11:27:33,45.4389437714975,9.05593027135449,7.6,,,127.3559814,7.9,0,2.68329,3.16759,20,5,21.975,127.3559814,7.6,1.2,2.69896,0,0,-2.6,63.6, 1.9, 0.2,0,0,1024,1024,1486,1024,0,0,70,0,0,0,29,3.646,3.67,3.656,3.668,3.67,3.665,0,,127.3559814,7.6,6,P-GPS,
8300,2022-10-12 11:27:33,45.4389438859144,9.055930188002,7.9,,,127.6559814,8.2,0,2.67836,3.18188,20,5,21.975,127.6559814,7.9,1.2,2.69896,0,0,-2.6,63.6, 1.5, 0.4,0,0,1024,1024,1487,1024,0,0,70,0,0,0,29,3.646,3.67,3.656,3.668,3.67,3.665,0,,127.6559814,7.9,6,P-GPS,
8500,2022-10-12 11:27:33,45.4389441954865,9.05592977985317,8.4,,,128.1559814,8.7,0,2.65125,3.22878,19,5,21.975,128.1559814,8.4,1.2,2.69896,0,0,-2.6,63.5, 1.2, 1,0,0,1024,1024,1485,1024,0,0,70,0,0,0,29,3.646,3.67,3.656,3.668,3.67,3.665,0,,128.1559814,8.4,6,P-GPS,
8600,2022-10-12 11:27:33,45.4389443508393,9.05592964128744,8.7,,,128.4559814,9,0,2.64297,3.24916,19,5,21.975,128.4559814,8.7,1.2,2.69896,0,0,-2.6,63.6, 1, 1.3,0,0,1024,1024,1485,1024,0,0,70,0,0,0,29,3.646,3.67,3.656,3.668,3.67,3.665,0,,128.4559814,8.7,6,P-GPS,
8700,2022-10-12 11:27:33,45.4389445089058,9.05592954507557,9,,,128.7559814,9.2,0,2.63813,3.26828,19,5,21.975,128.7559814,9,1.2,2.69896,0,0,-2.6,63.6, 0.9, 1.6,0,0,1024,1024,1485,1024,0,0,70,0,0,0,29,3.646,3.67,3.656,3.668,3.67,3.665,0,,128.7559814,9,6,P-GPS,
8800,2022-10-12 11:27:33,45.4389447908277,9.05592962421587,9.3,,,129.0559814,9.5,0,2.64913,3.30023,20,5,21.975,129.0559814,9.3,1.2,2.69896,0,0,-2.6,63.6, 0.8, 1.9,0,0,1024,1024,1479,1024,0,0,69,0,0,0,29,3.646,3.67,3.656,3.668,3.67,3.665,0,,129.0559814,9.3,6,P-GPS,
8900,2022-10-12 11:27:34,45.4389449527594,9.05592962611135,9.6,,,129.3559814,9.8,0,2.65225,3.31824,20,5,21.975,129.3559814,9.6,1.2,2.69896,0,0,-2.6,63.6, 1, 2.1,0,0,1024,1024,1484,1024,0,0,70,0,0,0,29,3.646,3.67,3.656,3.668,3.67,3.665,0,,129.3559814,9.6,6,P-GPS,
9000,2022-10-12 11:27:34,45.4389451184796,9.05592966717103,9.8,,,129.5559814,10,0,2.65858,3.33694,20,5,22.054,129.5559814,9.8,1.2,2.69896,0,0,-2.6,63.6, 1, 1.9,0,0,995,1024,1472,1024,-4,0,68,0,0,0,29,3.663,3.68,3.672,3.681,3.68,3.678,0,,129.5559814,9.8,6,P-GPS,
9100,2022-10-12 11:27:34,45.438945201198,9.0559296286173,10.1,,,129.8559814,10.3,0,2.65724,3.34662,20,5,22.054,129.8559814,10.1,1.2,2.69896,0,0,-2.5,63.6, 0.9, 1.7,0,0,900,1024,1486,1024,-19,0,70,0,0,0,29,3.663,3.68,3.672,3.681,3.68,3.678,0,,129.8559814,10.1,6,P-GPS,
9200,2022-10-12 11:27:34,45.4389452473425,9.05592954122355,10.3,,,130.0559814,10.5,0,2.65146,3.35516,19,5,22.054,130.0559814,10.3,1.2,2.69896,0,0,-2.5,63.6, 0.7, 1.5,0,0,890,1024,1502,1024,-20,0,72,0,0,0,29,3.663,3.68,3.672,3.681,3.68,3.678,0,,130.0559814,10.3,6,P-GPS,
9300,2022-10-12 11:27:34,45.4389452445261,9.05592961133207,10.6,,,130.3559814,10.8,0,2.65678,3.36064,19,5,22.054,130.3559814,10.6,1.2,2.69896,0,0,-2.5,63.7, 0.6, 1.5,0,0,861,1024,1504,1024,-25,0,73,0,0,0,29,3.663,3.68,3.672,3.681,3.68,3.678,0,,130.3559814,10.6,6,P-GPS,
9400,2022-10-12 11:27:34,45.4389452367209,9.05592948754868,10.9,,,130.6559814,11,0,2.64712,3.37033,20,5,22.054,130.6559814,10.9,1.2,2.69896,0,0,-2.6,63.8, 1.4, 1.4,0,0,834,1024,1502,1024,-29,0,72,0,0,0,29,3.663,3.68,3.672,3.681,3.68,3.678,0,,130.6559814,10.9,6,P-GPS,
9500,2022-10-12 11:27:34,45.4389452376451,9.05592934820766,11.1,,,130.8559814,11.3,0.1,2.63645,3.38121,20,5,22.054,130.8559814,11.1,1.2,2.69896,0,-0.1,-2.6,63.8, 2.4, 1.2,0,0,827,1024,1508,1024,-30,0,73,0,0,0,29,3.663,3.68,3.672,3.681,3.68,3.678,0,,130.8559814,11.1,6,P-GPS,
9600,2022-10-12 11:27:34,45.4389452387882,9.05592916306672,11.4,,,131.1559814,11.6,0.1,2.62227,3.39565,20,5,22.054,131.1559814,11.4,1.2,2.69896,0,-0.1,-2.7,63.8, 3.1, 1.2,0,0,857,1024,1516,1024,-25,0,75,0,0,0,29,3.663,3.68,3.672,3.681,3.68,3.678,0,,131.1559814,11.4,6,P-GPS,
9700,2022-10-12 11:27:34,45.438945309913,9.05592890670623,11.7,,,131.4559814,11.9,0.2,2.60407,3.41716,20,5,22.054,131.4559814,11.7,1.2,2.69896,0,-0.2,-2.7,63.8, 3.7, 1.2,0,0,839,1024,1525,1024,-28,0,76,0,0,0,29,3.663,3.68,3.672,3.681,3.68,3.678,0,,131.4559814,11.7,6,P-GPS,
9800,2022-10-12 11:27:35,45.4389453080622,9.0559286153449,12,,,131.7559814,12.1,0.22,2.5817,3.4399,20,5,22.054,131.7559814,12,1.2,2.69896,-0.1,-0.2,-2.7,63.9, 3.8, 0.9,0,0,859,1024,1538,1024,-25,0,78,0,0,0,29,3.663,3.68,3.672,3.681,3.68,3.678,0,,131.7559814,12,6,P-GPS,
9900,2022-10-12 11:27:35,45.4389452733715,9.055928244886,12.2,,,131.9559814,12.4,0.32,2.55258,3.46906,20,5,22.054,131.9559814,12.2,1.2,2.69896,-0.1,-0.3,-2.8,63.9, 3.3, 0.6,0,0,861,1024,1543,1024,-25,0,79,0,0,0,29,3.663,3.68,3.672,3.681,3.68,3.678,0,,131.9559814,12.2,6,P-GPS,
10000,2022-10-12 11:27:35,45.4389452126411,9.05592777004266,12.5,,,132.2559814,12.7,0.41,2.51492,3.50673,20,5,21.986,132.2559814,12.5,1.2,2.69896,-0.1,-0.4,-2.9,63.9, 2.5, 0.6,0,0,923,1024,1534,1024,-15,0,77,0,0,0,29,3.649,3.67,3.66,3.67,3.67,3.667,0,,132.2559814,12.5,6,P-GPS,
10100,2022-10-12 11:27:35,45.4389451268767,9.05592700567701,12.8,,,132.5559814,13,0.41,2.45455,3.56713,20,5,21.986,132.5559814,12.8,1.2,2.69896,-0.1,-0.4,-3,63.9, 1.9, 1,0,0,980,1024,1540,1024,-7,0,78,0,0,0,29,3.649,3.67,3.66,3.67,3.67,3.667,0,,132.5559814,12.8,6,P-GPS,
10200,2022-10-12 11:27:35,45.4389450287751,9.05592637325052,13.1,,,132.8559814,13,0.41,2.40403,3.61767,19,5,21.986,132.8559814,13.1,1.2,2.69896,-0.1,-0.4,-3,63.9, 1.4, 1.4,0,0,1024,1024,1544,1024,0,0,79,0,0,0,29,3.649,3.67,3.66,3.67,3.67,3.667,0,,132.8559814,13.1,6,P-GPS,
10300,2022-10-12 11:27:35,45.4389449548641,9.05592573928414,13.4,,,133.1559814,13,0.41,2.3539,3.66781,19,5,21.986,133.1559814,13.4,1.2,2.69896,-0.1,-0.4,-3,63.8, 0.6, 1.7,0,0,1024,1024,1552,1024,0,0,80,0,0,0,29,3.649,3.67,3.66,3.67,3.67,3.667,0,,133.1559814,13.4,6,P-GPS,
10400,2022-10-12 11:27:35,45.4389448861243,9.0559250723345,13.7,,,133.4559814,13,0.4,2.30136,3.72041,20,5,21.986,133.4559814,13.7,1.2,2.69896,0,-0.4,-3.1,63.7, -0.3, 2,0,0,1024,1024,1550,1024,0,0,80,0,0,0,28,3.649,3.67,3.66,3.67,3.67,3.667,0,,133.4559814,13.7,6,P-GPS,
10600,2022-10-12 11:27:35,45.4389449805056,9.05592401686085,14.3,,,134.0559814,13,0.3,2.22267,3.80344,20,5,21.986,134.0559814,14.3,1.2,2.69896,0,-0.3,-3.2,63.6, -2.3, 1.9,0,0,1024,1024,1550,1024,0,0,80,0,0,0,28,3.649,3.67,3.66,3.67,3.67,3.667,0,,134.0559814,14.3,6,P-GPS,
10700,2022-10-12 11:27:35,45.438944972225,9.0559236176614,14.7,,,134.4559814,13,0.2,2.19199,3.8346,20,5,21.986,134.4559814,14.7,1.2,2.69896,0,-0.2,-3.2,63.6, -2.6, 1.6,0,0,1024,1024,1550,1024,0,0,80,0,0,0,28,3.649,3.67,3.66,3.67,3.67,3.667,0,,134.4559814,14.7,6,P-GPS,
10800,2022-10-12 11:27:36,45.4389449773668,9.05592327206509,15,,,134.7559814,13,0.2,2.16572,3.86157,20,5,21.986,134.7559814,15,1.2,2.69896,0,-0.2,-3.2,63.6, -2.4, 1.4,0,0,1024,1024,1556,1024,0,0,81,0,0,0,28,3.649,3.67,3.66,3.67,3.67,3.667,0,,134.7559814,15,6,P-GPS,
11000,2022-10-12 11:27:36,45.4389452189391,9.05592307645778,15.6,,,135.3559814,13,0.1,2.15657,3.89247,20,5,21.913,135.3559814,15.6,1.2,2.69896,0,-0.1,-3.2,63.6, -1.2, 1.5,0,0,1024,1024,1569,1024,0,0,83,0,0,0,28,3.636,3.658,3.648,3.656,3.66,3.655,0,,135.3559814,15.6,6,P-GPS,
11100,2022-10-12 11:27:36,45.4389452938858,9.05592298159961,16,,,135.7559814,13,0,2.15122,3.90362,20,5,21.913,135.7559814,16,1.2,2.69896,0,0,-3.2,63.6, -0.8, 1.5,0,0,1024,1024,1572,1024,0,0,83,0,0,0,28,3.636,3.658,3.648,3.656,3.66,3.655,0,,135.7559814,16,6,P-GPS,
11200,2022-10-12 11:27:36,45.4389453720878,9.05592291544689,16.3,,,136.0559814,13,0,2.14817,3.91373,20,5,21.913,136.0559814,16.3,1.2,2.69896,0,0,-3.3,63.7, -0.4, 1.6,0,0,1024,1024,1571,1024,0,0,83,0,0,0,28,3.636,3.658,3.648,3.656,3.66,3.655,0,,136.0559814,16.3,6,P-GPS,
11300,2022-10-12 11:27:36,45.4389454512302,9.05592285603061,16.6,,,136.3559814,13,0,2.1457,3.92368,20,5,21.913,136.3559814,16.6,1.2,2.69896,0,0,-3.3,63.7, -0.2, 1.8,0,0,1024,1024,1574,1024,0,0,83,0,0,0,28,3.636,3.658,3.648,3.656,3.66,3.655,0,,136.3559814,16.6,6,P-GPS,
11400,2022-10-12 11:27:36,45.4389454969829,9.05592285370628,17,,,136.7559814,13,0,2.14672,3.92877,20,5,21.913,136.7559814,17,1.2,2.69896,0,0,-3.4,63.7, 0, 1.8,0,0,1024,1024,1573,1024,0,0,83,0,0,0,28,3.636,3.658,3.648,3.656,3.66,3.655,0,,136.7559814,17,6,P-GPS,
11500,2022-10-12 11:27:36,45.4389455378365,9.0559228226246,17.3,,,137.0559814,13,0,2.14545,3.93392,20,5,21.913,137.0559814,17.3,1.2,2.69896,0,0,-3.4,63.6, 0, 1.6,0,0,1024,1024,1574,1024,0,0,83,0,0,0,28,3.636,3.658,3.648,3.656,3.66,3.655,0,,137.0559814,17.3,6,P-GPS,
11600,2022-10-12 11:27:36,45.4389455684415,9.05592280972707,17.7,,,137.4559814,13,0,2.14529,3.93747,20,5,21.913,137.4559814,17.7,1.2,2.69896,0,0,-3.5,63.7, 0, 1.5,0,0,1024,1024,1576,1024,0,0,84,0,0,0,28,3.636,3.658,3.648,3.656,3.66,3.655,0,,137.4559814,17.7,6,P-GPS,
11700,2022-10-12 11:27:36,45.4389455718628,9.05592279644341,18,,,137.7559814,13,0,2.14437,3.93857,20,5,21.913,137.7559814,18,1.2,2.69896,0,0,-3.5,63.6, 0, 1.2,0,0,1024,1024,1584,1024,0,0,85,0,0,0,28,3.636,3.658,3.648,3.656,3.66,3.655,0,,137.7559814,18,6,P-GPS,
11800,2022-10-12 11:27:36,45.4389454224303,9.05592272809303,18.4,,,138.1559814,13,0,2.13525,3.95603,20,5,21.913,138.1559814,18.4,1.2,2.69896,0,0,-3.5,63.6, 0.1, 1.3,0,0,1024,1024,1584,1024,0,0,85,0,0,0,28,3.636,3.658,3.648,3.656,3.66,3.655,0,,138.1559814,18.4,6,P-GPS,
11900,2022-10-12 11:27:37,45.4389454915203,9.0559227036837,18.8,,,138.5559814,13,0,2.13521,3.96394,20,5,21.913,138.5559814,18.8,1.2,2.69896,0,0,-3.5,63.6, 0.2, 1.5,0,0,1024,1024,1586,1024,0,0,85,0,0,0,28,3.636,3.658,3.648,3.656,3.66,3.655,0,,138.5559814,18.8,6,P-GPS,
12000,2022-10-12 11:27:37,45.438945600714,9.05592267422738,19.1,,,138.8559814,13,0.1,2.13589,3.9763,20,5,21.878,138.8559814,19.1,1.2,2.69896,0.1,0,-3.6,63.5, 0.1, 2,0,0,1024,1024,1584,1024,0,0,85,0,0,0,28,3.629,3.653,3.64,3.651,3.655,3.65,0,,138.8559814,19.1,6,P-GPS,
12100,2022-10-12 11:27:37,45.4389457267645,9.05592260922996,19.5,,,139.2559814,13,0.1,2.13443,3.99121,20,5,21.878,139.2559814,19.5,1.2,2.69896,0.1,0,-3.6,63.6, 0.2, 2.4,0,0,1024,1024,1588,1024,0,0,85,0,0,0,28,3.629,3.653,3.64,3.651,3.655,3.65,0,,139.2559814,19.5,6,P-GPS,
12200,2022-10-12 11:27:37,45.4389460153997,9.05592229257566,19.9,,,139.6559814,13,0,2.11885,4.03171,20,5,21.878,139.6559814,19.9,1.2,2.69896,0,0,-3.6,63.6, 0.4, 2.5,0,0,1024,1024,1593,1024,0,0,86,0,0,0,28,3.629,3.653,3.64,3.651,3.655,3.65,0,,139.6559814,19.9,6,P-GPS,
12300,2022-10-12 11:27:37,45.4389460890542,9.05592226569091,20.2,,,139.9559814,13,0,2.11903,4.04017,20,5,21.878,139.9559814,20.2,1.2,2.69896,0,0,-3.6,63.6, 0.6, 2.4,0,0,1024,1024,1595,1024,0,0,87,0,0,0,28,3.629,3.653,3.64,3.651,3.655,3.65,0,,139.9559814,20.2,6,P-GPS,
12400,2022-10-12 11:27:37,45.4389461292165,9.05592225915439,20.6,,,140.3559814,13,0,2.11975,4.04467,20,5,21.878,140.3559814,20.6,1.2,2.69896,0,0,-3.7,63.7, 0.8, 2.2,0,0,1024,1024,1603,1024,0,0,88,0,0,0,28,3.629,3.653,3.64,3.651,3.655,3.65,0,,140.3559814,20.6,6,P-GPS,
12500,2022-10-12 11:27:37,45.4389461698853,9.05592225098793,21,,,140.7559814,13,0,2.12038,4.04923,20,5,21.878,140.7559814,21,1.2,2.69896,0,0,-3.7,63.7, 0.8, 2,0,0,1024,1024,1619,1024,0,0,90,0,0,0,28,3.629,3.653,3.64,3.651,3.655,3.65,0,,140.7559814,21,6,P-GPS,
12600,2022-10-12 11:27:37,45.4389462202498,9.05592224067722,21.3,,,141.0559814,13,0,2.12115,4.05489,20,5,21.878,141.0559814,21.3,1.2,2.69896,0,0,-3.7,63.6, 0.7, 1.9,0,0,1024,1024,1644,1024,0,0,94,0,0,0,28,3.629,3.653,3.64,3.651,3.655,3.65,0,,141.0559814,21.3,6,P-GPS,
12700,2022-10-12 11:27:37,45.4389462364838,9.05592220598009,21.7,,,141.4559814,13,0,2.11905,4.05815,20,5,21.878,141.4559814,21.7,1.2,2.69896,0,0,-3.8,63.6, 0.6, 1.7,0,0,1024,1024,1617,1073,0,0,90,7,0,0,28,3.629,3.653,3.64,3.651,3.655,3.65,0,,141.4559814,21.7,6,P-GPS,
12800,2022-10-12 11:27:37,45.438946305152,9.05592221228158,22.1,,,141.8559814,13,0,2.12166,4.0658,20,5,21.878,141.8559814,22.1,1.2,2.69896,0,0,-3.9,63.7, 0.6, 1.7,0,0,1024,1024,1597,1052,0,0,87,4,0,0,28,3.629,3.653,3.64,3.651,3.655,3.65,0,,141.8559814,22.1,6,P-GPS,
12900,2022-10-12 11:27:38,45.4389463596072,9.05592219301998,22.5,,,142.2559814,13,0,2.12193,4.07204,20,5,21.878,142.2559814,22.5,1.2,2.69896,0,0,-4.1,63.8, 0.6, 1.9,0,0,1024,1024,1627,1024,0,0,91,0,0,0,28,3.629,3.653,3.64,3.651,3.655,3.65,0,,142.2559814,22.5,6,P-GPS,
13000,2022-10-12 11:27:38,45.4389464078352,9.0559221615415,22.9,,,142.6559814,13,0,2.12111,4.07794,20,5,21.828,142.6559814,22.9,1.2,2.69896,0,0,-4.1,63.9, 0.5, 2.3,0,0,1024,1024,1622,1024,0,0,91,0,0,0,28,3.621,3.645,3.631,3.643,3.646,3.642,0,,142.6559814,22.9,6,P-GPS,
13100,2022-10-12 11:27:38,45.4389464716229,9.05592213641946,23.4,,,143.1559814,13,0,2.12128,4.08529,20,5,21.828,143.1559814,23.4,1.2,2.69896,0,0,-4,63.9, 0.1, 2.8,0,0,1024,1024,1629,1024,0,0,92,0,0,0,28,3.621,3.645,3.631,3.643,3.646,3.642,0,,143.1559814,23.4,6,P-GPS,
13200,2022-10-12 11:27:38,45.4389465103978,9.05592210608102,23.8,,,143.5559814,13,0,2.12028,4.09021,20,5,21.828,143.5559814,23.8,1.2,2.69896,0,0,-4.1,64, -0.1, 3.1,0,0,1024,1024,1626,1024,0,0,91,0,0,0,28,3.621,3.645,3.631,3.643,3.646,3.642,0,,143.5559814,23.8,6,P-GPS,
13300,2022-10-12 11:27:38,45.4389465656053,9.05592210199551,24.2,,,143.9559814,13,0,2.12177,4.09636,20,5,21.828,143.9559814,24.2,1.2,2.69896,0,0,-4.1,64, 0, 3,0,0,1024,1024,1616,1024,0,0,90,0,0,0,28,3.621,3.645,3.631,3.643,3.646,3.642,0,,143.9559814,24.2,6,P-GPS,
13400,2022-10-12 11:27:38,45.4389466221937,9.05592211939825,24.6,,,144.3559814,13,0,2.12494,4.1028,19,5,21.828,144.3559814,24.6,1.2,2.69896,0,0,-4.2,64, 0.2, 2.6,0,0,1024,1024,1538,1024,0,0,78,0,0,0,28,3.621,3.645,3.631,3.643,3.646,3.642,0,,144.3559814,24.6,6,P-GPS,
13500,2022-10-12 11:27:38,45.4389465944907,9.05592197393278,25.1,,,144.8559814,13,0,2.11318,4.11456,19,5,21.828,144.8559814,25.1,1.2,2.69896,0,0,-4.2,64, 0.4, 2,0,0,1024,1024,1360,1024,0,0,51,0,0,0,28,3.621,3.645,3.631,3.643,3.646,3.642,0,,144.8559814,25.1,6,P-GPS,
13600,2022-10-12 11:27:38,45.4389465396495,9.05592191954366,25.5,,,145.2559814,13,0,2.10732,4.12199,19,5,21.828,145.2559814,25.5,1.2,2.69896,0,0,-4.2,64, 0.5, 2,0,0,1024,1024,1172,1024,0,0,22,0,0,0,28,3.621,3.645,3.631,3.643,3.646,3.642,0,,145.2559814,25.5,6,P-GPS,
13800,2022-10-12 11:27:39,45.4389464967352,9.05592172825842,26.3,,,146.0559814,13,0,2.09165,4.13766,19,5,21.828,146.0559814,26.3,1.2,2.69896,0,0,-3.6,63.7, 0.1, 2.2,0,0,1024,1024,1172,1024,0,0,22,0,0,0,28,3.621,3.645,3.631,3.643,3.646,3.642,0,,146.0559814,26.3,6,P-GPS,
13900,2022-10-12 11:27:39,45.4389466918912,9.05592160589435,26.6,,,146.3559814,13,0,2.08908,4.16137,19,5,21.828,146.3559814,26.6,1.2,2.69896,0,0,-3.2,63.6, 0, 2.5,0,0,1024,1024,1126,1024,0,0,15,0,0,0,28,3.621,3.645,3.631,3.643,3.646,3.642,0,,146.3559814,26.6,6,P-GPS,
14000,2022-10-12 11:27:39,45.4389467991551,9.05592157991156,26.9,,,146.6559814,13,0,2.09085,4.17347,19,5,21.828,146.6559814,26.9,1.2,2.69896,0,0,-2.8,63.6, 0, 3.2,0,0,1024,1024,1182,1024,0,0,24,0,0,0,28,3.621,3.645,3.631,3.643,3.646,3.642,0,,146.6559814,26.9,6,P-GPS,
14100,2022-10-12 11:27:39,45.4389469098095,9.05592157379321,27.2,,,146.9559814,13,0,2.09426,4.18579,19,5,21.796,146.9559814,27.2,1.2,2.69896,0,0,-2.4,63.7, 0.1, 3.8,0,0,1024,1024,1182,1024,0,0,24,0,0,0,28,3.614,3.64,3.626,3.638,3.641,3.637,0,,146.9559814,27.2,6,P-GPS,
14200,2022-10-12 11:27:39,45.438947017168,9.05592158381547,27.4,,,147.1559814,13,0,2.09882,4.19775,19,5,21.796,147.1559814,27.4,1.2,2.69896,0,0,-2,63.7, 0.3, 3.8,0,0,1024,1024,1268,1024,0,0,37,0,0,0,28,3.614,3.64,3.626,3.638,3.641,3.637,0,,147.1559814,27.4,6,P-GPS,
14300,2022-10-12 11:27:39,45.438947070335,9.05592156983741,27.6,,,147.3559814,13,0,2.09971,4.20376,19,5,21.796,147.3559814,27.6,1.2,2.69896,0,0,-1.5,63.7, 0.4, 3.6,0,0,1024,1024,1366,1024,0,0,52,0,0,0,28,3.614,3.64,3.626,3.638,3.641,3.637,0,,147.3559814,27.6,6,P-GPS,
14400,2022-10-12 11:27:39,45.4389471531561,9.05592157792451,27.8,,,147.5559814,13,0,2.10331,4.21299,19,5,21.796,147.5559814,27.8,1.2,2.69896,0,0,-1.3,63.8, 0.4, 3.3,0,0,1024,1024,1416,1024,0,0,59,0,0,0,28,3.614,3.64,3.626,3.638,3.641,3.637,0,,147.5559814,27.8,6,P-GPS,
14500,2022-10-12 11:27:39,45.4389471741125,9.05592155314585,27.9,,,147.6559814,13,0,2.10226,4.21602,19,5,21.796,147.6559814,27.9,1.2,2.69896,0,0,-1.2,64, 0.2, 3,0,0,1024,1024,1454,1024,0,0,65,0,0,0,28,3.614,3.64,3.626,3.638,3.641,3.637,0,,147.6559814,27.9,6,P-GPS,
14600,2022-10-12 11:27:39,45.4389471881041,9.05592153490983,28,,,147.7559814,13,0,2.10143,4.21813,19,5,21.796,147.7559814,28,1.2,2.69896,0,0,-1.4,64.1, 0.1, 2.8,0,0,1024,1024,1481,1024,0,0,69,0,0,0,28,3.614,3.64,3.626,3.638,3.641,3.637,0,,147.7559814,28,6,P-GPS,
14700,2022-10-12 11:27:40,45.4389471900029,9.05592152864801,28.2,,,147.9559814,13,0,2.10104,4.21866,19,5,21.796,147.9559814,28.2,1.2,2.69896,0,0,-1.6,64.2, 0, 2.8,0,0,1024,1024,1498,1024,0,0,72,0,0,0,28,3.614,3.64,3.626,3.638,3.641,3.637,0,,147.9559814,28.2,6,P-GPS,
14900,2022-10-12 11:27:40,45.4389471464094,9.05592144476289,28.6,,,148.3559814,13,0,2.09326,4.22681,20,5,21.796,148.3559814,28.6,1.2,2.69896,0,0,-2.1,64.2, 0.3, 2.6,0,0,1024,1024,1468,1024,0,0,67,0,0,0,28,3.614,3.64,3.626,3.638,3.641,3.637,0,,148.3559814,28.6,6,P-GPS,
15000,2022-10-12 11:27:40,45.4389471252885,9.05592142400566,28.8,,,148.5559814,13,0,2.09095,4.22966,19,5,21.778,148.5559814,28.8,1.2,2.69896,0,0,-2.4,64.1, 0.6, 2.2,0,0,1024,1024,1065,1024,0,0,6,0,0,0,28,3.609,3.636,3.621,3.635,3.64,3.637,0,,148.5559814,28.8,6,P-GPS,
15300,2022-10-12 11:27:40,45.4389469475585,9.05592114158912,29.5,,,149.2559814,13,0,2.06367,4.25926,19,5,21.778,149.2559814,29.5,1.2,2.69896,0,0,-2.1,63.8, 0.6, 2.6,0,0,1024,1024,1024,1024,0,0,0,0,0,0,28,3.609,3.636,3.621,3.635,3.64,3.637,0,,149.2559814,29.5,6,P-GPS,
15500,2022-10-12 11:27:40,45.4389468875829,9.05592098534288,29.9,,,149.6559814,13,0,2.04997,4.27316,19,5,21.778,149.6559814,29.9,1.2,2.69896,0,0,-1.3,63.7, 0, 3.3,0,0,1024,1024,1024,1024,0,0,0,0,0,0,28,3.609,3.636,3.621,3.635,3.64,3.637,0,,149.6559814,29.9,6,P-GPS,
15600,2022-10-12 11:27:40,45.4389469119965,9.05592086135346,30,,,149.7559814,13,0,2.0417,4.28321,19,5,21.778,149.7559814,30,1.2,2.69896,0,0,-0.9,63.7, -0.4, 2.9,0,0,1024,1024,1024,1024,0,0,0,0,0,0,28,3.609,3.636,3.621,3.635,3.64,3.637,0,,149.7559814,30,6,P-GPS,
15700,2022-10-12 11:27:40,45.4389469018253,9.05592076827325,30.1,,,149.8559814,13,0,2.03447,4.29056,19,5,21.778,149.8559814,30.1,1.2,2.69896,0,0,-0.6,63.7, -0.7, 2.5,0,0,1024,1024,1024,1024,0,0,0,0,0,0,28,3.609,3.636,3.621,3.635,3.64,3.637,0,,149.8559814,30.1,6,P-GPS,
15900,2022-10-12 11:27:41,45.43894687613,9.05592061689698,30.2,,,149.9559814,13,0,2.02237,4.30271,19,5,21.778,149.9559814,30.2,1.2,2.69896,0,0,-0.1,63.7, -0.9, 2.3,0,0,1024,1024,1024,1024,0,0,0,0,0,0,28,3.609,3.636,3.621,3.635,3.64,3.637,0,,149.9559814,30.2,6,P-GPS,
16000,2022-10-12 11:27:41,45.4389468349956,9.05592061648034,30.2,,,149.9559814,13,0,2.02085,4.30729,19,5,21.778,149.9559814,30.2,1.2,2.69896,0,0,0,63.7, -0.9, 1.9,0,0,1024,1024,1024,1024,0,0,0,0,0,0,28,3.609,3.636,3.621,3.635,3.64,3.637,0,,149.9559814,30.2,6,P-GPS,
16100,2022-10-12 11:27:41,45.4389468533432,9.05592047887303,30.2,,,149.9559814,13,0,2.01136,4.31822,19,5,21.778,149.9559814,30.2,1.2,2.69896,0,0,0,63.7, -0.7, 1.7,0,0,1024,1024,1024,1024,0,0,0,0,0,0,28,3.609,3.636,3.621,3.635,3.64,3.637,0,,149.9559814,30.2,6,P-GPS,
16200,2022-10-12 11:27:41,45.4389468701162,9.05592044556927,30.2,,,149.9559814,13,0,2.00952,4.32141,19,5,21.778,149.9559814,30.2,1.2,2.69896,0,0,0,63.7, -0.5, 1.8,0,0,1024,1024,1024,1024,0,0,0,0,0,0,28,3.609,3.636,3.621,3.635,3.64,3.637,0,,149.9559814,30.2,6,P-GPS,
16300,2022-10-12 11:27:41,45.4389469039716,9.05592043500523,30.2,,,149.9559814,13,0,2.00998,4.32527,19,5,21.778,149.9559814,30.2,1.2,2.69896,0,0,0,63.7, -0.3, 2,0,0,1024,1024,1024,1024,0,0,0,0,0,0,28,3.609,3.636,3.621,3.635,3.64,3.637,0,,149.9559814,30.2,6,P-GPS,
16400,2022-10-12 11:27:41,45.4389469470162,9.05592044187598,30.2,,,149.9559814,13,0,2.01207,4.33009,19,5,21.778,149.9559814,30.2,1.2,2.69896,0,0,0,63.7, -0.1, 2.1,0,0,1024,1024,1024,1024,0,0,0,0,0,0,28,3.609,3.636,3.621,3.635,3.64,3.637,0,,149.9559814,30.2,6,P-GPS,
16600,2022-10-12 11:27:41,45.4389471230575,9.05592049634903,30.2,,,149.9559814,13,0,2.02266,4.35012,19,5,21.778,149.9559814,30.2,1.2,2.69896,0,0,0,63.8, 0, 1.9,0,0,1024,1024,1024,1024,0,0,0,0,0,0,28,3.609,3.636,3.621,3.635,3.64,3.637,0,,149.9559814,30.2,6,P-GPS,
16700,2022-10-12 11:27:41,45.438947109219,9.05592055313269,30.2,,,149.9559814,13,0,2.02631,4.35481,19,5,21.778,149.9559814,30.2,1.2,2.69896,0,0,0,63.8, 0, 1.7,0,0,1024,1024,1024,1024,0,0,0,0,0,0,28,3.609,3.636,3.621,3.635,3.64,3.637,0,,149.9559814,30.2,6,P-GPS,
16800,2022-10-12 11:27:41,45.4389470811951,9.05592060234203,30.2,,,149.9559814,13,0,2.02887,4.35975,19,5,21.778,149.9559814,30.2,1.2,2.69896,0,0,0,63.8, -0.1, 1.6,0,0,1024,1024,1024,1024,0,0,0,0,0,0,28,3.609,3.636,3.621,3.635,3.64,3.637,0,,149.9559814,30.2,6,P-GPS,
16900,2022-10-12 11:27:42,45.438947069472,9.05592052056149,30.2,,,149.9559814,13,0,2.02242,4.36627,19,5,21.778,149.9559814,30.2,1.2,2.69896,0,0,0,63.9, 0, 1.8,0,0,1024,1024,1024,1024,0,0,0,0,0,0,28,3.609,3.636,3.621,3.635,3.64,3.637,0,,149.9559814,30.2,6,P-GPS,
17000,2022-10-12 11:27:42,45.4389471318869,9.05592057443171,30.3,,,150.0559814,13,0,2.02873,4.37438,19,5,21.778,150.0559814,30.3,1.2,2.69896,0,0,0,63.9, 0.1, 2.1,0,0,1024,1024,1024,1024,0,0,0,0,0,0,28,3.609,3.636,3.621,3.635,3.64,3.637,0,,150.0559814,30.3,6,P-GPS,
17100,2022-10-12 11:27:42,45.4389471729498,9.05592061843076,30.3,,,150.0559814,13,0,2.03351,4.3801,19,5,21.778,150.0559814,30.3,1.2,2.69896,0,0,0,63.9, 0.2, 2.1,0,0,1024,1024,1024,1024,0,0,0,0,0,0,28,3.609,3.636,3.621,3.635,3.64,3.637,0,,150.0559814,30.3,6,P-GPS,
17200,2022-10-12 11:27:42,45.4389471998289,9.05592066047786,30.3,,,150.0559814,13,0,2.03761,4.38453,19,5,21.989,150.0559814,30.3,1.2,2.69896,0,0,0,63.9, 0.3, 2,0,0,1024,1024,1024,1024,0,0,0,0,0,0,28,3.653,3.668,3.66,3.67,3.67,3.668,0,,150.0559814,30.3,6,P-GPS,
17300,2022-10-12 11:27:42,45.4389472798897,9.0559203997602,30.3,,,150.0559814,13,0,2.0216,4.40674,19,5,21.989,150.0559814,30.3,1.2,2.69896,0,0,0,64, 0.3, 2.1,0,0,1024,1024,1024,1024,0,0,0,0,0,0,28,3.653,3.668,3.66,3.67,3.67,3.668,0,,150.0559814,30.3,6,P-GPS,
17400,2022-10-12 11:27:42,45.4389473279516,9.05592036096228,30.3,,,150.0559814,13,0,2.02064,4.41288,19,5,21.989,150.0559814,30.3,1.2,2.69896,0,0,0,64.1, 0, 2.2,0,0,1024,1024,1024,1024,0,0,0,0,0,0,28,3.653,3.668,3.66,3.67,3.67,3.668,0,,150.0559814,30.3,6,P-GPS,
17500,2022-10-12 11:27:42,45.4389473650052,9.05592032957232,30.3,,,150.0559814,13,0,2.0198,4.41768,19,5,21.989,150.0559814,30.3,1.2,2.69896,0,0,0,64.1, -0.2, 2.3,0,0,1024,1024,1024,1024,0,0,0,0,0,0,28,3.653,3.668,3.66,3.67,3.67,3.668,0,,150.0559814,30.3,6,P-GPS,
17600,2022-10-12 11:27:42,45.4389473974829,9.0559203176561,30.3,,,150.0559814,13,0,2.02022,4.42141,19,5,21.989,150.0559814,30.3,1.2,2.69896,0,0,0,64.1, -0.5, 2.4,0,0,1024,1024,1024,1024,0,0,0,0,0,0,28,3.653,3.668,3.66,3.67,3.67,3.668,0,,150.0559814,30.3,6,P-GPS,
17800,2022-10-12 11:27:42,45.4389476766389,9.05592024790776,30.3,,,150.0559814,13,0,2.02641,4.45292,19,5,21.989,150.0559814,30.3,1.2,2.69896,0,0,0,64.1, -0.5, 2.7,0,0,1024,1024,1024,1024,0,0,0,0,0,0,28,3.653,3.668,3.66,3.67,3.67,3.668,0,,150.0559814,30.3,6,P-GPS,
17900,2022-10-12 11:27:43,45.4389477355577,9.05592028721541,30.3,,,150.0559814,13,0,2.03169,4.46016,19,5,21.989,150.0559814,30.3,1.2,2.69896,0,0,0,64.1, -0.4, 2.8,0,0,1024,1024,1024,1024,0,0,0,0,0,0,28,3.653,3.668,3.66,3.67,3.67,3.668,0,,150.0559814,30.3,6,P-GPS,
18000,2022-10-12 11:27:43,45.4389477733636,9.05592033726415,30.3,,,150.0559814,13,0,2.03689,4.4659,19,5,21.989,150.0559814,30.3,1.2,2.69896,0,0,0,64, -0.2, 2.8,0,0,1024,1024,1024,1024,0,0,0,0,0,0,28,3.653,3.668,3.66,3.67,3.67,3.668,0,,150.0559814,30.3,6,P-GPS,
18100,2022-10-12 11:27:43,45.4389477901203,9.05592038640024,30.3,,,150.0559814,13,0,2.04114,4.47016,19,5,21.989,150.0559814,30.3,1.2,2.69896,0,0,0,64, -0.1, 2.6,0,0,1024,1024,1024,1024,0,0,0,0,0,0,28,3.653,3.668,3.66,3.67,3.67,3.668,0,,150.0559814,30.3,6,P-GPS,
18200,2022-10-12 11:27:43,45.438947823834,9.05592024280583,30.3,,,150.0559814,13,0,2.03216,4.48197,19,5,21.983,150.0559814,30.3,1.2,2.69896,0,0,0,64, 0, 2.5,0,0,1024,1024,1024,1024,0,0,0,0,0,0,28,3.653,3.666,3.656,3.67,3.67,3.668,0,,150.0559814,30.3,6,P-GPS,
18300,2022-10-12 11:27:43,45.43894785766,9.05592031448323,30.3,,,150.0559814,13,0,2.03876,4.48871,19,5,21.983,150.0559814,30.3,1.2,2.69896,0,0,0,63.9, 0.1, 2.6,0,0,1024,1024,1024,1024,0,0,0,0,0,0,28,3.653,3.666,3.656,3.67,3.67,3.668,0,,150.0559814,30.3,6,P-GPS,
18400,2022-10-12 11:27:43,45.4389479017827,9.05592039860948,30.3,,,150.0559814,13,0,2.04669,4.49691,19,5,21.983,150.0559814,30.3,1.2,2.69896,0,0,0,63.8, 0.1, 2.6,0,0,1024,1024,1024,1024,0,0,0,0,0,0,28,3.653,3.666,3.656,3.67,3.67,3.668,0,,150.0559814,30.3,6,P-GPS,
18500,2022-10-12 11:27:43,45.4389479204984,9.05592049367521,30.3,,,150.0559814,13,0,2.05434,4.50461,19,5,21.983,150.0559814,30.3,1.2,2.69896,0,0,0,63.8, 0.1, 2.6,0,0,1024,1024,1024,1024,0,0,0,0,0,0,28,3.653,3.666,3.656,3.67,3.67,3.668,0,,150.0559814,30.3,6,P-GPS,
18600,2022-10-12 11:27:43,45.4389480320387,9.05592054663432,30.3,,,150.0559814,13,0,2.06289,4.51769,19,5,21.983,150.0559814,30.3,1.2,2.69896,0,0,0,63.8, 0.2, 2.5,0,0,1024,1024,1024,1024,0,0,0,0,0,0,28,3.653,3.666,3.656,3.67,3.67,3.668,0,,150.0559814,30.3,6,P-GPS,
18700,2022-10-12 11:27:43,45.4389480392836,9.05592063405249,30.3,,,150.0559814,13,0,2.0695,4.52456,19,5,21.983,150.0559814,30.3,1.2,2.69896,0,0,0,63.8, 0.2, 2.5,0,0,1024,1024,1024,1024,0,0,0,0,0,0,28,3.653,3.666,3.656,3.67,3.67,3.668,0,,150.0559814,30.3,6,P-GPS,
18800,2022-10-12 11:27:44,45.4389480454049,9.05592072212385,30.3,,,150.0559814,13,0,2.07611,4.53146,19,5,21.983,150.0559814,30.3,1.2,2.69896,0,0,0,63.8, 0.1, 2.5,0,0,1024,1024,1024,1024,0,0,0,0,0,0,28,3.653,3.666,3.656,3.67,3.67,3.668,0,,150.0559814,30.3,6,P-GPS,
18900,2022-10-12 11:27:44,45.4389480202699,9.05592078955091,30.3,,,150.0559814,13,0,2.07991,4.53742,19,5,21.983,150.0559814,30.3,1.2,2.69896,0,0,0,63.9, 0.1, 2.4,0,0,1024,1024,1024,1024,0,0,0,0,0,0,28,3.653,3.666,3.656,3.67,3.67,3.668,0,,150.0559814,30.3,6,P-GPS,
19100,2022-10-12 11:27:44,45.4389479375075,9.05592078753028,30.3,,,150.0559814,13,0,2.0763,4.54663,19,5,21.983,150.0559814,30.3,1.2,2.69896,0,0,0,63.9, 0.1, 2.2,0,0,1024,1024,1024,1024,0,0,0,0,0,0,28,3.653,3.666,3.656,3.67,3.67,3.668,0,,150.0559814,30.3,6,P-GPS,
19200,2022-10-12 11:27:44,45.4389478961467,9.05592084884509,30.3,,,150.0559814,13,0,2.07902,4.55326,19,5,21.995,150.0559814,30.3,1.2,2.69896,0,0,0,63.9, 0, 2.2,0,0,1024,1024,1024,1024,0,0,0,0,0,0,28,3.654,3.67,3.66,3.67,3.671,3.67,0,,150.0559814,30.3,6,P-GPS,
19400,2022-10-12 11:27:44,45.4389478467104,9.0559209708032,30.3,,,150.0559814,13,0,2.08582,4.56425,19,5,21.995,150.0559814,30.3,1.2,2.69896,0,0,0,63.9, 0, 2.1,0,0,1024,1024,1024,1024,0,0,0,0,0,0,28,3.654,3.67,3.66,3.67,3.671,3.67,0,,150.0559814,30.3,6,P-GPS,
19500,2022-10-12 11:27:44,45.4389478135455,9.05592094962017,30.3,,,150.0559814,13,0,2.08292,4.56829,19,5,21.995,150.0559814,30.3,1.2,2.69896,0,0,0,63.9, 0.2, 2.1,0,0,1024,1024,1024,1024,0,0,0,0,0,0,28,3.654,3.67,3.66,3.67,3.671,3.67,0,,150.0559814,30.3,6,P-GPS,
19600,2022-10-12 11:27:44,45.438947763505,9.05592106760417,30.4,,,150.1559814,13,0,2.08946,4.57905,19,5,21.995,150.1559814,30.4,1.2,2.69896,0,0,0,63.9, 0.2, 2.1,0,0,1024,1024,1024,1024,0,0,0,0,0,0,28,3.654,3.67,3.66,3.67,3.671,3.67,0,,150.1559814,30.4,6,P-GPS,
19700,2022-10-12 11:27:44,45.438947748963,9.05592118645655,30.3,,,150.0559814,13,0,2.09752,4.58847,19,5,21.995,150.1559814,30.4,1.2,2.69896,0,0,0,63.9, 0.3, 2.2,0,0,1024,1024,1024,1024,0,0,0,0,0,0,28,3.654,3.67,3.66,3.67,3.671,3.67,0,,150.0559814,30.3,6,P-GPS,
19800,2022-10-12 11:27:45,45.438947742586,9.05592131440635,30.4,,,150.1559814,13,0,2.10657,4.59847,19,5,21.995,150.1559814,30.4,1.2,2.69896,0,0,0,63.8, 0.2, 2.2,0,0,1024,1024,1024,1024,0,0,0,0,0,0,28,3.654,3.67,3.66,3.67,3.671,3.67,0,,150.1559814,30.4,6,P-GPS,
19900,2022-10-12 11:27:45,45.438947701103,9.05592141848556,30.4,,,150.1559814,13,0,2.11251,4.60781,19,5,21.995,150.1559814,30.4,1.2,2.69896,0,0,0,63.8, 0.3, 2.2,0,0,1024,1024,1024,1024,0,0,0,0,0,0,28,3.654,3.67,3.66,3.67,3.671,3.67,0,,150.1559814,30.4,6,P-GPS,
20000,2022-10-12 11:27:45,45.4389476587456,9.0559214960356,30.4,,,150.1559814,13,0,2.11649,4.61548,19,5,21.995,150.1559814,30.4,1.2,2.69896,0,0,0,63.8, 0.4, 2.3,0,0,1024,1024,1024,1024,0,0,0,0,0,0,28,3.654,3.67,3.66,3.67,3.671,3.67,0,,150.1559814,30.4,6,P-GPS,
20100,2022-10-12 11:27:45,45.4389476008788,9.05592158421227,30.4,,,150.1559814,13,0,2.12067,4.6249,19,5,21.995,150.1559814,30.4,1.2,2.69896,0,0,0,63.8, 0.5, 2.1,0,0,1024,1024,1024,1024,0,0,0,0,0,0,28,3.654,3.67,3.66,3.67,3.671,3.67,0,,150.1559814,30.4,6,P-GPS,
20200,2022-10-12 11:27:45,45.4389475301588,9.0559216873712,30.3,,,150.0559814,13,0,2.12549,4.63616,19,5,21.995,150.1559814,30.4,1.2,2.69896,0,0,0,63.8, 0.5, 1.9,0,0,1024,1024,1024,1024,0,0,0,0,0,0,28,3.654,3.67,3.66,3.67,3.671,3.67,0,,150.0559814,30.3,6,P-GPS,
20300,2022-10-12 11:27:45,45.4389474924424,9.05592179489036,30.4,,,150.1559814,13,0,2.13192,4.64554,19,5,21.995,150.1559814,30.4,1.2,2.69896,0,0,0,63.8, 0.4, 1.7,0,0,1024,1024,1024,1024,0,0,0,0,0,0,28,3.654,3.67,3.66,3.67,3.671,3.67,0,,150.1559814,30.4,6,P-GPS,
20400,2022-10-12 11:27:45,45.4389474680466,9.05592189895888,30.4,,,150.1559814,13,0,2.13863,4.6541,19,5,21.995,150.1559814,30.4,1.2,2.69896,0,0,0,63.9, 0.3, 1.6,0,0,1024,1024,1024,1024,0,0,0,0,0,0,28,3.654,3.67,3.66,3.67,3.671,3.67,0,,150.1559814,30.4,6,P-GPS,
20500,2022-10-12 11:27:45,45.4389474350039,9.05592194809192,30.3,,,150.0559814,13,0,2.14099,4.65941,19,5,21.995,150.1559814,30.4,1.2,2.69896,0,0,0,63.9, 0.2, 1.6,0,0,1024,1024,1024,1024,0,0,0,0,0,0,28,3.654,3.67,3.66,3.67,3.671,3.67,0,,150.0559814,30.3,6,P-GPS,
20600,2022-10-12 11:27:45,45.4389473968348,9.05592197870964,30.3,,,150.0559814,13,0,2.14182,4.66428,19,5,21.995,150.1559814,30.4,1.2,2.69896,0,0,0,63.9, 0.2, 1.7,0,0,1024,1024,1024,1024,0,0,0,0,0,0,28,3.654,3.67,3.66,3.67,3.671,3.67,0,,150.0559814,30.3,6,P-GPS,
20700,2022-10-12 11:27:45,45.4389473335193,9.05592195549224,30.3,,,150.0559814,13,0,2.13775,4.67155,19,5,21.995,150.1559814,30.4,1.2,2.69896,0,0,0,63.8, 0.2, 1.8,0,0,1024,1024,1024,1024,0,0,0,0,0,0,28,3.654,3.67,3.66,3.67,3.671,3.67,0,,150.0559814,30.3,6,P-GPS,
20800,2022-10-12 11:27:45,45.4389473040672,9.0559220101347,30.3,,,150.0559814,13,0,2.14069,4.67693,19,5,21.995,150.1559814,30.4,1.2,2.69896,0,0,0,63.8, 0.2, 2,0,0,1024,1024,1024,1024,0,0,0,0,0,0,28,3.654,3.67,3.66,3.67,3.671,3.67,0,,150.0559814,30.3,6,P-GPS,
20900,2022-10-12 11:27:46,45.4389472771816,9.05592204108055,30.3,,,150.0559814,13,0,2.14198,4.68077,19,5,21.995,150.1559814,30.4,1.2,2.69896,0,0,0,63.8, 0.3, 2.2,0,0,1024,1024,1024,1024,0,0,0,0,0,0,28,3.654,3.67,3.66,3.67,3.671,3.67,0,,150.0559814,30.3,6,P-GPS,
21000,2022-10-12 11:27:46,45.4389472457038,9.05592206811334,30.3,,,150.0559814,13,0,2.14282,4.68486,19,5,21.995,150.1559814,30.4,1.2,2.69896,0,0,0,63.8, 0.4, 2,0,0,1024,1024,1024,1024,0,0,0,0,0,0,28,3.654,3.67,3.66,3.67,3.671,3.67,0,,150.0559814,30.3,6,P-GPS,
21100,2022-10-12 11:27:46,45.4389472040922,9.05592213118628,30.3,,,150.0559814,13,0,2.14597,4.69161,19,5,21.995,150.1559814,30.4,1.2,2.69896,0,0,0,63.8, 0.4, 1.8,0,0,1024,1024,1024,1024,0,0,0,0,0,0,28,3.654,3.67,3.66,3.67,3.671,3.67,0,,150.0559814,30.3,6,P-GPS,
21200,2022-10-12 11:27:46,45.4389471288271,9.05592222813376,30.3,,,150.0559814,13,0,2.15042,4.70289,19,5,21.975,150.1559814,30.4,1.2,2.69896,0,0,0,63.8, 0.4, 1.7,0,0,1024,1024,1024,1024,0,0,0,0,0,0,28,3.651,3.666,3.656,3.666,3.668,3.668,0,,150.0559814,30.3,6,P-GPS,
21300,2022-10-12 11:27:46,45.4389470729682,9.0559222855584,30.3,,,150.0559814,13,0,2.15269,4.71055,19,5,21.975,150.1559814,30.4,1.2,2.69896,0,0,0,63.8, 0.4, 1.6,0,0,1024,1024,1024,1024,0,0,0,0,0,0,28,3.651,3.666,3.656,3.666,3.668,3.668,0,,150.0559814,30.3,6,P-GPS,
21400,2022-10-12 11:27:46,45.4389470084216,9.05592233490052,30.3,,,150.0559814,13,0,2.15408,4.7187,19,5,21.975,150.1559814,30.4,1.2,2.69896,0,0,0,63.8, 0.2, 1.6,0,0,1024,1024,1024,1024,0,0,0,0,0,0,28,3.651,3.666,3.656,3.666,3.668,3.668,0,,150.0559814,30.3,6,P-GPS,
21500,2022-10-12 11:27:46,45.4389469505467,9.05592236741678,30.3,,,150.0559814,13,0,2.15448,4.72562,19,5,21.975,150.1559814,30.4,1.2,2.69896,0,0,0,63.8, 0.1, 1.5,0,0,1024,1024,1024,1024,0,0,0,0,0,0,28,3.651,3.666,3.656,3.666,3.668,3.668,0,,150.0559814,30.3,6,P-GPS,
21600,2022-10-12 11:27:46,45.4389468350493,9.0559223763982,30.3,,,150.0559814,13,0,2.15119,4.73848,19,5,21.975,150.1559814,30.4,1.2,2.69896,0,0,0,63.8, 0, 1.5,0,0,1024,1024,1024,1024,0,0,0,0,0,0,28,3.651,3.666,3.656,3.666,3.668,3.668,0,,150.0559814,30.3,6,P-GPS,
21700,2022-10-12 11:27:46,45.4389467964275,9.05592240342946,30.3,,,150.0559814,13,0,2.1519,4.74327,19,5,21.975,150.1559814,30.4,1.2,2.69896,0,0,0,63.8, 0, 1.5,0,0,1024,1024,1024,1024,0,0,0,0,0,0,28,3.651,3.666,3.656,3.666,3.668,3.668,0,,150.0559814,30.3,6,P-GPS,
21800,2022-10-12 11:27:46,45.4389467662785,9.05592243281405,30.3,,,150.0559814,13,0,2.15307,4.74733,19,5,21.975,150.1559814,30.4,1.2,2.69896,0,0,0,63.8, 0, 1.4,0,0,1024,1024,1024,1024,0,0,0,0,0,0,28,3.651,3.666,3.656,3.666,3.668,3.668,0,,150.0559814,30.3,6,P-GPS,
21900,2022-10-12 11:27:47,45.4389467460825,9.05592243910487,30.3,,,150.0559814,13,0,2.15286,4.74963,19,5,21.975,150.1559814,30.4,1.2,2.69896,0,0,0,63.8, 0.1, 1.5,0,0,1024,1024,1024,1024,0,0,0,0,0,0,28,3.651,3.666,3.656,3.666,3.668,3.668,0,,150.0559814,30.3,6,P-GPS,
22000,2022-10-12 11:27:47,45.4389467224554,9.05592237095746,30.3,,,150.0559814,13,0,2.147,4.75556,19,5,21.975,150.1559814,30.4,1.2,2.69896,0,0,0,63.8, 0.1, 1.5,0,0,1024,1024,1024,1024,0,0,0,0,0,0,28,3.651,3.666,3.656,3.666,3.668,3.668,0,,150.0559814,30.3,6,P-GPS,
22200,2022-10-12 11:27:47,45.4389467690989,9.05592235771348,30.3,,,150.0559814,13,0,2.14758,4.76085,19,5,21.964,150.1559814,30.4,1.2,2.69896,0,0,0,63.9, 0.1, 1.7,0,0,1024,1024,1024,1024,0,0,0,0,0,0,28,3.649,3.666,3.656,3.665,3.665,3.663,0,,150.0559814,30.3,6,P-GPS,
22300,2022-10-12 11:27:47,45.4389468102497,9.05592238023038,30.3,,,150.0559814,13,0,2.15064,4.76575,19,5,21.964,150.1559814,30.4,1.2,2.69896,0,0,0,63.8, 0.1, 1.8,0,0,1024,1024,1024,1024,0,0,0,0,0,0,28,3.649,3.666,3.656,3.665,3.665,3.663,0,,150.0559814,30.3,6,P-GPS,
22400,2022-10-12 11:27:47,45.4389469638722,9.05592243210897,30.3,,,150.0559814,13,0,2.15974,4.78331,19,5,21.964,150.1559814,30.4,1.2,2.69896,0,0,0,63.8, 0.2, 1.8,0,0,1024,1024,1024,1024,0,0,0,0,0,0,27,3.649,3.666,3.656,3.665,3.665,3.663,0,,150.0559814,30.3,6,P-GPS,
22500,2022-10-12 11:27:47,45.4389469864164,9.05592247910081,30.3,,,150.0559814,13,0,2.164,4.78775,19,5,21.964,150.1559814,30.4,1.2,2.69896,0,0,0,63.8, 0.4, 1.6,0,0,1024,1024,1024,1024,0,0,0,0,0,0,27,3.649,3.666,3.656,3.665,3.665,3.663,0,,150.0559814,30.3,6,P-GPS,
22600,2022-10-12 11:27:47,45.438947004642,9.0559225146175,30.3,,,150.0559814,13,0,2.16727,4.79118,19,5,21.964,150.1559814,30.4,1.2,2.69896,0,0,0,63.8, 0.6, 1.5,0,0,1024,1024,1024,1024,0,0,0,0,0,0,27,3.649,3.666,3.656,3.665,3.665,3.663,0,,150.0559814,30.3,6,P-GPS,
22700,2022-10-12 11:27:47,45.438947051717,9.05592252801409,30.3,,,150.0559814,13,0,2.1699,4.79652,19,5,21.964,150.1559814,30.4,1.2,2.69896,0,0,0,63.8, 0.7, 1.5,0,0,1024,1024,1024,1024,0,0,0,0,0,0,27,3.649,3.666,3.656,3.665,3.665,3.663,0,,150.0559814,30.3,6,P-GPS,
22800,2022-10-12 11:27:47,45.4389471211539,9.0559225197408,30.3,,,150.0559814,13,0,2.17172,4.80427,19,5,21.964,150.1559814,30.4,1.2,2.69896,0,0,0,63.8, 0.6, 1.7,0,0,1024,1024,1024,1024,0,0,0,0,0,0,27,3.649,3.666,3.656,3.665,3.665,3.663,0,,150.0559814,30.3,6,P-GPS,
22900,2022-10-12 11:27:48,45.4389472303573,9.05592248212413,30.3,,,150.0559814,13,0,2.17282,4.81676,19,5,21.964,150.1559814,30.4,1.2,2.69896,0,0,0,63.8, 0.7, 2.1,0,0,1024,1024,1024,1024,0,0,0,0,0,0,27,3.649,3.666,3.656,3.665,3.665,3.663,0,,150.0559814,30.3,6,P-GPS,
23000,2022-10-12 11:27:48,45.4389472601188,9.05592249066907,30.3,,,150.0559814,13,0,2.17452,4.82014,19,5,21.964,150.1559814,30.4,1.2,2.69896,0,0,0,63.8, 0.7, 2.3,0,0,1024,1024,1024,1024,0,0,0,0,0,0,27,3.649,3.666,3.656,3.665,3.665,3.663,0,,150.0559814,30.3,6,P-GPS,
23100,2022-10-12 11:27:48,45.4389472982976,9.05592245669381,30.3,,,150.0559814,13,0,2.17339,4.82514,19,5,21.961,150.1559814,30.4,1.2,2.69896,0,0,0,63.9, 0.6, 2.3,0,0,1024,1024,1024,1024,0,0,0,0,0,0,27,3.648,3.665,3.655,3.665,3.665,3.663,0,,150.0559814,30.3,6,P-GPS,
23300,2022-10-12 11:27:48,45.4389473820111,9.05592239378416,30.3,,,150.0559814,13,0,2.17181,4.83567,19,5,21.961,150.1559814,30.4,1.2,2.69896,0,0,0,63.9, 0.3, 2.2,0,0,1024,1024,1024,1024,0,0,0,0,0,0,27,3.648,3.665,3.655,3.665,3.665,3.663,0,,150.0559814,30.3,6,P-GPS,
23400,2022-10-12 11:27:48,45.4389474239028,9.05592241439794,30.3,,,150.0559814,13,0,2.17487,4.8406,19,5,21.961,150.1559814,30.4,1.2,2.69896,0,0,0,63.9, 0.2, 2.2,0,0,1024,1024,1024,1024,0,0,0,0,0,0,27,3.648,3.665,3.655,3.665,3.665,3.663,0,,150.0559814,30.3,6,P-GPS,
23500,2022-10-12 11:27:48,45.4389474552552,9.05592241960213,30.2,,,149.9559814,13,0,2.17641,4.84411,19,5,21.961,150.1559814,30.4,1.2,2.69896,0,0,0,63.9, 0.2, 2.3,0,0,1024,1024,1024,1024,0,0,0,0,0,0,27,3.648,3.665,3.655,3.665,3.665,3.663,0,,149.9559814,30.2,6,P-GPS,
