time(millisecond),datetime(utc),latitude,longitude,height_above_takeoff(meters),height_above_ground_at_drone_location(meters),ground_elevation_at_drone_location(meters),altitude_above_seaLevel(meters),height_sonar(meters),speed(m/s),distance(meters),mileage(meters),satellites,gpslevel,voltage(v),max_altitude(meters),max_ascent(meters),max_speed(m/s),max_distance(meters), xSpeed(m/s), ySpeed(m/s), zSpeed(m/s), compass_heading(degrees), pitch(degrees), roll(degrees),isPhoto,isVideo,rc_elevator,rc_aileron,rc_throttle,rc_rudder,rc_elevator(percent),rc_aileron(percent),rc_throttle(percent),rc_rudder(percent),gimbal_heading(degrees),gimbal_pitch(degrees),battery_percent,voltageCell1,voltageCell2,voltageCell3,voltageCell4,voltageCell5,voltageCell6,current(A),battery_temperature(c),altitude(meters),ascent(meters),flycStateRaw,flycState,message
0,2022-10-12 09:34:56,45.4389340520004,9.05587976949964,0,Available with any HD 360 subscription,Available with any HD 360 subscription,119.7979126,0.2,0,0,0,15,5,0,119.7979126,0,0,0,0,0,0,59.9, 0.1, 1,0,0,1024,1024,1024,1024,0,0,0,0,0,0,81,4.134,4.14,4.14,4.141,4.141,4.142,0,,119.7979126,0,6,P-GPS,"GEO: You are in a Warning Zone (Class D Airspace). Fly with caution."
100,2022-10-12 09:34:56,45.4389340129247,9.05587975381533,0,,,119.7979126,0.2,0,0.00451451,0.00451451,15,5,0,119.7979126,0,0,0.00451451,0,0,0,59.9, 0.1, 1,0,0,1024,1024,1024,1024,0,0,0,0,0,0,81,4.134,4.14,4.14,4.141,4.141,4.142,0,,119.7979126,0,41,Motors_Started,
200,2022-10-12 09:34:56,45.4389339943519,9.05587974391248,0,,,119.7979126,0.2,0,0.00671457,0.00671974,15,5,0,119.7979126,0,0,0.00671457,0,0,0,59.9, 0.1, 1,0,0,1024,1024,1024,1024,0,0,0,0,0,0,81,4.134,4.14,4.14,4.141,4.141,4.142,0,,119.7979126,0,41,Motors_Started,
300,2022-10-12 09:34:56,45.4389339763926,9.05587973521378,0,,,119.7979126,0.2,0,0.00882342,0.00882911,15,5,0,119.7979126,0,0,0.00882342,0,0,0,59.9, 0.1, 1,0,0,1024,1024,1024,1024,0,0,0,0,0,0,81,4.134,4.14,4.14,4.141,4.141,4.142,0,,119.7979126,0,41,Motors_Started,
400,2022-10-12 09:34:56,45.4389340843975,9.05587977897631,0,,,119.7979126,0.1,0,0.00367786,0.0213159,15,5,0,119.7979126,0,0,0.00882342,0,0,0,59.9, 0.1, 1,0,0,1024,664,1024,1075,0,-55,0,8,0,0,81,4.134,4.14,4.14,4.141,4.141,4.142,0,,119.7979126,0,41,Motors_Started,
500,2022-10-12 09:34:56,45.4389340754879,9.05587977353861,0,,,119.7979126,0.2,0,0.00263089,0.0223937,15,5,0,119.7979126,0,0,0.00882342,0,0,0,59.9, 0.1, 1,0,0,1024,1023,1024,1024,0,-0,0,0,0,0,81,4.134,4.14,4.14,4.141,4.141,4.142,0,,119.7979126,0,41,Motors_Started,
600,2022-10-12 09:34:56,45.4389340731034,9.05587976881592,0,,,119.7979126,0.2,0,0.00234739,0.0228477,15,5,0,119.7979126,0,0,0.00882342,0,0,0,59.9, 0.1, 1,0,0,1024,1024,1024,1024,0,0,0,0,0,0,81,4.134,4.14,4.14,4.141,4.141,4.142,0,,119.7979126,0,41,Motors_Started,
700,2022-10-12 09:34:56,45.4389340628536,9.05587976104588,0,,,119.7979126,0.2,0,0.00137544,0.0241388,15,5,0,119.7979126,0,0,0.00882342,0,0,0,59.9, 0.1, 1,0,0,1024,1024,1024,1024,0,0,0,0,0,0,81,4.134,4.14,4.14,4.141,4.141,4.142,0,,119.7979126,0,41,Motors_Started,
800,2022-10-12 09:34:56,45.4389340295739,9.05587979295208,0,,,119.7979126,0.2,0,0.00309334,0.0285992,15,5,0,119.7979126,0,0,0.00882342,0,0,0,59.9, 0.1, 1,0,0,1024,1024,1024,1024,0,0,0,0,0,0,81,4.134,4.14,4.14,4.141,4.141,4.142,0,,119.7979126,0,41,Motors_Started,"Setting new Return-To-Home altitude to 45m (148 ft). Data Recorder File Index is 159. Setting new Maximum Flight Altitude to 100m (328 ft)"
900,2022-10-12 09:34:57,45.4389339873426,9.05587979864465,0,,,119.7979126,0.2,0,0.00754141,0.0333165,15,5,0,119.7979126,0,0,0.00882342,0,0,0,59.9, 0.1, 1,0,0,1024,1024,1024,1024,0,0,0,0,0,0,81,4.134,4.14,4.14,4.141,4.141,4.142,0,,119.7979126,0,41,Motors_Started,
1000,2022-10-12 09:34:57,45.4389339646328,9.05587984683227,0,,,119.7979126,0.2,0,0.0114372,0.037846,15,5,0,119.7979126,0,0,0.0114372,0,0,0,59.9, 0.1, 1,0,0,1024,1024,1024,1024,0,0,0,0,0,0,81,4.134,4.14,4.14,4.141,4.141,4.142,0,,119.7979126,0,41,Motors_Started,
1100,2022-10-12 09:34:57,45.4389339433677,9.05587988605983,0,,,119.7979126,0.2,0,0.0151216,0.041714,14,5,0,119.7979126,0,0,0.0151216,0,0,0,59.9, 0.1, 1,0,0,1024,1024,1024,1024,0,0,0,0,0,0,81,4.134,4.14,4.14,4.141,4.141,4.142,0,,119.7979126,0,41,Motors_Started,
1200,2022-10-12 09:34:57,45.4389340026403,9.0558800034987,0,,,119.7979126,0.2,0,0.0190662,0.0530021,14,5,0,119.7979126,0,0,0.0190662,0,0,0,59.9, 0.1, 1,0,0,1024,1024,1024,1024,0,0,0,0,0,0,81,4.134,4.14,4.14,4.141,4.141,4.142,0,,119.7979126,0,41,Motors_Started,
1300,2022-10-12 09:34:57,45.4389339728776,9.05588000886352,0,,,119.7979126,0.2,0,0.0206463,0.0563383,14,5,24.838,119.7979126,0,0,0.0206463,0,0,0,59.9, 0.1, 1,0,0,1024,1024,1024,1024,0,0,0,0,0,0,81,4.134,4.14,4.14,4.141,4.141,4.142,0,,119.7979126,0,41,Motors_Started,
1400,2022-10-12 09:34:57,45.4389338996163,9.05587999236501,0,,,119.7979126,0.2,0,0.0242814,0.0645865,14,5,24.838,119.7979126,0,0,0.0242814,0,0,0,59.9, 0, 1,0,0,1024,1024,1024,1024,0,0,0,0,0,0,81,4.134,4.14,4.14,4.141,4.141,4.142,0,,119.7979126,0,41,Motors_Started,
1500,2022-10-12 09:34:57,45.4389338330602,9.05587996819184,0,,,119.7979126,0.2,0,0.0288647,0.0722245,14,5,24.838,119.7979126,0,0,0.0288647,0,0,0,59.9, 0, 1,0,0,1024,1024,1024,1024,0,0,0,0,0,0,81,4.134,4.14,4.14,4.141,4.141,4.142,0,,119.7979126,0,41,Motors_Started,
1600,2022-10-12 09:34:57,45.4389337915854,9.05587993419823,0,,,119.7979126,0.2,0,0.0316832,0.0775451,14,5,24.838,119.7979126,0,0,0.0316832,0,0,0,59.9, 0.1, 1,0,0,1024,1024,1024,1024,0,0,0,0,0,0,81,4.134,4.14,4.14,4.141,4.141,4.142,0,,119.7979126,0,10,Assisted_Takeoff,
1700,2022-10-12 09:34:57,45.4389337526081,9.05587986974751,0,,,119.7979126,0.2,0,0.0342008,0.0841843,14,5,24.838,119.7979126,0,0,0.0342008,0,0,0,59.9, 0, 1,0,0,1024,1024,1024,1024,0,0,0,0,0,0,81,4.134,4.14,4.14,4.141,4.141,4.142,0,,119.7979126,0,10,Assisted_Takeoff,
1800,2022-10-12 09:34:57,45.4389336748475,9.05587983561884,0,,,119.7979126,0.2,0,0.0422578,0.0932325,14,5,24.838,119.7979126,0,0,0.0422578,0,0,0,59.9, 0.1, 1,0,0,1024,1024,1024,1024,0,0,0,0,0,0,81,4.134,4.14,4.14,4.141,4.141,4.142,0,,119.7979126,0,10,Assisted_Takeoff,
1900,2022-10-12 09:34:58,45.4389336073106,9.05587981522786,0,,,119.7979126,0.2,0,0.0495808,0.10091,14,5,24.838,119.7979126,0,0,0.0495808,0,0,0,59.9, 0, 0.9,0,0,1024,1024,1031,1024,0,0,1,0,0,0,81,4.134,4.14,4.14,4.141,4.141,4.142,0,,119.7979126,0,10,Assisted_Takeoff,
2000,2022-10-12 09:34:58,45.4389335720161,9.05587984025263,0,,,119.7979126,0.2,0,0.0536619,0.105294,14,5,24.838,119.7979126,0,0,0.0536619,0,0,0,59.9, 0, 0.9,0,0,1024,1024,1070,1024,0,0,7,0,0,0,81,4.134,4.14,4.14,4.141,4.141,4.142,0,,119.7979126,0,10,Assisted_Takeoff,
2100,2022-10-12 09:34:58,45.4389336207986,9.0558799558769,0,,,119.7979126,0.2,0,0.0501091,0.115821,14,5,24.838,119.7979126,0,0,0.0536619,0,0,0,59.9, 0, 0.9,0,0,1024,1024,1119,1024,0,0,14,0,0,0,81,4.134,4.14,4.14,4.141,4.141,4.142,0,,119.7979126,0,10,Assisted_Takeoff,
2200,2022-10-12 09:34:58,45.438933620486,9.05587996254697,0,,,119.7979126,0.2,0,0.0502958,0.116343,14,5,24.838,119.7979126,0,0,0.0536619,0,0,0,59.9, 0, 0.9,0,0,1024,1024,1143,1024,0,0,18,0,0,0,81,4.134,4.14,4.14,4.141,4.141,4.142,0,,119.7979126,0,10,Assisted_Takeoff,
2300,2022-10-12 09:34:58,45.4389336262197,9.05587996483735,0,,,119.7979126,0.2,0,0.0497422,0.117005,14,5,24.695,119.7979126,0,0,0.0536619,0,0,0,59.9, 0, 0.9,0,0,1024,1024,1140,1024,0,0,18,0,0,0,81,4.109,4.118,4.116,4.116,4.116,4.12,0,,119.7979126,0,10,Assisted_Takeoff,
2400,2022-10-12 09:34:58,45.4389336387433,9.05587995572238,0,,,119.7979126,0.2,0,0.0481993,0.118569,14,5,24.695,119.7979126,0,0,0.0536619,0,0,0,59.9, 0, 0.9,0,0,1024,1024,1134,1024,0,0,17,0,0,0,81,4.109,4.118,4.116,4.116,4.116,4.12,0,,119.7979126,0,10,Assisted_Takeoff,
2500,2022-10-12 09:34:58,45.4389338237907,9.05588000343995,0,,,119.7979126,0.2,0,0.0312615,0.139481,14,5,24.695,119.7979126,0,0,0.0536619,0,0,0,59.9, 0, 0.9,0,0,1024,1024,1135,1024,0,0,17,0,0,0,81,4.109,4.118,4.116,4.116,4.116,4.12,0,,119.7979126,0,10,Assisted_Takeoff,
2600,2022-10-12 09:34:58,45.4389338449702,9.05587998045298,0,,,119.7979126,0.2,0,0.0283022,0.142442,14,5,24.695,119.7979126,0,0,0.0536619,0,0,0,59.9, 0, 0.9,0,0,1024,1024,1142,1024,0,0,18,0,0,0,81,4.109,4.118,4.116,4.116,4.116,4.12,0,,119.7979126,0,10,Assisted_Takeoff,
2700,2022-10-12 09:34:58,45.4389338619122,9.05587995167692,0,,,119.7979126,0.1,0,0.0254741,0.145373,14,5,24.695,119.7979126,0,0,0.0536619,0,0,0,59.9, 0, 0.9,0,0,1024,1024,1152,1024,0,0,19,0,0,0,81,4.109,4.118,4.116,4.116,4.116,4.12,0,,119.7979126,0,10,Assisted_Takeoff,
2800,2022-10-12 09:34:58,45.4389338704684,9.05587992433545,0,,,119.7979126,0.1,0,0.0235267,0.147709,14,5,24.695,119.7979126,0,0,0.0536619,0,0,0,59.9, 0, 0.9,0,0,1024,1024,1165,1024,0,0,21,0,0,0,81,4.109,4.118,4.116,4.116,4.116,4.12,0,,119.7979126,0,10,Assisted_Takeoff,
2900,2022-10-12 09:34:59,45.4389339687267,9.05587992939542,0,,,119.7979126,0.1,0,0.0155378,0.158643,14,5,24.695,119.7979126,0,0,0.0536619,0,0,0,59.9, -0.2, 0.8,0,0,1024,1024,1182,1024,0,0,24,0,0,0,81,4.109,4.118,4.116,4.116,4.116,4.12,0,,119.7979126,0,10,Assisted_Takeoff,
3000,2022-10-12 09:34:59,45.4389339710786,9.05587991279237,0,,,119.7979126,0.2,0,0.0143527,0.159965,14,5,24.695,119.7979126,0,0,0.0536619,0,0,0,60, -0.6, 0.8,0,0,1024,1024,1190,1024,0,0,25,0,0,0,81,4.109,4.118,4.116,4.116,4.116,4.12,0,,119.7979126,0,10,Assisted_Takeoff,
3100,2022-10-12 09:34:59,45.4389339686257,9.0558799141907,0,,,119.7979126,0.2,0,0.0146094,0.160258,15,5,24.695,119.7979126,0,0,0.0536619,0,0,-0.1,60.1, -1.4, 0.8,0,0,1024,1024,1189,1024,0,0,25,0,0,0,81,4.109,4.118,4.116,4.116,4.116,4.12,0,,119.7979126,0,10,Assisted_Takeoff,
3200,2022-10-12 09:34:59,45.4389339649263,9.05587995664418,0,,,119.7979126,0.2,0,0.0175216,0.163597,15,5,24.695,119.7979126,0,0,0.0536619,0,0,-0.3,60.2, -1.9, 0.6,0,0,1024,1024,1191,1024,0,0,25,0,0,0,81,4.109,4.118,4.116,4.116,4.116,4.12,0,,119.7979126,0,6,P-GPS,
3300,2022-10-12 09:34:59,45.4389339697815,9.05588005230213,0,,,119.7979126,0.2,0,0.0238863,0.17108,15,5,24.603,119.7979126,0,0,0.0536619,0,0,-0.4,60.2, -1.4, 0.2,0,0,1024,1024,1191,1024,0,0,25,0,0,0,81,4.094,4.101,4.101,4.101,4.101,4.105,0,,119.7979126,0,6,P-GPS,
3400,2022-10-12 09:34:59,45.4389339798974,9.05588040860202,0.1,,,119.8979126,0.3,0.1,0.0505096,0.198905,15,5,24.603,119.8979126,0.1,0.1,0.0536619,0,0.1,-0.5,60.3, -0.6, 0,0,0,1024,1024,1195,1024,0,0,26,0,0,0,81,4.094,4.101,4.101,4.101,4.101,4.105,0,,119.8979126,0.1,6,P-GPS,
3500,2022-10-12 09:34:59,45.4389340081358,9.05588059412272,0.1,,,119.8979126,0.3,0.1,0.0645299,0.213718,15,5,24.603,119.8979126,0.1,0.1,0.0645299,0,0.1,-0.5,60.3, 0.2, -0.2,0,0,1024,1024,1194,1024,0,0,26,0,0,0,81,4.094,4.101,4.101,4.101,4.101,4.105,0,,119.8979126,0.1,6,P-GPS,
3600,2022-10-12 09:34:59,45.4389340452631,9.05588073537803,0.2,,,119.9979126,0.4,0,0.0753711,0.225488,15,5,24.603,119.9979126,0.2,0.1,0.0753711,0,0,-0.5,60.3, 0.9, -0.1,0,0,1024,1024,1198,1024,0,0,26,0,0,0,81,4.094,4.101,4.101,4.101,4.101,4.105,0,,119.9979126,0.2,6,P-GPS,
3700,2022-10-12 09:34:59,45.4389340899472,9.05588083410928,0.2,,,119.9979126,0.4,0,0.0831785,0.234655,15,5,24.603,119.9979126,0.2,0.1,0.0831785,0,0,-0.4,60.3, 1.1, 0,0,0,1024,1024,1202,1024,0,0,27,0,0,0,81,4.094,4.101,4.101,4.101,4.101,4.105,0,,119.9979126,0.2,6,P-GPS,
3800,2022-10-12 09:35:00,45.4389342365854,9.05588087071986,0.3,,,120.0979126,0.5,0,0.0883459,0.251211,15,5,24.603,120.0979126,0.3,0.1,0.0883459,0,0,-0.4,60.3, 0.8, 0.1,0,0,1024,1024,1222,1024,0,0,30,0,0,0,81,4.094,4.101,4.101,4.101,4.101,4.105,0,,120.0979126,0.3,6,P-GPS,
3900,2022-10-12 09:35:00,45.4389342820365,9.05588090195303,0.3,,,120.0979126,0.5,0,0.0919936,0.256822,15,5,24.603,120.0979126,0.3,0.1,0.0919936,0,0,-0.3,60.3, 0.6, 0.3,0,0,1024,1024,1237,1024,0,0,32,0,0,0,81,4.094,4.101,4.101,4.101,4.101,4.105,0,,120.0979126,0.3,6,P-GPS,
4000,2022-10-12 09:35:00,45.4389342769248,9.0558809736923,0.3,,,120.0979126,0.5,0,0.0972353,0.262449,15,5,24.603,120.0979126,0.3,0.1,0.0972353,0,0,-0.3,60.3, 0.5, 0.4,0,0,1024,1024,1252,1024,0,0,35,0,0,0,81,4.094,4.101,4.101,4.101,4.101,4.105,0,,120.0979126,0.3,6,P-GPS,
4100,2022-10-12 09:35:00,45.4389342484669,9.05588098960248,0.4,,,120.1979126,0.6,0,0.0976793,0.265848,15,5,24.603,120.1979126,0.4,0.1,0.0976793,0,0,-0.3,60.3, 0.1, 0.4,0,0,1024,1024,1252,1024,0,0,35,0,0,0,81,4.094,4.101,4.101,4.101,4.101,4.105,0,,120.1979126,0.4,6,P-GPS,
4200,2022-10-12 09:35:00,45.438934073734,9.05588089776412,0.4,,,120.1979126,0.6,0,0.0880715,0.286559,15,5,24.603,120.1979126,0.4,0.1,0.0976793,0,0,-0.4,60.3, -0.3, 0.4,0,0,1024,1024,1281,1024,0,0,39,0,0,0,81,4.094,4.101,4.101,4.101,4.101,4.105,0,,120.1979126,0.4,6,P-GPS,
4300,2022-10-12 09:35:00,45.4389340202543,9.05588081815408,0.5,,,120.2979126,0.7,0,0.0819025,0.295159,15,5,23.956,120.2979126,0.5,0.1,0.0976793,0,0,-0.4,60.3, -0.5, 0.2,0,0,1024,1024,1308,1024,0,0,43,0,0,0,81,3.977,3.996,3.996,3.991,3.995,4.001,0,,120.2979126,0.5,6,P-GPS,
4400,2022-10-12 09:35:00,45.4389340400586,9.05588075184411,0.5,,,120.2979126,0.7,0,0.0766637,0.300782,15,5,23.956,120.2979126,0.5,0.1,0.0976793,0,0,-0.5,60.3, -0.6, -0.1,0,0,1024,1024,1320,1024,0,0,45,0,0,0,81,3.977,3.996,3.996,3.991,3.995,4.001,0,,120.2979126,0.5,6,P-GPS,
4500,2022-10-12 09:35:00,45.4389340299733,9.05588072441908,0.6,,,120.3979126,0.8,0,0.0745525,0.303198,15,5,23.956,120.3979126,0.6,0.1,0.0976793,0,0,-0.6,60.3, -0.6, -0.5,0,0,1024,1024,1332,1024,0,0,47,0,0,0,81,3.977,3.996,3.996,3.991,3.995,4.001,0,,120.3979126,0.6,6,P-GPS,
4600,2022-10-12 09:35:00,45.438933893618,9.05588089436384,0.6,,,120.3979126,0.9,0,0.0895227,0.323342,15,5,23.956,120.3979126,0.6,0.1,0.0976793,0,0,-0.8,60.3, -0.6, -0.6,0,0,1024,1024,1332,1024,0,0,47,0,0,0,81,3.977,3.996,3.996,3.991,3.995,4.001,0,,120.3979126,0.6,6,P-GPS,
4700,2022-10-12 09:35:00,45.4389338190601,9.05588093206944,0.7,,,120.4979126,1,0,0.0943413,0.33214,15,5,23.956,120.4979126,0.7,0.1,0.0976793,0,0,-0.9,60.3, -0.4, -0.4,0,0,1024,1024,1328,1024,0,0,46,0,0,0,81,3.977,3.996,3.996,3.991,3.995,4.001,0,,120.4979126,0.7,6,P-GPS,
4800,2022-10-12 09:35:01,45.4389338082822,9.05588090372147,0.8,,,120.5979126,1.1,0,0.0925602,0.334656,15,5,23.956,120.5979126,0.8,0.1,0.0976793,0,0,-1,60.3, -0.3, -0.3,0,0,1024,1024,1327,1024,0,0,46,0,0,0,81,3.977,3.996,3.996,3.991,3.995,4.001,0,,120.5979126,0.8,6,P-GPS,
4900,2022-10-12 09:35:01,45.4389338034925,9.05588086071362,0.9,,,120.6979126,1.2,0,0.0895198,0.338054,15,5,23.956,120.6979126,0.9,0.1,0.0976793,0,0,-1,60.3, -0.3, 0,0,0,1024,1024,1324,1024,0,0,45,0,0,0,81,3.977,3.996,3.996,3.991,3.995,4.001,0,,120.6979126,0.9,6,P-GPS,
5000,2022-10-12 09:35:01,45.4389337959142,9.05588081004714,1,,,120.7979126,1.3,0,0.0860433,0.342096,15,5,23.956,120.7979126,1,0.1,0.0976793,0,0,-1.1,60.3, -0.3, 0.3,0,0,1024,1024,1320,1024,0,0,45,0,0,0,81,3.977,3.996,3.996,3.991,3.995,4.001,0,,120.7979126,1,6,P-GPS,
5100,2022-10-12 09:35:01,45.4389338213093,9.05588077054144,1.2,,,120.9979126,1.4,0,0.0822162,0.346277,15,5,23.956,120.9979126,1.2,0.1,0.0976793,0,0,-1.1,60.4, -0.3, 0.5,0,0,1024,1024,1327,1024,0,0,46,0,0,0,81,3.977,3.996,3.996,3.991,3.995,4.001,0,,120.9979126,1.2,6,P-GPS,
5200,2022-10-12 09:35:01,45.4389338413009,9.05588076576647,1.3,,,121.0979126,1.5,0,0.081193,0.348531,15,5,23.956,121.0979126,1.3,0.1,0.0976793,0,0,-1.1,60.4, -0.4, 0.6,0,0,1024,1024,1325,1024,0,0,46,0,0,0,81,3.977,3.996,3.996,3.991,3.995,4.001,0,,121.0979126,1.3,6,P-GPS,
5300,2022-10-12 09:35:01,45.4389338526695,9.05588076218764,1.4,,,121.1979126,1.6,0,0.0805687,0.349826,15,5,23.631,121.1979126,1.4,0.1,0.0976793,0,0,-1.1,60.5, -0.7, 0.7,0,0,1024,1024,1328,1024,0,0,46,0,0,0,81,3.918,3.943,3.943,3.936,3.943,3.948,0,,121.1979126,1.4,6,P-GPS,
5400,2022-10-12 09:35:01,45.438933842896,9.055880743596,1.5,,,121.2979126,1.8,0,0.0794861,0.351638,15,5,23.631,121.2979126,1.5,0.1,0.0976793,0,0,-1.1,60.5, -1, 0.5,0,0,1024,1024,1331,1024,0,0,47,0,0,0,81,3.918,3.943,3.943,3.936,3.943,3.948,0,,121.2979126,1.5,6,P-GPS,
5500,2022-10-12 09:35:01,45.4389339060817,9.05588084496025,1.6,,,121.3979126,1.9,0,0.0854726,0.362218,15,5,23.631,121.3979126,1.6,0.1,0.0976793,0,0,-1.1,60.4, -1.2, 0.3,0,0,1024,1024,1320,1024,0,0,45,0,0,0,81,3.918,3.943,3.943,3.936,3.943,3.948,0,,121.3979126,1.6,6,P-GPS,
5600,2022-10-12 09:35:01,45.4389338709313,9.05588081119099,1.8,,,121.5979126,2,0,0.08374,0.366932,15,5,23.631,121.5979126,1.8,0.1,0.0976793,0,0,-1.1,60.4, -1.2, 0.1,0,0,1024,1024,1308,1024,0,0,43,0,0,0,81,3.918,3.943,3.943,3.936,3.943,3.948,0,,121.5979126,1.8,6,P-GPS,
5700,2022-10-12 09:35:01,45.438933830837,9.05588079227199,1.9,,,121.6979126,2.1,0,0.0835106,0.371629,15,5,23.631,121.6979126,1.9,0.1,0.0976793,0,0,-1.1,60.4, -1.1, 0,0,0,1024,1024,1152,1024,0,0,19,0,0,0,81,3.918,3.943,3.943,3.936,3.943,3.948,0,,121.6979126,1.9,6,P-GPS,
5800,2022-10-12 09:35:02,45.4389337849999,9.05588077622599,2,,,121.7979126,2.2,0,0.083979,0.376878,15,5,23.631,121.7979126,2,0.1,0.0976793,0,0,-1.1,60.3, -0.9, -0.3,0,0,1024,1024,1024,1024,0,0,0,0,0,0,81,3.918,3.943,3.943,3.936,3.943,3.948,0,,121.7979126,2,6,P-GPS,
5900,2022-10-12 09:35:02,45.4389337540607,9.05588071910272,2.1,,,121.8979126,2.3,0,0.0811677,0.382509,15,5,23.631,121.8979126,2.1,0.1,0.0976793,0,0,-0.9,60.2, -0.7, -0.7,0,0,1024,1024,1024,1024,0,0,0,0,0,0,81,3.918,3.943,3.943,3.936,3.943,3.948,0,,121.8979126,2.1,6,P-GPS,
6000,2022-10-12 09:35:02,45.4389337293365,9.05588075151446,2.2,,,121.9979126,2.4,0,0.0846118,0.386245,15,5,23.631,121.9979126,2.2,0.1,0.0976793,0,0,-0.6,60.1, -0.5, -1,0,0,1024,1024,1024,1024,0,0,0,0,0,0,81,3.918,3.943,3.943,3.936,3.943,3.948,0,,121.9979126,2.2,6,P-GPS,
6100,2022-10-12 09:35:02,45.4389337180245,9.05588078764583,2.2,,,121.9979126,2.5,0,0.0876985,0.389332,15,5,23.631,121.9979126,2.2,0.1,0.0976793,0,0,-0.4,60.1, -0.6, -1.1,0,0,1024,1024,1024,1024,0,0,0,0,0,0,81,3.918,3.943,3.943,3.936,3.943,3.948,0,,121.9979126,2.2,6,P-GPS,
6200,2022-10-12 09:35:02,45.4389337326141,9.05588085149678,2.3,,,122.0979126,2.5,0,0.0915948,0.394572,15,5,23.631,122.0979126,2.3,0.1,0.0976793,0,0,-0.2,60.1, -0.7, -1,0,0,1024,1024,1024,1024,0,0,0,0,0,0,81,3.918,3.943,3.943,3.936,3.943,3.948,0,,122.0979126,2.3,6,P-GPS,
6300,2022-10-12 09:35:02,45.438933797808,9.05588122912432,2.3,,,122.0979126,2.6,0,0.11735,0.424917,15,5,23.73,122.0979126,2.3,0.1,0.11735,0,0,-0.1,60.1, -0.8, -0.8,0,0,1024,1024,1024,1024,0,0,0,0,0,0,81,3.938,3.96,3.958,3.953,3.957,3.964,0,,122.0979126,2.3,6,P-GPS,
6400,2022-10-12 09:35:02,45.4389337864977,9.05588132897729,2.3,,,122.0979126,2.6,0,0.125217,0.432809,15,5,23.73,122.0979126,2.3,0.1,0.125217,0,0,-0.1,60.1, -0.8, -0.6,0,0,1024,1024,1024,1024,0,0,0,0,0,0,81,3.938,3.96,3.958,3.953,3.957,3.964,0,,122.0979126,2.3,6,P-GPS,
6500,2022-10-12 09:35:02,45.4389337765125,9.05588139102814,2.4,,,122.1979126,2.6,0,0.130184,0.437777,15,5,23.73,122.1979126,2.4,0.1,0.130184,0,0,-0.1,60.1, -0.7, -0.4,0,0,1024,1024,1024,1024,0,0,0,0,0,0,81,3.938,3.96,3.958,3.953,3.957,3.964,0,,122.1979126,2.4,6,P-GPS,
6600,2022-10-12 09:35:02,45.4389337531923,9.05588134595807,2.4,,,122.1979126,2.6,0,0.12742,0.442146,15,5,23.73,122.1979126,2.4,0.1,0.130184,0,0,0,60.2, -0.6, -0.3,0,0,1024,1024,1024,1024,0,0,0,0,0,0,81,3.938,3.96,3.958,3.953,3.957,3.964,0,,122.1979126,2.4,6,P-GPS,
6700,2022-10-12 09:35:02,45.4389337357582,9.05588132563272,2.4,,,122.1979126,2.6,0,0.126415,0.444651,15,5,23.73,122.1979126,2.4,0.1,0.130184,0,0,0,60.2, -0.5, -0.2,0,0,1024,1024,1024,1024,0,0,0,0,0,0,81,3.938,3.96,3.958,3.953,3.957,3.964,0,,122.1979126,2.4,6,P-GPS,
6800,2022-10-12 09:35:03,45.4389337150204,9.05588134951669,2.4,,,122.1979126,2.6,0,0.128858,0.447616,15,5,23.73,122.1979126,2.4,0.1,0.130184,0,0,0,60.2, -0.3, -0.2,0,0,1024,1024,1024,1024,0,0,0,0,0,0,81,3.938,3.96,3.958,3.953,3.957,3.964,0,,122.1979126,2.4,6,P-GPS,
6900,2022-10-12 09:35:03,45.4389337083295,9.05588139407778,2.4,,,122.1979126,2.6,0,0.132402,0.451172,15,5,23.73,122.1979126,2.4,0.1,0.132402,0,0,0,60.1, -0.2, -0.3,0,0,1024,1024,1024,1024,0,0,0,0,0,0,81,3.938,3.96,3.958,3.953,3.957,3.964,0,,122.1979126,2.4,6,P-GPS,
7000,2022-10-12 09:35:03,45.4389337001881,9.0558813931205,2.3,,,122.0979126,2.6,0,0.132594,0.45208,15,5,23.73,122.1979126,2.4,0.1,0.132594,0,0,0,60.1, -0.2, -0.6,0,0,1024,1024,1024,1024,0,0,0,0,0,0,81,3.938,3.96,3.958,3.953,3.957,3.964,0,,122.0979126,2.3,6,P-GPS,
7100,2022-10-12 09:35:03,45.4389336901125,9.05588138637107,2.3,,,122.0979126,2.6,0,0.132427,0.453318,15,5,23.73,122.1979126,2.4,0.1,0.132594,0,0,0,60, -0.1, -0.7,0,0,1024,1024,1024,1024,0,0,0,0,0,0,81,3.938,3.96,3.958,3.953,3.957,3.964,0,,122.0979126,2.3,6,P-GPS,
7200,2022-10-12 09:35:03,45.4389336905156,9.05588139354058,2.3,,,122.0979126,2.6,0,0.132947,0.45388,15,5,23.73,122.1979126,2.4,0.1,0.132947,0,0,0,60, -0.2, -0.8,0,0,1024,1024,1024,1024,0,0,0,0,0,0,81,3.938,3.96,3.958,3.953,3.957,3.964,0,,122.0979126,2.3,6,P-GPS,
7300,2022-10-12 09:35:03,45.4389336733363,9.05588135553547,2.3,,,122.0979126,2.6,0,0.130726,0.457407,15,5,23.824,122.1979126,2.4,0.1,0.132947,0,0,0,60, -0.5, -0.8,0,0,1024,1024,1024,1024,0,0,0,0,0,0,81,3.955,3.973,3.976,3.968,3.973,3.979,0,,122.0979126,2.3,6,P-GPS,
7400,2022-10-12 09:35:03,45.438933661046,9.05588126415915,2.3,,,122.0979126,2.6,0,0.124468,0.464667,15,5,23.824,122.1979126,2.4,0.1,0.132947,0,0,0,60, -0.7, -0.6,0,0,1024,1024,1024,1024,0,0,0,0,0,0,81,3.955,3.973,3.976,3.968,3.973,3.979,0,,122.0979126,2.3,6,P-GPS,
7500,2022-10-12 09:35:03,45.4389336527805,9.05588117928845,2.3,,,122.0979126,2.6,0,0.118626,0.471353,15,5,23.824,122.1979126,2.4,0.1,0.132947,0,0,0,60, -1, -0.3,0,0,1024,1024,1024,1024,0,0,0,0,0,0,81,3.955,3.973,3.976,3.968,3.973,3.979,0,,122.0979126,2.3,6,P-GPS,
7600,2022-10-12 09:35:03,45.4389336747217,9.05588115430718,2.3,,,122.0979126,2.6,0,0.115916,0.474476,15,5,23.824,122.1979126,2.4,0.1,0.132947,0,0,0,60, -1.1, -0.1,0,0,1024,1024,1024,1024,0,0,0,0,0,0,81,3.955,3.973,3.976,3.968,3.973,3.979,0,,122.0979126,2.3,6,P-GPS,
7700,2022-10-12 09:35:03,45.4389336535422,9.05588110871974,2.3,,,122.0979126,2.6,0,0.113506,0.478742,15,5,23.824,122.1979126,2.4,0.1,0.132947,0,0,0,60, -1.2, -0.1,0,0,1024,1024,1024,1024,0,0,0,0,0,0,81,3.955,3.973,3.976,3.968,3.973,3.979,0,,122.0979126,2.3,6,P-GPS,
7800,2022-10-12 09:35:04,45.4389335946833,9.05588106490036,2.3,,,122.0979126,2.5,0,0.113153,0.486127,15,5,23.824,122.1979126,2.4,0.1,0.132947,0,0,0,60, -1.2, -0.1,0,0,1024,1024,1024,1024,0,0,0,0,0,0,81,3.955,3.973,3.976,3.968,3.973,3.979,0,,122.0979126,2.3,6,P-GPS,
7900,2022-10-12 09:35:04,45.4389335459093,9.05588103777522,2.3,,,122.0979126,2.5,0,0.113847,0.491949,15,5,23.824,122.1979126,2.4,0.1,0.132947,0,0,0,60, -1.1, -0.2,0,0,1024,1024,1024,1024,0,0,0,0,0,0,81,3.955,3.973,3.976,3.968,3.973,3.979,0,,122.0979126,2.3,6,P-GPS,
8000,2022-10-12 09:35:04,45.4389334985265,9.05588109203275,2.3,,,122.0979126,2.5,0,0.120158,0.498709,15,5,23.824,122.1979126,2.4,0.1,0.132947,0,0,0,60, -0.9, -0.3,0,0,1024,1024,1024,1024,0,0,0,0,0,0,81,3.955,3.973,3.976,3.968,3.973,3.979,0,,122.0979126,2.3,6,P-GPS,
8100,2022-10-12 09:35:04,45.4389334814372,9.05588107800165,2.3,,,122.0979126,2.5,0,0.120211,0.500902,15,5,23.824,122.1979126,2.4,0.1,0.132947,0,0,0,60, -0.8, -0.4,0,0,1024,1024,1024,1024,0,0,0,0,0,0,81,3.955,3.973,3.976,3.968,3.973,3.979,0,,122.0979126,2.3,6,P-GPS,
8200,2022-10-12 09:35:04,45.438933479545,9.05588109450283,2.3,,,122.0979126,2.5,0,0.121417,0.502207,15,5,23.824,122.1979126,2.4,0.1,0.132947,0,0,0,60, -0.7, -0.3,0,0,1024,1024,1024,1024,0,0,0,0,0,0,81,3.955,3.973,3.976,3.968,3.973,3.979,0,,122.0979126,2.3,6,P-GPS,
8300,2022-10-12 09:35:04,45.4389334825527,9.05588110960835,2.3,,,122.0979126,2.5,0,0.122249,0.503432,15,5,23.824,122.1979126,2.4,0.1,0.132947,0,0,0,60, -0.6, -0.2,0,0,1024,1024,1024,1024,0,0,0,0,0,0,81,3.955,3.973,3.976,3.968,3.973,3.979,0,,122.0979126,2.3,6,P-GPS,
8400,2022-10-12 09:35:04,45.4389334881659,9.05588112976277,2.3,,,122.0979126,2.5,0,0.123278,0.505124,15,5,23.689,122.1979126,2.4,0.1,0.132947,0,0,0,59.9, -0.6, -0.2,0,0,1024,1024,1024,1024,0,0,0,0,0,0,81,3.928,3.95,3.955,3.946,3.952,3.958,0,,122.0979126,2.3,6,P-GPS,
8500,2022-10-12 09:35:04,45.4389335995934,9.05588128793895,2.3,,,122.0979126,2.5,0,0.128723,0.522614,15,5,23.689,122.1979126,2.4,0.1,0.132947,0,0,0,59.9, -0.6, -0.2,0,0,1024,1024,1024,1024,0,0,0,0,0,0,81,3.928,3.95,3.955,3.946,3.952,3.958,0,,122.0979126,2.3,6,P-GPS,
8600,2022-10-12 09:35:04,45.4389336667391,9.0558812667601,2.3,,,122.0979126,2.5,0,0.124439,0.530261,15,5,23.689,122.1979126,2.4,0.1,0.132947,0,0,0,59.8, -0.6, -0.2,0,0,1024,1024,1024,1024,0,0,0,0,0,0,81,3.928,3.95,3.955,3.946,3.952,3.958,0,,122.0979126,2.3,6,P-GPS,
8700,2022-10-12 09:35:04,45.4389337217048,9.0558812499285,2.3,,,122.0979126,2.5,0,0.121217,0.536513,15,5,23.689,122.1979126,2.4,0.1,0.132947,0,0,0,59.8, -0.5, -0.1,0,0,1024,1024,1024,1024,0,0,0,0,0,0,81,3.928,3.95,3.955,3.946,3.952,3.958,0,,122.0979126,2.3,6,P-GPS,
8800,2022-10-12 09:35:05,45.4389337458517,9.05588125837196,2.3,,,122.0979126,2.5,0,0.121062,0.539278,15,5,23.689,122.1979126,2.4,0.1,0.132947,0,0,0,59.8, -0.6, -0.1,0,0,1024,1024,1024,1024,0,0,0,0,0,0,81,3.928,3.95,3.955,3.946,3.952,3.958,0,,122.0979126,2.3,6,P-GPS,
8900,2022-10-12 09:35:05,45.4389338479617,9.05588135250338,2.3,,,122.0979126,2.5,0,0.125588,0.552802,15,5,23.689,122.1979126,2.4,0.1,0.132947,0,0,0,59.9, -0.7, 0,0,0,1024,1024,1024,1024,0,0,0,0,0,0,81,3.928,3.95,3.955,3.946,3.952,3.958,0,,122.0979126,2.3,6,P-GPS,
9000,2022-10-12 09:35:05,45.4389337855394,9.0558813067164,2.3,,,122.0979126,2.6,0,0.123555,0.560609,15,5,23.689,122.1979126,2.4,0.1,0.132947,0,0,0,59.9, -1, 0,0,0,1024,1024,1024,1024,0,0,0,0,0,0,81,3.928,3.95,3.955,3.946,3.952,3.958,0,,122.0979126,2.3,6,P-GPS,
9100,2022-10-12 09:35:05,45.4389337341974,9.05588126081381,2.3,,,122.0979126,2.6,0,0.121615,0.567349,15,5,23.689,122.1979126,2.4,0.1,0.132947,0,0,0,59.9, -1, 0.1,0,0,1024,1024,1024,1024,0,0,0,0,0,0,81,3.928,3.95,3.955,3.946,3.952,3.958,0,,122.0979126,2.3,6,P-GPS,
9200,2022-10-12 09:35:05,45.4389337041408,9.05588121122289,2.3,,,122.0979126,2.6,0,0.118963,0.572462,15,5,23.689,122.1979126,2.4,0.1,0.132947,0,0,0,60, -1, 0.3,0,0,1024,1024,1024,1024,0,0,0,0,0,0,81,3.928,3.95,3.955,3.946,3.952,3.958,0,,122.0979126,2.3,6,P-GPS,
9300,2022-10-12 09:35:05,45.4389335398397,9.05588118945837,2.3,,,122.0979126,2.6,0,0.124581,0.590812,15,5,23.689,122.1979126,2.4,0.1,0.132947,0,0,0,60, -1.1, 0.3,0,0,1024,1024,1024,1024,0,0,0,0,0,0,81,3.928,3.95,3.955,3.946,3.952,3.958,0,,122.0979126,2.3,6,P-GPS,
9400,2022-10-12 09:35:05,45.4389335160237,9.05588116186356,2.3,,,122.0979126,2.6,0,0.123922,0.594226,15,5,23.676,122.1979126,2.4,0.1,0.132947,0,0,0,60.1, -1.2, 0.2,0,0,1024,1024,1024,1024,0,0,0,0,0,0,81,3.928,3.95,3.951,3.943,3.948,3.956,0,,122.0979126,2.3,6,P-GPS,
9500,2022-10-12 09:35:05,45.4389334842605,9.05588115045783,2.3,,,122.0979126,2.5,0,0.12489,0.597868,15,5,23.676,122.1979126,2.4,0.1,0.132947,0,0,0,60.1, -1.2, 0,0,0,1024,1024,1024,1024,0,0,0,0,0,0,81,3.928,3.95,3.951,3.943,3.948,3.956,0,,122.0979126,2.3,6,P-GPS,
9600,2022-10-12 09:35:05,45.4389334263164,9.05588116281741,2.3,,,122.0979126,2.5,0,0.129079,0.604384,15,5,23.676,122.1979126,2.4,0.1,0.132947,0,0,0,60.1, -1.1, -0.2,0,0,1024,1024,1024,1024,0,0,0,0,0,0,81,3.928,3.95,3.951,3.943,3.948,3.956,0,,122.0979126,2.3,6,P-GPS,
9700,2022-10-12 09:35:05,45.4389333875476,9.05588127698077,2.3,,,122.0979126,2.5,0,0.138911,0.614281,15,5,23.676,122.1979126,2.4,0.1,0.138911,0,0,0,60.2, -1.1, -0.2,0,0,1024,1024,1024,1024,0,0,0,0,0,0,81,3.928,3.95,3.951,3.943,3.948,3.956,0,,122.0979126,2.3,6,P-GPS,
9800,2022-10-12 09:35:05,45.438933376048,9.05588126026554,2.3,,,122.0979126,2.5,0,0.138499,0.616107,15,5,23.676,122.1979126,2.4,0.1,0.138911,0,0,0,60.2, -1, 0,0,0,1024,1024,1024,1024,0,0,0,0,0,0,81,3.928,3.95,3.951,3.943,3.948,3.956,0,,122.0979126,2.3,6,P-GPS,
9900,2022-10-12 09:35:06,45.4389333599231,9.05588124784148,2.3,,,122.0979126,2.5,0,0.138673,0.618146,15,5,23.676,122.1979126,2.4,0.1,0.138911,0,0,0,60.2, -0.9, 0.1,0,0,1024,1024,1024,1024,0,0,0,0,0,0,81,3.928,3.95,3.951,3.943,3.948,3.956,0,,122.0979126,2.3,6,P-GPS,
10000,2022-10-12 09:35:06,45.4389333172933,9.05588126251662,2.3,,,122.0979126,2.5,0,0.142295,0.623023,15,5,23.676,122.1979126,2.4,0.1,0.142295,0,0,0,60.2, -0.9, 0.2,0,0,1024,1024,1024,1024,0,0,0,0,0,0,81,3.928,3.95,3.951,3.943,3.948,3.956,0,,122.0979126,2.3,6,P-GPS,
10100,2022-10-12 09:35:06,45.4389332812595,9.05588127754048,2.3,,,122.0979126,2.6,0,0.145579,0.627198,15,5,23.676,122.1979126,2.4,0.1,0.145579,0,0,0,60.2, -1, 0.1,0,0,1024,1024,1024,1024,0,0,0,0,0,0,81,3.928,3.95,3.951,3.943,3.948,3.956,0,,122.0979126,2.3,6,P-GPS,
10200,2022-10-12 09:35:06,45.4389333035342,9.05588135448356,2.3,,,122.0979126,2.5,0,0.149076,0.633693,15,5,23.676,122.1979126,2.4,0.1,0.149076,0,0,0,60.1, -1, 0.1,0,0,1024,1024,1024,1024,0,0,0,0,0,0,81,3.928,3.95,3.951,3.943,3.948,3.956,0,,122.0979126,2.3,6,P-GPS,
10300,2022-10-12 09:35:06,45.4389332921334,9.05588137277455,2.3,,,122.0979126,2.6,0,0.150968,0.635602,15,5,23.676,122.1979126,2.4,0.1,0.150968,0,0,0,60.1, -1.1, 0,0,0,1024,1024,1024,1024,0,0,0,0,0,0,81,3.928,3.95,3.951,3.943,3.948,3.956,0,,122.0979126,2.3,6,P-GPS,
10400,2022-10-12 09:35:06,45.4389332834998,9.05588138621121,2.3,,,122.0979126,2.6,0,0.152375,0.637023,15,5,23.63,122.1979126,2.4,0.1,0.152375,0,0,0,60.1, -1.1, 0,0,0,1024,1024,1024,1024,0,0,0,0,0,0,81,3.92,3.941,3.945,3.936,3.942,3.946,0,,122.0979126,2.3,6,P-GPS,
10500,2022-10-12 09:35:06,45.4389332733245,9.05588139410487,2.3,,,122.0979126,2.6,0,0.15352,0.638312,15,5,23.63,122.1979126,2.4,0.1,0.15352,0,0,0,60.1, -1, -0.2,0,0,1024,1024,1024,1024,0,0,0,0,0,0,81,3.92,3.941,3.945,3.936,3.942,3.946,0,,122.0979126,2.3,6,P-GPS,
10600,2022-10-12 09:35:06,45.4389333334141,9.05588138309251,2.3,,,122.0979126,2.6,0,0.149127,0.645049,15,5,23.63,122.1979126,2.4,0.1,0.15352,0,0,0,60.1, -1, -0.3,0,0,1024,1024,1024,1024,0,0,0,0,0,0,81,3.92,3.941,3.945,3.936,3.942,3.946,0,,122.0979126,2.3,6,P-GPS,
10700,2022-10-12 09:35:06,45.4389333172648,9.05588137218087,2.3,,,122.0979126,2.6,0,0.149383,0.647036,15,5,23.63,122.1979126,2.4,0.1,0.15352,0,0,0,60.1, -1.1, -0.4,0,0,1024,1024,1024,1024,0,0,0,0,0,0,81,3.92,3.941,3.945,3.936,3.942,3.946,0,,122.0979126,2.3,6,P-GPS,
10800,2022-10-12 09:35:06,45.4389333027061,9.0558813495041,2.3,,,122.0979126,2.6,0,0.148805,0.649435,15,5,23.63,122.1979126,2.4,0.1,0.15352,0,0,0,60.1, -1.3, -0.5,0,0,1024,1024,1024,1024,0,0,0,0,0,0,81,3.92,3.941,3.945,3.936,3.942,3.946,0,,122.0979126,2.3,6,P-GPS,
10900,2022-10-12 09:35:07,45.4389332865809,9.05588132064601,2.3,,,122.0979126,2.6,0,0.147969,0.652313,15,5,23.63,122.1979126,2.4,0.1,0.15352,0,0,0,60.1, -1.4, -0.4,0,0,1024,1024,1024,1024,0,0,0,0,0,0,81,3.92,3.941,3.945,3.936,3.942,3.946,0,,122.0979126,2.3,6,P-GPS,
11000,2022-10-12 09:35:07,45.43893322294,9.05588128231735,2.3,,,122.0979126,2.6,0,0.149783,0.659997,15,5,23.63,122.1979126,2.4,0.1,0.15352,0,0,0,60.2, -1.4, -0.3,0,0,1024,1024,1024,1024,0,0,0,0,0,0,81,3.92,3.941,3.945,3.936,3.942,3.946,0,,122.0979126,2.3,6,P-GPS,
11100,2022-10-12 09:35:07,45.4389331910156,9.05588126348916,2.3,,,122.0979126,2.6,0,0.150855,0.663839,15,5,23.63,122.1979126,2.4,0.1,0.15352,0,0,0,60.2, -1.4, -0.1,0,0,1024,1024,1024,1024,0,0,0,0,0,0,81,3.92,3.941,3.945,3.936,3.942,3.946,0,,122.0979126,2.3,6,P-GPS,
11200,2022-10-12 09:35:07,45.4389331901591,9.05588125082054,2.3,,,122.0979126,2.6,0,0.150154,0.664832,15,5,23.63,122.1979126,2.4,0.1,0.15352,0,0,0,60.2, -1.3, 0,0,0,1024,1024,1024,1024,0,0,0,0,0,0,81,3.92,3.941,3.945,3.936,3.942,3.946,0,,122.0979126,2.3,6,P-GPS,
11300,2022-10-12 09:35:07,45.4389331901684,9.05588124163422,2.3,,,122.0979126,2.6,0,0.149602,0.665549,15,5,23.63,122.1979126,2.4,0.1,0.15352,0,0,0,60.2, -1.2, 0,0,0,1024,1024,1024,1024,0,0,0,0,0,0,81,3.92,3.941,3.945,3.936,3.942,3.946,0,,122.0979126,2.3,6,P-GPS,
11400,2022-10-12 09:35:07,45.438933286256,9.05588128096098,2.3,,,122.0979126,2.6,0,0.145469,0.676666,15,5,23.565,122.1979126,2.4,0.1,0.15352,0,0,0,60.2, -1.2, 0,0,0,1024,1024,1024,1024,0,0,0,0,0,0,81,3.91,3.931,3.933,3.925,3.93,3.936,0,,122.0979126,2.3,6,P-GPS,
11500,2022-10-12 09:35:07,45.4389332879105,9.05588129528816,2.3,,,122.0979126,2.6,0,0.146269,0.677799,15,5,23.565,122.1979126,2.4,0.1,0.15352,0,0,0,60.2, -1.1, 0,0,0,1024,1024,1024,1024,0,0,0,0,0,0,81,3.91,3.931,3.933,3.925,3.93,3.936,0,,122.0979126,2.3,6,P-GPS,
11600,2022-10-12 09:35:07,45.4389332808561,9.05588131497138,2.3,,,122.0979126,2.6,0,0.147976,0.679524,15,5,23.565,122.1979126,2.4,0.1,0.15352,0,0,0,60.2, -1.1, -0.2,0,0,1024,1024,1024,1024,0,0,0,0,0,0,81,3.91,3.931,3.933,3.925,3.93,3.936,0,,122.0979126,2.3,6,P-GPS,
11700,2022-10-12 09:35:07,45.4389332722619,9.05588134120982,2.3,,,122.0979126,2.6,0,0.150198,0.681783,15,5,23.565,122.1979126,2.4,0.1,0.15352,0,0,0,60.2, -1.1, -0.4,0,0,1024,1024,1024,1024,0,0,0,0,0,0,81,3.91,3.931,3.933,3.925,3.93,3.936,0,,122.0979126,2.3,6,P-GPS,
11800,2022-10-12 09:35:07,45.4389332553644,9.05588140310118,2.3,,,122.0979126,2.6,0,0.155232,0.686965,15,5,23.565,122.1979126,2.4,0.1,0.155232,0,0,0,60.2, -1, -0.3,0,0,1024,1024,1024,1024,0,0,0,0,0,0,81,3.91,3.931,3.933,3.925,3.93,3.936,0,,122.0979126,2.3,6,P-GPS,
11900,2022-10-12 09:35:08,45.4389332653325,9.05588155924376,2.3,,,122.0979126,2.6,0,0.164792,0.699199,15,5,23.565,122.1979126,2.4,0.1,0.164792,0,0,0,60.3, -1, -0.3,0,0,1024,1024,1024,1024,0,0,0,0,0,0,81,3.91,3.931,3.933,3.925,3.93,3.936,0,,122.0979126,2.3,6,P-GPS,
12000,2022-10-12 09:35:08,45.4389332442816,9.05588156123845,2.3,,,122.0979126,2.6,0,0.166177,0.701546,15,5,23.565,122.1979126,2.4,0.1,0.166177,0,0,0,60.3, -1.1, -0.4,0,0,1024,1024,1024,1024,0,0,0,0,0,0,81,3.91,3.931,3.933,3.925,3.93,3.936,0,,122.0979126,2.3,6,P-GPS,
12100,2022-10-12 09:35:08,45.43893322058,9.05588156006445,2.3,,,122.0979126,2.6,0,0.16754,0.704183,15,5,23.565,122.1979126,2.4,0.1,0.16754,0,0,0,60.3, -1.2, -0.5,0,0,1024,1024,1024,1024,0,0,0,0,0,0,81,3.91,3.931,3.933,3.925,3.93,3.936,0,,122.0979126,2.3,6,P-GPS,
12200,2022-10-12 09:35:08,45.43893320512,9.05588157233589,2.3,,,122.0979126,2.6,0,0.16929,0.706151,15,5,23.565,122.1979126,2.4,0.1,0.16929,0,0,0,60.2, -1.2, -0.5,0,0,1024,1024,1024,1024,0,0,0,0,0,0,81,3.91,3.931,3.933,3.925,3.93,3.936,0,,122.0979126,2.3,6,P-GPS,
12300,2022-10-12 09:35:08,45.4389332117591,9.05588159673493,2.3,,,122.0979126,2.6,0,0.170469,0.708193,15,5,23.565,122.1979126,2.4,0.1,0.170469,0,0,0,60.2, -1.4, -0.5,0,0,1024,1024,1024,1024,0,0,0,0,0,0,81,3.91,3.931,3.933,3.925,3.93,3.936,0,,122.0979126,2.3,6,P-GPS,
12400,2022-10-12 09:35:08,45.438933153949,9.05588157084331,2.3,,,122.0979126,2.6,0,0.172425,0.714932,15,5,23.595,122.1979126,2.4,0.1,0.172425,0,0,0,60.1, -1.5, -0.6,0,0,1024,1024,1024,1024,0,0,0,0,0,0,81,3.915,3.935,3.936,3.933,3.935,3.941,0,,122.0979126,2.3,6,P-GPS,
12500,2022-10-12 09:35:08,45.4389331111527,9.05588153889323,2.3,,,122.0979126,2.6,0,0.173231,0.720304,15,5,23.595,122.1979126,2.4,0.1,0.173231,0,0,0,60.1, -1.5, -0.7,0,0,1024,1024,1024,1024,0,0,0,0,0,0,81,3.915,3.935,3.936,3.933,3.935,3.941,0,,122.0979126,2.3,6,P-GPS,
12600,2022-10-12 09:35:08,45.4389331132094,9.05588148748084,2.3,,,122.0979126,2.6,0,0.169911,0.724323,15,5,23.595,122.1979126,2.4,0.1,0.173231,0,0,0,60.1, -1.5, -0.7,0,0,1024,1024,1024,1024,0,0,0,0,0,0,81,3.915,3.935,3.936,3.933,3.935,3.941,0,,122.0979126,2.3,6,P-GPS,
12700,2022-10-12 09:35:08,45.4389331032547,9.05588140108551,2.3,,,122.0979126,2.6,0,0.165348,0.731154,15,5,23.595,122.1979126,2.4,0.1,0.173231,0,0,0,60, -1.6, -0.3,0,0,1024,1024,1024,1024,0,0,0,0,0,0,81,3.915,3.935,3.936,3.933,3.935,3.941,0,,122.0979126,2.3,6,P-GPS,
12800,2022-10-12 09:35:09,45.4389330880923,9.05588135164415,2.3,,,122.0979126,2.6,0,0.163497,0.735365,15,5,23.595,122.1979126,2.4,0.1,0.173231,0,0,0,60, -1.7, -0.2,0,0,1024,1024,1024,1024,0,0,0,0,0,0,81,3.915,3.935,3.936,3.933,3.935,3.941,0,,122.0979126,2.3,6,P-GPS,
12900,2022-10-12 09:35:09,45.4389330819775,9.05588129719929,2.3,,,122.0979126,2.6,0,0.160769,0.739667,15,5,23.595,122.1979126,2.4,0.1,0.173231,0,0,0,60, -1.8, 0,0,0,1024,1024,1024,1024,0,0,0,0,0,0,81,3.915,3.935,3.936,3.933,3.935,3.941,0,,122.0979126,2.3,6,P-GPS,
13000,2022-10-12 09:35:09,45.4389331081824,9.05588124744773,2.3,,,122.0979126,2.6,0,0.155936,0.744521,15,5,23.595,122.1979126,2.4,0.1,0.173231,0,0,0,60, -1.8, 0.1,0,0,1024,1024,1024,1024,0,0,0,0,0,0,81,3.915,3.935,3.936,3.933,3.935,3.941,0,,122.0979126,2.3,6,P-GPS,
13100,2022-10-12 09:35:09,45.4389331689421,9.05588121456593,2.3,,,122.0979126,2.6,0,0.149526,0.751749,15,5,23.595,122.1979126,2.4,0.1,0.173231,0,0,0,60.1, -1.9, 0.2,0,0,1024,1024,1024,1024,0,0,0,0,0,0,81,3.915,3.935,3.936,3.933,3.935,3.941,0,,122.0979126,2.3,6,P-GPS,
13200,2022-10-12 09:35:09,45.4389331868497,9.05588115226442,2.3,,,122.0979126,2.6,0,0.144562,0.757002,15,5,23.595,122.1979126,2.4,0.1,0.173231,0,0,0,60.1, -1.8, 0.2,0,0,1024,1024,1024,1024,0,0,0,0,0,0,81,3.915,3.935,3.936,3.933,3.935,3.941,0,,122.0979126,2.3,6,P-GPS,
13300,2022-10-12 09:35:09,45.4389332076156,9.05588111043438,2.3,,,122.0979126,2.6,0,0.14059,0.761001,15,5,23.595,122.1979126,2.4,0.1,0.173231,0,0,0,60.1, -1.6, 0.1,0,0,1024,1024,1024,1024,0,0,0,0,0,0,81,3.915,3.935,3.936,3.933,3.935,3.941,0,,122.0979126,2.3,6,P-GPS,
13400,2022-10-12 09:35:09,45.4389332524739,9.05588111543903,2.3,,,122.0979126,2.6,0,0.137606,0.766004,15,5,23.595,122.1979126,2.4,0.1,0.173231,0,0,0,60, -1.6, 0.1,0,0,1024,1024,1024,1024,0,0,0,0,0,0,81,3.915,3.935,3.936,3.933,3.935,3.941,0,,122.0979126,2.3,6,P-GPS,
13500,2022-10-12 09:35:09,45.4389332807877,9.05588112200837,2.3,,,122.0979126,2.6,0,0.13599,0.769194,15,5,23.567,122.1979126,2.4,0.1,0.173231,0,0,0,60, -1.7, 0.1,0,0,1024,1024,1024,1024,0,0,0,0,0,0,81,3.91,3.931,3.933,3.925,3.93,3.938,0,,122.0979126,2.3,6,P-GPS,
13600,2022-10-12 09:35:09,45.4389333128635,9.05588132422637,2.3,,,122.0979126,2.6,0,0.146539,0.785372,15,5,23.567,122.1979126,2.4,0.1,0.173231,0,0,0,60, -1.7, -0.1,0,0,1024,1024,1024,1024,0,0,0,0,0,0,81,3.91,3.931,3.933,3.925,3.93,3.938,0,,122.0979126,2.3,6,P-GPS,
13700,2022-10-12 09:35:09,45.4389332870946,9.05588135555493,2.3,,,122.0979126,2.6,0,0.150173,0.789138,15,5,23.567,122.1979126,2.4,0.1,0.173231,0,0,0,60, -1.7, -0.5,0,0,1024,1024,1024,1024,0,0,0,0,0,0,81,3.91,3.931,3.933,3.925,3.93,3.938,0,,122.0979126,2.3,6,P-GPS,
13800,2022-10-12 09:35:10,45.4389332510901,9.05588137198476,2.3,,,122.0979126,2.6,0,0.153519,0.793342,15,5,23.567,122.1979126,2.4,0.1,0.173231,0,0,0,60, -1.7, -0.6,0,0,1024,1024,1024,1024,0,0,0,0,0,0,81,3.91,3.931,3.933,3.925,3.93,3.938,0,,122.0979126,2.3,6,P-GPS,
13900,2022-10-12 09:35:10,45.4389332455827,9.05588137606074,2.3,,,122.0979126,2.6,0,0.154134,0.794033,15,5,23.567,122.1979126,2.4,0.1,0.173231,0,0,0,60, -1.8, -0.4,0,0,1024,1024,1024,1024,0,0,0,0,0,0,81,3.91,3.931,3.933,3.925,3.93,3.938,0,,122.0979126,2.3,6,P-GPS,
14000,2022-10-12 09:35:10,45.4389333388543,9.05588141449432,2.3,,,122.0979126,2.6,0,0.150882,0.80483,15,5,23.567,122.1979126,2.4,0.1,0.173231,0,0,0,60, -1.8, 0,0,0,1024,1024,1024,1024,0,0,0,0,0,0,81,3.91,3.931,3.933,3.925,3.93,3.938,0,,122.0979126,2.3,6,P-GPS,
14100,2022-10-12 09:35:10,45.4389333882532,9.05588140004429,2.3,,,122.0979126,2.6,0,0.147092,0.810438,15,5,23.567,122.1979126,2.4,0.1,0.173231,0,0,0,60, -1.8, 0.3,0,0,1024,1024,1024,1024,0,0,0,0,0,0,81,3.91,3.931,3.933,3.925,3.93,3.938,0,,122.0979126,2.3,6,P-GPS,
14200,2022-10-12 09:35:10,45.438933387636,9.05588138510284,2.3,,,122.0979126,2.6,0,0.14612,0.811606,15,5,23.567,122.1979126,2.4,0.1,0.173231,0,0,0,60, -1.6, 0.6,0,0,1024,1024,1024,1024,0,0,0,0,0,0,81,3.91,3.931,3.933,3.925,3.93,3.938,0,,122.0979126,2.3,6,P-GPS,
14300,2022-10-12 09:35:10,45.4389333975683,9.05588138583005,2.3,,,122.0979126,2.6,0,0.145613,0.812712,15,5,23.567,122.1979126,2.4,0.1,0.173231,0,0,0,59.9, -1.3, 0.7,0,0,1024,1024,1024,1024,0,0,0,0,0,0,81,3.91,3.931,3.933,3.925,3.93,3.938,0,,122.0979126,2.3,6,P-GPS,
14400,2022-10-12 09:35:10,45.438933474246,9.05588142720301,2.3,,,122.0979126,2.6,0,0.144428,0.821829,15,5,23.567,122.1979126,2.4,0.1,0.173231,0,0,0,59.9, -1.1, 0.6,0,0,1024,1024,1024,1024,0,0,0,0,0,0,81,3.91,3.931,3.933,3.925,3.93,3.938,0,,122.0979126,2.3,6,P-GPS,
14500,2022-10-12 09:35:10,45.438933503823,9.05588148101757,2.3,,,122.0979126,2.6,0,0.146805,0.827163,15,5,23.53,122.1979126,2.4,0.1,0.173231,0,0,0,59.8, -0.8, 0.2,0,0,1024,1024,1024,1024,0,0,0,0,0,0,81,3.905,3.925,3.926,3.92,3.925,3.929,0,,122.0979126,2.3,6,P-GPS,
14600,2022-10-12 09:35:10,45.4389334845919,9.05588158095219,2.3,,,122.0979126,2.6,0,0.154792,0.835249,15,5,23.53,122.1979126,2.4,0.1,0.173231,0,0,0,59.8, -0.8, -0.1,0,0,1024,1024,1024,1024,0,0,0,0,0,0,81,3.905,3.925,3.926,3.92,3.925,3.929,0,,122.0979126,2.3,6,P-GPS,
14700,2022-10-12 09:35:10,45.4389334690423,9.05588166994427,2.3,,,122.0979126,2.6,0,0.161843,0.842405,15,5,23.53,122.1979126,2.4,0.1,0.173231,0,0,0,59.8, -0.8, -0.6,0,0,1024,1024,1024,1024,0,0,0,0,0,0,81,3.905,3.925,3.926,3.92,3.925,3.929,0,,122.0979126,2.3,6,P-GPS,
14800,2022-10-12 09:35:11,45.4389334649688,9.05588193965177,2.3,,,122.0979126,2.6,0,0.181484,0.863455,15,5,23.53,122.1979126,2.4,0.1,0.181484,0,0,0,59.8, -0.9, -0.7,0,0,1024,1024,1024,1024,0,0,0,0,0,0,81,3.905,3.925,3.926,3.92,3.925,3.929,0,,122.0979126,2.3,6,P-GPS,
14900,2022-10-12 09:35:11,45.4389334674411,9.05588200284685,2.3,,,122.0979126,2.6,0,0.185998,0.868394,15,5,23.53,122.1979126,2.4,0.1,0.185998,0,0,0,59.8, -0.8, -0.8,0,0,1024,1024,1024,1024,0,0,0,0,0,0,81,3.905,3.925,3.926,3.92,3.925,3.929,0,,122.0979126,2.3,6,P-GPS,
15000,2022-10-12 09:35:11,45.4389334610072,9.05588202860703,2.3,,,122.0979126,2.6,0,0.188131,0.870528,15,5,23.53,122.1979126,2.4,0.1,0.188131,0,0,0,59.8, -0.6, -0.8,0,0,1024,1024,1024,1024,0,0,0,0,0,0,81,3.905,3.925,3.926,3.92,3.925,3.929,0,,122.0979126,2.3,6,P-GPS,
15100,2022-10-12 09:35:11,45.4389334482739,9.05588203627196,2.3,,,122.0979126,2.6,0,0.189189,0.872065,15,5,23.53,122.1979126,2.4,0.1,0.189189,0,0,0,59.8, -0.7, -0.6,0,0,1024,1024,1024,1024,0,0,0,0,0,0,81,3.905,3.925,3.926,3.92,3.925,3.929,0,,122.0979126,2.3,6,P-GPS,
15200,2022-10-12 09:35:11,45.4389334075938,9.05588200891637,2.4,,,122.1979126,2.6,0,0.188865,0.877067,15,5,23.53,122.1979126,2.4,0.1,0.189189,0,0,0,59.8, -0.7, -0.4,0,0,1024,1024,1024,1024,0,0,0,0,0,0,81,3.905,3.925,3.926,3.92,3.925,3.929,0,,122.1979126,2.4,6,P-GPS,
15300,2022-10-12 09:35:11,45.438933280361,9.05588194260774,2.4,,,122.1979126,2.6,0,0.190044,0.892132,15,5,23.53,122.1979126,2.4,0.1,0.190044,0,0,0,59.9, -0.6, -0.3,0,0,1024,1024,1024,1024,0,0,0,0,0,0,81,3.905,3.925,3.926,3.92,3.925,3.929,0,,122.1979126,2.4,6,P-GPS,
15400,2022-10-12 09:35:11,45.4389332799022,9.05588195509952,2.4,,,122.1979126,2.6,0,0.190937,0.893109,15,5,23.53,122.1979126,2.4,0.1,0.190937,0,0,0,59.9, -0.7, -0.2,0,0,1024,1024,1024,1024,0,0,0,0,0,0,81,3.905,3.925,3.926,3.92,3.925,3.929,0,,122.1979126,2.4,6,P-GPS,
15500,2022-10-12 09:35:11,45.4389332683199,9.05588194836173,2.4,,,122.1979126,2.6,0,0.191052,0.8945,15,5,23.513,122.1979126,2.4,0.1,0.191052,0,0,0,59.9, -0.8, -0.3,0,0,1024,1024,1024,1024,0,0,0,0,0,0,81,3.902,3.921,3.926,3.916,3.92,3.928,0,,122.1979126,2.4,6,P-GPS,
15600,2022-10-12 09:35:11,45.4389332242713,9.05588188751789,2.4,,,122.1979126,2.6,0,0.189174,0.901321,15,5,23.513,122.1979126,2.4,0.1,0.191052,0,0,0,59.9, -1, -0.2,0,0,1024,1024,1024,1024,0,0,0,0,0,0,81,3.902,3.921,3.926,3.916,3.92,3.928,0,,122.1979126,2.4,6,P-GPS,
15700,2022-10-12 09:35:11,45.4389331501771,9.05588188183792,2.4,,,122.1979126,2.6,0,0.192938,0.909573,15,5,23.513,122.1979126,2.4,0.1,0.192938,0,0,0,60, -1.2, -0.1,0,0,1024,1024,1024,1024,0,0,0,0,0,0,81,3.902,3.921,3.926,3.916,3.92,3.928,0,,122.1979126,2.4,6,P-GPS,
15800,2022-10-12 09:35:12,45.4389331381368,9.05588181537362,2.4,,,122.1979126,2.6,0,0.189243,0.914929,15,5,23.513,122.1979126,2.4,0.1,0.192938,0,0,0,60, -1.2, -0.1,0,0,1024,1024,1024,1024,0,0,0,0,0,0,80,3.902,3.921,3.926,3.916,3.92,3.928,0,,122.1979126,2.4,6,P-GPS,
15900,2022-10-12 09:35:12,45.438933130468,9.05588175511276,2.4,,,122.1979126,2.6,0,0.185762,0.919708,15,5,23.513,122.1979126,2.4,0.1,0.192938,0,0,0,60, -1.3, -0.1,0,0,1024,1024,1024,1024,0,0,0,0,0,0,80,3.902,3.921,3.926,3.916,3.92,3.928,0,,122.1979126,2.4,6,P-GPS,
16000,2022-10-12 09:35:12,45.438933133372,9.05588171679326,2.4,,,122.1979126,2.6,0,0.183096,0.922716,15,5,23.513,122.1979126,2.4,0.1,0.192938,0,0,0,60, -1.4, -0.2,0,0,1024,1024,1024,1024,0,0,0,0,0,0,80,3.902,3.921,3.926,3.916,3.92,3.928,0,,122.1979126,2.4,6,P-GPS,
16100,2022-10-12 09:35:12,45.4389331812645,9.0558817312019,2.4,,,122.1979126,2.6,0,0.181127,0.928159,15,5,23.513,122.1979126,2.4,0.1,0.192938,0,0,0,60, -1.4, -0.3,0,0,1024,1024,1024,1024,0,0,0,0,0,0,80,3.902,3.921,3.926,3.916,3.92,3.928,0,,122.1979126,2.4,6,P-GPS,
16200,2022-10-12 09:35:12,45.4389331920057,9.05588170038899,2.4,,,122.1979126,2.6,0,0.178457,0.930844,15,5,23.513,122.1979126,2.4,0.1,0.192938,0,0,0,60.1, -1.2, -0.3,0,0,1024,1024,1024,1024,0,0,0,0,0,0,80,3.902,3.921,3.926,3.916,3.92,3.928,0,,122.1979126,2.4,6,P-GPS,
16300,2022-10-12 09:35:12,45.4389332077548,9.05588168064683,2.4,,,122.1979126,2.6,0,0.176219,0.933176,15,5,23.513,122.1979126,2.4,0.1,0.192938,0,0,0,60.1, -1, -0.1,0,0,1024,1024,1024,1024,0,0,0,0,0,0,80,3.902,3.921,3.926,3.916,3.92,3.928,0,,122.1979126,2.4,6,P-GPS,
16400,2022-10-12 09:35:12,45.4389332234941,9.05588168849203,2.4,,,122.1979126,2.6,0,0.175814,0.93503,15,5,23.513,122.1979126,2.4,0.1,0.192938,0,0,0,60.1, -0.9, 0,0,0,1024,1024,1024,1024,0,0,0,0,0,0,80,3.902,3.921,3.926,3.916,3.92,3.928,0,,122.1979126,2.4,6,P-GPS,
16500,2022-10-12 09:35:12,45.438933186162,9.0558818483115,2.4,,,122.1979126,2.6,0,0.188635,0.948174,15,5,23.484,122.1979126,2.4,0.1,0.192938,0,0,0,60.1, -0.9, 0,0,0,1024,1024,1024,1024,0,0,0,0,0,0,80,3.897,3.918,3.92,3.911,3.915,3.923,0,,122.1979126,2.4,6,P-GPS,
16600,2022-10-12 09:35:12,45.4389331339517,9.05588186284108,2.4,,,122.1979126,2.6,0,0.192624,0.95409,15,5,23.484,122.1979126,2.4,0.1,0.192938,0,0,0,60.2, -0.9, -0.2,0,0,1024,1024,1024,1024,0,0,0,0,0,0,80,3.897,3.918,3.92,3.911,3.915,3.923,0,,122.1979126,2.4,6,P-GPS,
16700,2022-10-12 09:35:12,45.4389330855507,9.05588186450192,2.4,,,122.1979126,2.6,0,0.195638,0.959474,15,5,23.484,122.1979126,2.4,0.1,0.195638,0,0,0,60.2, -1, -0.3,0,0,1024,1024,1024,1024,0,0,0,0,0,0,80,3.897,3.918,3.92,3.911,3.915,3.923,0,,122.1979126,2.4,6,P-GPS,
16800,2022-10-12 09:35:13,45.4389330606587,9.05588185059788,2.4,,,122.1979126,2.6,0,0.196274,0.962447,15,5,23.484,122.1979126,2.4,0.1,0.196274,0,0,0,60.2, -1.2, -0.2,0,0,1024,1024,1024,1024,0,0,0,0,0,0,80,3.897,3.918,3.92,3.911,3.915,3.923,0,,122.1979126,2.4,6,P-GPS,
16900,2022-10-12 09:35:13,45.43893303875,9.0558818289112,2.4,,,122.1979126,2.6,0,0.196265,0.965413,15,5,23.484,122.1979126,2.4,0.1,0.196274,0,0,0,60.2, -1.3, -0.2,0,0,1024,1024,1024,1024,0,0,0,0,0,0,80,3.897,3.918,3.92,3.911,3.915,3.923,0,,122.1979126,2.4,6,P-GPS,
17000,2022-10-12 09:35:13,45.4389330431875,9.05588182696973,2.4,,,122.1979126,2.6,0,0.195857,0.96593,15,5,23.484,122.1979126,2.4,0.1,0.196274,0,0,0,60.2, -1.3, -0.2,0,0,1024,1024,1024,1024,0,0,0,0,0,0,80,3.897,3.918,3.92,3.911,3.915,3.923,0,,122.1979126,2.4,6,P-GPS,
17100,2022-10-12 09:35:13,45.4389330232948,9.05588179667572,2.4,,,122.1979126,2.6,0,0.195213,0.969167,15,5,23.484,122.1979126,2.4,0.1,0.196274,0,0,0,60.2, -1.3, -0.2,0,0,1024,1024,1024,1024,0,0,0,0,0,0,80,3.897,3.918,3.92,3.911,3.915,3.923,0,,122.1979126,2.4,6,P-GPS,
17200,2022-10-12 09:35:13,45.4389329720147,9.05588177270324,2.4,,,122.1979126,2.6,0,0.197122,0.975169,15,5,23.484,122.1979126,2.4,0.1,0.197122,0,0,0,60.2, -1.4, -0.3,0,0,1024,1024,1024,1024,0,0,0,0,0,0,80,3.897,3.918,3.92,3.911,3.915,3.923,0,,122.1979126,2.4,6,P-GPS,
17300,2022-10-12 09:35:13,45.4389329221615,9.05588175539567,2.4,,,122.1979126,2.6,0,0.199497,0.980875,15,5,23.484,122.1979126,2.4,0.1,0.199497,0,0,0,60.2, -1.4, -0.3,0,0,1024,1024,1024,1024,0,0,0,0,0,0,80,3.897,3.918,3.92,3.911,3.915,3.923,0,,122.1979126,2.4,6,P-GPS,
17400,2022-10-12 09:35:13,45.4389327751167,9.05588179112375,2.4,,,122.1979126,2.6,0,0.212244,0.997463,15,5,23.484,122.1979126,2.4,0.1,0.212244,0,0,0,60.2, -1.5, -0.3,0,0,1024,1024,1024,1024,0,0,0,0,0,0,80,3.897,3.918,3.92,3.911,3.915,3.923,0,,122.1979126,2.4,6,P-GPS,
17500,2022-10-12 09:35:13,45.4389327345815,9.05588177083427,2.4,,,122.1979126,2.6,0,0.214128,1.00224,15,5,23.484,122.1979126,2.4,0.1,0.214128,0,0,0,60.1, -1.5, -0.3,0,0,1024,1024,1024,1024,0,0,0,0,0,0,80,3.897,3.918,3.92,3.911,3.915,3.923,0,,122.1979126,2.4,6,P-GPS,
17600,2022-10-12 09:35:13,45.438932729254,9.05588173247376,2.4,,,122.1979126,2.6,0,0.212365,1.00529,15,5,23.411,122.1979126,2.4,0.1,0.214128,0,0,0,60.1, -1.5, -0.3,0,0,1024,1024,1024,1024,0,0,0,0,0,0,80,3.885,3.906,3.908,3.898,3.903,3.911,0,,122.1979126,2.4,6,P-GPS,
17700,2022-10-12 09:35:13,45.4389327201779,9.05588170874165,2.4,,,122.1979126,2.7,0,0.211738,1.0074,15,5,23.411,122.1979126,2.4,0.1,0.214128,0,0,0,60.1, -1.4, -0.3,0,0,1024,1024,1024,1024,0,0,0,0,0,0,80,3.885,3.906,3.908,3.898,3.903,3.911,0,,122.1979126,2.4,6,P-GPS,
17800,2022-10-12 09:35:13,45.4389327132212,9.05588172365048,2.4,,,122.1979126,2.7,0,0.213111,1.0088,15,5,23.411,122.1979126,2.4,0.1,0.214128,0,0,0,60.1, -1.3, -0.4,0,0,1024,1024,1024,1024,0,0,0,0,0,0,80,3.885,3.906,3.908,3.898,3.903,3.911,0,,122.1979126,2.4,6,P-GPS,
17900,2022-10-12 09:35:14,45.4389326878639,9.0558817257022,2.4,,,122.1979126,2.7,0,0.215204,1.01162,15,5,23.411,122.1979126,2.4,0.1,0.215204,0,0,0,60.1, -1.3, -0.5,0,0,1024,1024,1024,1024,0,0,0,0,0,0,80,3.885,3.906,3.908,3.898,3.903,3.911,0,,122.1979126,2.4,6,P-GPS,
18000,2022-10-12 09:35:14,45.4389326859961,9.0558817376934,2.4,,,122.1979126,2.6,0,0.216014,1.01258,15,5,23.411,122.1979126,2.4,0.1,0.216014,0,0,0,60.1, -1.3, -0.6,0,0,1024,1024,1024,1024,0,0,0,0,0,0,80,3.885,3.906,3.908,3.898,3.903,3.911,0,,122.1979126,2.4,6,P-GPS,
18100,2022-10-12 09:35:14,45.4389326774663,9.05588176536224,2.4,,,122.1979126,2.6,0,0.218218,1.01494,15,5,23.411,122.1979126,2.4,0.1,0.218218,0,0,0,60.1, -1.2, -0.6,0,0,1024,1024,1024,1024,0,0,0,0,0,0,80,3.885,3.906,3.908,3.898,3.903,3.911,0,,122.1979126,2.4,6,P-GPS,
18200,2022-10-12 09:35:14,45.4389326545199,9.05588197551282,2.4,,,122.1979126,2.7,0,0.23191,1.03153,15,5,23.411,122.1979126,2.4,0.1,0.23191,0,0,0,60.1, -1.1, -0.6,0,0,1024,1024,1024,1024,0,0,0,0,0,0,80,3.885,3.906,3.908,3.898,3.903,3.911,0,,122.1979126,2.4,6,P-GPS,
18300,2022-10-12 09:35:14,45.4389326344004,9.0558820319415,2.4,,,122.1979126,2.7,0,0.236681,1.03647,15,5,23.411,122.1979126,2.4,0.1,0.236681,0,0,0,60.1, -1, -0.7,0,0,1024,1024,1024,1024,0,0,0,0,0,0,80,3.885,3.906,3.908,3.898,3.903,3.911,0,,122.1979126,2.4,6,P-GPS,
18400,2022-10-12 09:35:14,45.4389326329796,9.05588205368102,2.4,,,122.1979126,2.7,0,0.238054,1.03818,15,5,23.411,122.1979126,2.4,0.1,0.238054,0,0,0,60.1, -0.8, -0.8,0,0,1024,1024,1024,1024,0,0,0,0,0,0,80,3.885,3.906,3.908,3.898,3.903,3.911,0,,122.1979126,2.4,6,P-GPS,
18500,2022-10-12 09:35:14,45.4389326399803,9.05588205739435,2.4,,,122.1979126,2.7,0,0.237756,1.03901,15,5,23.411,122.1979126,2.4,0.1,0.238054,0,0,0,60.1, -0.7, -0.7,0,0,1024,1024,1024,1024,0,0,0,0,0,0,80,3.885,3.906,3.908,3.898,3.903,3.911,0,,122.1979126,2.4,6,P-GPS,
18600,2022-10-12 09:35:14,45.4389326615849,9.05588202934798,2.4,,,122.1979126,2.7,0,0.234526,1.04226,15,5,23.426,122.1979126,2.4,0.1,0.238054,0,0,0,60.1, -0.7, -0.5,0,0,1024,1024,1024,1024,0,0,0,0,0,0,80,3.888,3.906,3.91,3.901,3.907,3.914,0,,122.1979126,2.4,6,P-GPS,
18700,2022-10-12 09:35:14,45.4389327454139,9.05588198241867,2.4,,,122.1979126,2.7,0,0.225673,1.05227,15,5,23.426,122.1979126,2.4,0.1,0.238054,0,0,0,60.1, -0.7, -0.4,0,0,1024,1024,1024,1024,0,0,0,0,0,0,80,3.888,3.906,3.91,3.901,3.907,3.914,0,,122.1979126,2.4,6,P-GPS,
18800,2022-10-12 09:35:14,45.4389327558742,9.05588197337143,2.4,,,122.1979126,2.7,0,0.224385,1.05363,15,5,23.426,122.1979126,2.4,0.1,0.238054,0,0,0,60.1, -0.8, -0.4,0,0,1024,1024,1024,1024,0,0,0,0,0,0,80,3.888,3.906,3.91,3.901,3.907,3.914,0,,122.1979126,2.4,6,P-GPS,
18900,2022-10-12 09:35:15,45.4389327695873,9.0558819505014,2.4,,,122.1979126,2.7,0,0.222037,1.05598,15,5,23.426,122.1979126,2.4,0.1,0.238054,0,0,0,60.1, -0.9, -0.3,0,0,1024,1024,1024,1024,0,0,0,0,0,0,80,3.888,3.906,3.91,3.901,3.907,3.914,0,,122.1979126,2.4,6,P-GPS,
19000,2022-10-12 09:35:15,45.4389327816916,9.05588189540335,2.4,,,122.1979126,2.7,0,0.217884,1.06049,15,5,23.426,122.1979126,2.4,0.1,0.238054,0,0,0,60.1, -1, -0.1,0,0,1024,1024,1024,1024,0,0,0,0,0,0,80,3.888,3.906,3.91,3.901,3.907,3.914,0,,122.1979126,2.4,6,P-GPS,
19100,2022-10-12 09:35:15,45.4389328305082,9.05588187488055,2.4,,,122.1979126,2.7,0,0.213168,1.06615,15,5,23.426,122.1979126,2.4,0.1,0.238054,0,0,0,60.1, -0.9, 0,0,0,1024,1024,1024,1024,0,0,0,0,0,0,80,3.888,3.906,3.91,3.901,3.907,3.914,0,,122.1979126,2.4,6,P-GPS,
19200,2022-10-12 09:35:15,45.4389328909479,9.05588184639675,2.4,,,122.1979126,2.7,0,0.207206,1.07323,15,5,23.426,122.1979126,2.4,0.1,0.238054,0,0,0,60.1, -0.8, 0,0,0,1024,1024,1024,1024,0,0,0,0,0,0,80,3.888,3.906,3.91,3.901,3.907,3.914,0,,122.1979126,2.4,6,P-GPS,
19300,2022-10-12 09:35:15,45.4389329326341,9.05588181393693,2.4,,,122.1979126,2.7,0,0.202347,1.07851,15,5,23.426,122.1979126,2.4,0.1,0.238054,0,0,0,60.1, -0.8, 0.1,0,0,1024,1024,1024,1024,0,0,0,0,0,0,80,3.888,3.906,3.91,3.901,3.907,3.914,0,,122.1979126,2.4,6,P-GPS,
19400,2022-10-12 09:35:15,45.4389329336979,9.05588176222274,2.4,,,122.1979126,2.7,0,0.199107,1.08255,15,5,23.426,122.1979126,2.4,0.1,0.238054,0,0,0,60, -0.9, 0,0,0,1024,1024,1024,1024,0,0,0,0,0,0,80,3.888,3.906,3.91,3.901,3.907,3.914,0,,122.1979126,2.4,6,P-GPS,
19500,2022-10-12 09:35:15,45.4389329680059,9.0558817158026,2.4,,,122.1979126,2.6,0,0.193897,1.08781,15,5,23.426,122.1979126,2.4,0.1,0.238054,0,0,0,60, -0.8, -0.1,0,0,1024,1024,1024,1024,0,0,0,0,0,0,80,3.888,3.906,3.91,3.901,3.907,3.914,0,,122.1979126,2.4,6,P-GPS,
19600,2022-10-12 09:35:15,45.4389329307736,9.05588172333132,2.4,,,122.1979126,2.7,0,0.196952,1.09199,15,5,23.39,122.1979126,2.4,0.1,0.238054,0,0,0,60, -0.9, -0.3,0,0,1024,1024,1024,1024,0,0,0,0,0,0,80,3.88,3.903,3.903,3.896,3.902,3.906,0,,122.1979126,2.4,6,P-GPS,
19700,2022-10-12 09:35:15,45.4389328934061,9.05588173186864,2.4,,,122.1979126,2.7,0,0.200118,1.0962,15,5,23.39,122.1979126,2.4,0.1,0.238054,0,0,0,60, -0.9, -0.6,0,0,1024,1024,1024,1024,0,0,0,0,0,0,80,3.88,3.903,3.903,3.896,3.902,3.906,0,,122.1979126,2.4,6,P-GPS,
19800,2022-10-12 09:35:15,45.4389328538854,9.05588174469503,2.4,,,122.1979126,2.7,0,0.203732,1.1007,15,5,23.39,122.1979126,2.4,0.1,0.238054,0,0,0,60, -0.9, -0.7,0,0,1024,1024,1024,1024,0,0,0,0,0,0,80,3.88,3.903,3.903,3.896,3.902,3.906,0,,122.1979126,2.4,6,P-GPS,
19900,2022-10-12 09:35:16,45.4389327472451,9.05588180013361,2.4,,,122.1979126,2.7,0,0.214848,1.11333,15,5,23.39,122.1979126,2.4,0.1,0.238054,0,0,0,60, -0.8, -0.7,0,0,1024,1024,1024,1024,0,0,0,0,0,0,80,3.88,3.903,3.903,3.896,3.902,3.906,0,,122.1979126,2.4,6,P-GPS,
20000,2022-10-12 09:35:16,45.438932742096,9.05588173316244,2.4,,,122.1979126,2.7,0,0.211417,1.11858,15,5,23.39,122.1979126,2.4,0.1,0.238054,0,0,0,60, -0.9, -0.7,0,0,1024,1024,1024,1024,0,0,0,0,0,0,80,3.88,3.903,3.903,3.896,3.902,3.906,0,,122.1979126,2.4,6,P-GPS,
20100,2022-10-12 09:35:16,45.4389327498498,9.0558816639915,2.4,,,122.1979126,2.7,0,0.206935,1.12405,15,5,23.39,122.1979126,2.4,0.1,0.238054,0,0,0,60, -0.9, -0.6,0,0,1024,1024,1024,1024,0,0,0,0,0,0,80,3.88,3.903,3.903,3.896,3.902,3.906,0,,122.1979126,2.4,6,P-GPS,
20200,2022-10-12 09:35:16,45.4389327822729,9.05588160402767,2.4,,,122.1979126,2.7,0,0.20107,1.12996,15,5,23.39,122.1979126,2.4,0.1,0.238054,0,0,0,60, -1, -0.4,0,0,1024,1024,1024,1024,0,0,0,0,0,0,80,3.88,3.903,3.903,3.896,3.902,3.906,0,,122.1979126,2.4,6,P-GPS,
20300,2022-10-12 09:35:16,45.4389328188087,9.0558815470925,2.4,,,122.1979126,2.7,0,0.195054,1.13598,15,5,23.39,122.1979126,2.4,0.1,0.238054,0,0,0,60.1, -1.1, -0.1,0,0,1024,1024,1024,1024,0,0,0,0,0,0,80,3.88,3.903,3.903,3.896,3.902,3.906,0,,122.1979126,2.4,6,P-GPS,
20400,2022-10-12 09:35:16,45.4389329280231,9.05588156135062,2.4,,,122.1979126,2.7,0,0.187543,1.14817,15,5,23.39,122.1979126,2.4,0.1,0.238054,0,0,0,60.1, -1.2, 0.1,0,0,1024,1024,1024,1024,0,0,0,0,0,0,80,3.88,3.903,3.903,3.896,3.902,3.906,0,,122.1979126,2.4,6,P-GPS,
20500,2022-10-12 09:35:16,45.4389329575888,9.05588152673091,2.4,,,122.1979126,2.7,0,0.183339,1.15243,15,5,23.39,122.1979126,2.4,0.1,0.238054,0,0,0,60.1, -1.2, 0.1,0,0,1024,1024,1024,1024,0,0,0,0,0,0,80,3.88,3.903,3.903,3.896,3.902,3.906,0,,122.1979126,2.4,6,P-GPS,
20600,2022-10-12 09:35:16,45.4389329714965,9.0558814860928,2.4,,,122.1979126,2.7,0,0.179943,1.15596,15,5,23.353,122.1979126,2.4,0.1,0.238054,0,0,0,60.1, -1.2, 0,0,0,1024,1024,1024,1024,0,0,0,0,0,0,80,3.873,3.896,3.898,3.89,3.895,3.901,0,,122.1979126,2.4,6,P-GPS,
20700,2022-10-12 09:35:16,45.4389329869081,9.05588146735198,2.4,,,122.1979126,2.7,0,0.17771,1.15821,15,5,23.353,122.1979126,2.4,0.1,0.238054,0,0,0,60.1, -1.2, -0.1,0,0,1024,1024,1024,1024,0,0,0,0,0,0,80,3.873,3.896,3.898,3.89,3.895,3.901,0,,122.1979126,2.4,6,P-GPS,
20800,2022-10-12 09:35:16,45.43893305492,9.05588156807715,2.4,,,122.1979126,2.7,0,0.17886,1.16912,15,5,23.353,122.1979126,2.4,0.1,0.238054,0,0,0,60.1, -1.1, -0.2,0,0,1024,1024,1024,1024,0,0,0,0,0,0,80,3.873,3.896,3.898,3.89,3.895,3.901,0,,122.1979126,2.4,6,P-GPS,
20900,2022-10-12 09:35:17,45.4389330793447,9.05588159904401,2.4,,,122.1979126,2.7,0,0.179109,1.17275,15,5,23.353,122.1979126,2.4,0.1,0.238054,0,0,0,60.1, -1, -0.3,0,0,1024,1024,1024,1024,0,0,0,0,0,0,80,3.873,3.896,3.898,3.89,3.895,3.901,0,,122.1979126,2.4,6,P-GPS,
21000,2022-10-12 09:35:17,45.4389330797542,9.05588163139433,2.4,,,122.1979126,2.7,0,0.1811,1.17528,15,5,23.353,122.1979126,2.4,0.1,0.238054,0,0,0,60.1, -1, -0.2,0,0,1024,1024,1024,1024,0,0,0,0,0,0,80,3.873,3.896,3.898,3.89,3.895,3.901,0,,122.1979126,2.4,6,P-GPS,
21100,2022-10-12 09:35:17,45.4389330787084,9.05588164469745,2.4,,,122.1979126,2.7,0,0.182003,1.17632,15,5,23.353,122.1979126,2.4,0.1,0.238054,0,0,0,60.1, -1, -0.2,0,0,1024,1024,1024,1024,0,0,0,0,0,0,80,3.873,3.896,3.898,3.89,3.895,3.901,0,,122.1979126,2.4,6,P-GPS,
21200,2022-10-12 09:35:17,45.4389330055892,9.05588172796549,2.4,,,122.1979126,2.7,0,0.192081,1.18673,15,5,23.353,122.1979126,2.4,0.1,0.238054,0,0,0,60.1, -1.1, -0.1,0,0,1024,1024,1024,1024,0,0,0,0,0,0,80,3.873,3.896,3.898,3.89,3.895,3.901,0,,122.1979126,2.4,6,P-GPS,
21300,2022-10-12 09:35:17,45.4389330068317,9.05588170550124,2.4,,,122.1979126,2.7,0,0.190605,1.18849,15,5,23.353,122.1979126,2.4,0.1,0.238054,0,0,0,60.1, -1.2, 0,0,0,1024,1024,1024,1024,0,0,0,0,0,0,80,3.873,3.896,3.898,3.89,3.895,3.901,0,,122.1979126,2.4,6,P-GPS,
21400,2022-10-12 09:35:17,45.4389330530486,9.05588162524468,2.4,,,122.1979126,2.7,0,0.182507,1.19659,15,5,23.353,122.1979126,2.4,0.1,0.238054,0,0,0,60.1, -1.2, 0,0,0,1024,1024,1024,1024,0,0,0,0,0,0,80,3.873,3.896,3.898,3.89,3.895,3.901,0,,122.1979126,2.4,6,P-GPS,
21500,2022-10-12 09:35:17,45.4389330868408,9.05588156054786,2.4,,,122.1979126,2.7,0,0.176215,1.20288,15,5,23.353,122.1979126,2.4,0.1,0.238054,0,0,0,60.1, -1.3, 0,0,0,1024,1024,1024,1024,0,0,0,0,0,0,80,3.873,3.896,3.898,3.89,3.895,3.901,0,,122.1979126,2.4,6,P-GPS,
21600,2022-10-12 09:35:17,45.4389331350224,9.05588145983528,2.4,,,122.1979126,2.7,0,0.166719,1.2124,15,5,23.339,122.1979126,2.4,0.1,0.238054,0,0,0,60.1, -1.3, -0.1,0,0,1024,1024,1024,1024,0,0,0,0,0,0,80,3.872,3.893,3.896,3.886,3.893,3.899,0,,122.1979126,2.4,6,P-GPS,
21700,2022-10-12 09:35:17,45.4389331321083,9.0558814363878,2.4,,,122.1979126,2.7,0,0.165476,1.21425,15,5,23.339,122.1979126,2.4,0.1,0.238054,0,0,0,60.1, -1.3, -0.2,0,0,1024,1024,1024,1024,0,0,0,0,0,0,80,3.872,3.893,3.896,3.886,3.893,3.899,0,,122.1979126,2.4,6,P-GPS,
21800,2022-10-12 09:35:18,45.4389331239824,9.05588143900401,2.4,,,122.1979126,2.7,0,0.166196,1.21518,15,5,23.339,122.1979126,2.4,0.1,0.238054,0,0,0,60.1, -1.4, -0.2,0,0,1024,1024,1024,1024,0,0,0,0,0,0,80,3.872,3.893,3.896,3.886,3.893,3.899,0,,122.1979126,2.4,6,P-GPS,
21900,2022-10-12 09:35:18,45.4389331352207,9.05588144739024,2.4,,,122.1979126,2.6,0,0.165939,1.21659,15,5,23.339,122.1979126,2.4,0.1,0.238054,0,0,0,60.1, -1.3, -0.1,0,0,1024,1024,1024,1024,0,0,0,0,0,0,80,3.872,3.893,3.896,3.886,3.893,3.899,0,,122.1979126,2.4,6,P-GPS,
22000,2022-10-12 09:35:18,45.4389331972859,9.05588145872538,2.4,,,122.1979126,2.6,0,0.162506,1.22355,15,5,23.339,122.1979126,2.4,0.1,0.238054,0,0,0,60.1, -1.2, 0,0,0,1024,1024,1024,1024,0,0,0,0,0,0,80,3.872,3.893,3.896,3.886,3.893,3.899,0,,122.1979126,2.4,6,P-GPS,
