time(millisecond),datetime(utc),latitude,longitude,height_above_takeoff(meters),height_above_ground_at_drone_location(meters),ground_elevation_at_drone_location(meters),altitude_above_seaLevel(meters),height_sonar(meters),speed(m/s),distance(meters),mileage(meters),satellites,gpslevel,voltage(v),max_altitude(meters),max_ascent(meters),max_speed(m/s),max_distance(meters), xSpeed(m/s), ySpeed(m/s), zSpeed(m/s), compass_heading(degrees), pitch(degrees), roll(degrees),isPhoto,isVideo,rc_elevator,rc_aileron,rc_throttle,rc_rudder,rc_elevator(percent),rc_aileron(percent),rc_throttle(percent),rc_rudder(percent),gimbal_heading(degrees),gimbal_pitch(degrees),battery_percent,voltageCell1,voltageCell2,voltageCell3,voltageCell4,voltageCell5,voltageCell6,current(A),battery_temperature(c),altitude(meters),ascent(meters),flycStateRaw,flycState,message
0,2022-10-12 10:13:57,45.4389383752575,9.05594905356309,0,Available with any HD 360 subscription,Available with any HD 360 subscription,119.7447586,0.1,0,0,0,17,5,0,119.7447586,0,0,0,0,0,0,54, 0.8, 2.5,0,0,1024,1024,1024,1024,0,0,0,0,0,0,95,4.225,4.237,4.235,4.238,4.236,4.229,0,,119.7447586,0,41,Motors_Started,"GEO: You are in a Warning Zone (Class D Airspace). Fly with caution."
100,2022-10-12 10:13:57,45.4389383893232,9.05594900146777,0,,,119.7447586,0.1,0,0.00435555,0.00435555,17,5,0,119.7447586,0,0,0.00435555,0,0,0,54, 0.8, 2.5,0,0,1024,1024,1024,1024,0,0,0,0,0,0,95,4.225,4.237,4.235,4.238,4.236,4.229,0,,119.7447586,0,41,Motors_Started,
200,2022-10-12 10:13:57,45.4389383903084,9.05594898568274,0,,,119.7447586,0.1,0,0.00555486,0.00559212,17,5,0,119.7447586,0,0,0.00555486,0,0,0,54, 0.7, 2.5,0,0,867,408,486,1684,-24,-93,-82,100,0,0,95,4.225,4.237,4.235,4.238,4.236,4.229,0,,119.7447586,0,41,Motors_Started,
300,2022-10-12 10:13:57,45.4389383322959,9.05594901928869,0,,,119.7447586,0.1,0,0.00547521,0.012556,17,5,0,119.7447586,0,0,0.00555486,0,0,0,54, 0.7, 2.5,0,0,1024,912,1024,1029,0,-17,0,1,0,0,95,4.225,4.237,4.235,4.238,4.236,4.229,0,,119.7447586,0,41,Motors_Started,
400,2022-10-12 10:13:57,45.4389383203016,9.05594900585852,0,,,119.7447586,0.1,0,0.00715582,0.0142523,17,5,0,119.7447586,0,0,0.00715582,0,0,0,54, 0.7, 2.5,0,0,1024,1024,1024,1024,0,0,0,0,0,0,95,4.225,4.237,4.235,4.238,4.236,4.229,0,,119.7447586,0,41,Motors_Started,
500,2022-10-12 10:13:58,45.4389383064085,9.05594898406349,0,,,119.7447586,0.1,0,0.00938245,0.01655,17,5,0,119.7447586,0,0,0.00938245,0,0,0,54, 0.7, 2.5,0,0,1024,1024,1024,1024,0,0,0,0,0,0,95,4.225,4.237,4.235,4.238,4.236,4.229,0,,119.7447586,0,41,Motors_Started,
600,2022-10-12 10:13:58,45.4389383310192,9.05594899339593,0,,,119.7447586,0.1,0,0.00680027,0.0193821,17,5,0,119.7447586,0,0,0.00938245,0,0,0,54, 0.7, 2.5,0,0,1024,1024,1024,1024,0,0,0,0,0,0,95,4.225,4.237,4.235,4.238,4.236,4.229,0,,119.7447586,0,41,Motors_Started,
700,2022-10-12 10:13:58,45.4389383812013,9.05594905032764,0,,,119.7447586,0.1,0,0.000707562,0.0265149,17,5,0,119.7447586,0,0,0.00938245,0,0,0,54, 0.7, 2.5,0,0,1024,1024,1024,1024,0,0,0,0,0,0,95,4.225,4.237,4.235,4.238,4.236,4.229,0,,119.7447586,0,41,Motors_Started,
800,2022-10-12 10:13:58,45.4389383985442,9.0559490800831,0,,,119.7447586,0.1,0,0.00331488,0.0295332,17,5,0,119.7447586,0,0,0.00938245,0,0,0,54, 0.7, 2.4,0,0,1024,1024,1024,1024,0,0,0,0,0,0,95,4.225,4.237,4.235,4.238,4.236,4.229,0,,119.7447586,0,41,Motors_Started,
900,2022-10-12 10:13:58,45.438938415831,9.05594911508243,0,,,119.7447586,0.1,0,0.00658799,0.032873,17,5,0,119.7447586,0,0,0.00938245,0,0,0,54, 0.7, 2.4,0,0,1024,1024,1024,1024,0,0,0,0,0,0,95,4.225,4.237,4.235,4.238,4.236,4.229,0,,119.7447586,0,41,Motors_Started,
1000,2022-10-12 10:13:58,45.4389384228007,9.0559491034577,0,,,119.7447586,0.1,0,0.00656589,0.0340661,17,5,0,119.7447586,0,0,0.00938245,0,0,0,54, 0.7, 2.5,0,0,1024,1024,1024,1024,0,0,0,0,0,0,95,4.225,4.237,4.235,4.238,4.236,4.229,0,,119.7447586,0,41,Motors_Started,
1100,2022-10-12 10:13:58,45.4389384028832,9.05594903353077,0,,,119.7447586,0.1,0,0.00344695,0.0399549,17,5,0,119.7447586,0,0,0.00938245,0,0,0,54, 0.7, 2.5,0,0,1024,1024,1024,1024,0,0,0,0,0,0,95,4.225,4.237,4.235,4.238,4.236,4.229,0,,119.7447586,0,41,Motors_Started,
1200,2022-10-12 10:13:58,45.4389384035623,9.05594905774628,0,,,119.7447586,0.1,0,0.00316455,0.041846,17,5,0,119.7447586,0,0,0.00938245,0,0,0,54, 0.7, 2.5,0,0,1024,1024,1024,1024,0,0,0,0,0,0,95,4.225,4.237,4.235,4.238,4.236,4.229,0,,119.7447586,0,41,Motors_Started,
1300,2022-10-12 10:13:58,45.4389384010309,9.0559490984458,0,,,119.7447586,0.1,0,0.00452551,0.0450342,17,5,0,119.7447586,0,0,0.00938245,0,0,0,54, 0.7, 2.5,0,0,1024,1024,1024,1024,0,0,0,0,0,0,95,4.225,4.237,4.235,4.238,4.236,4.229,0,,119.7447586,0,41,Motors_Started,
1400,2022-10-12 10:13:58,45.4389383895658,9.05594907788238,0,,,119.7447586,0.1,0,0.00247646,0.0470836,17,5,0,119.7447586,0,0,0.00938245,0,0,0,53.9, 0.7, 2.5,0,0,1024,1024,1024,1024,0,0,0,0,0,0,95,4.225,4.237,4.235,4.238,4.236,4.229,0,,119.7447586,0,41,Motors_Started,
1500,2022-10-12 10:13:59,45.4389383751875,9.05594903199546,0,,,119.7447586,0.1,0,0.00168294,0.051005,17,5,0,119.7447586,0,0,0.00938245,0,0,0,53.9, 0.7, 2.5,0,0,1024,1024,1024,1024,0,0,0,0,0,0,95,4.225,4.237,4.235,4.238,4.236,4.229,0,,119.7447586,0,10,Assisted_Takeoff,
1600,2022-10-12 10:13:59,45.4389383090718,9.05594894344791,0,,,119.7447586,0.1,0,0.0113137,0.0610945,17,5,0,119.7447586,0,0,0.0113137,0,0,0,53.9, 0.7, 2.4,0,0,1024,1024,1024,1024,0,0,0,0,0,0,95,4.225,4.237,4.235,4.238,4.236,4.229,0,,119.7447586,0,10,Assisted_Takeoff,
1700,2022-10-12 10:13:59,45.4389382885868,9.05594891310946,0,,,119.7447586,0.1,0,0.0145948,0.0643799,17,5,0,119.7447586,0,0,0.0145948,0,0,0,53.8, 0.7, 2.4,0,0,1024,1024,1024,1024,0,0,0,0,0,0,95,4.225,4.237,4.235,4.238,4.236,4.229,0,,119.7447586,0,10,Assisted_Takeoff,
1800,2022-10-12 10:13:59,45.4389382690919,9.05594889718708,0,,,119.7447586,0.1,0,0.0169787,0.0668786,17,5,25.4,119.7447586,0,0,0.0169787,0,0,0,53.8, 0.7, 2.5,0,0,1024,1024,1024,1024,0,0,0,0,0,0,95,4.225,4.237,4.235,4.238,4.236,4.229,0,,119.7447586,0,10,Assisted_Takeoff,
1900,2022-10-12 10:13:59,45.4389382417764,9.05594888591947,0,,,119.7447586,0.1,0,0.0197853,0.0700409,17,5,25.4,119.7447586,0,0,0.0197853,0,0,0,53.8, 0.7, 2.5,0,0,1024,1024,1024,1024,0,0,0,0,0,0,95,4.225,4.237,4.235,4.238,4.236,4.229,0,,119.7447586,0,10,Assisted_Takeoff,
2000,2022-10-12 10:13:59,45.4389382166299,9.05594893624598,0,,,119.7447586,0.1,0,0.0198742,0.0748618,17,5,25.4,119.7447586,0,0,0.0198742,0,0,0,53.8, 0.7, 2.5,0,0,1024,1024,1024,1024,0,0,0,0,0,0,95,4.225,4.237,4.235,4.238,4.236,4.229,0,,119.7447586,0,10,Assisted_Takeoff,
2100,2022-10-12 10:13:59,45.4389381931917,9.0559489469077,0,,,119.7447586,0.1,0,0.0218905,0.0775978,17,5,25.4,119.7447586,0,0,0.0218905,0,0,0,53.8, 0.7, 2.5,0,0,1024,1024,1024,1024,0,0,0,0,0,0,95,4.225,4.237,4.235,4.238,4.236,4.229,0,,119.7447586,0,10,Assisted_Takeoff,
2200,2022-10-12 10:13:59,45.4389381774154,9.05594892260672,0,,,119.7447586,0.1,0,0.0242585,0.0801812,17,5,25.4,119.7447586,0,0,0.0242585,0,0,0,53.8, 0.7, 2.4,0,0,1024,1024,1024,1024,0,0,0,0,0,0,95,4.225,4.237,4.235,4.238,4.236,4.229,0,,119.7447586,0,10,Assisted_Takeoff,
2300,2022-10-12 10:13:59,45.4389381599984,9.0559488888039,0,,,119.7447586,0.1,0,0.0271719,0.0834536,17,5,25.4,119.7447586,0,0,0.0271719,0,0,0,53.8, 0.7, 2.4,0,0,1024,1024,1024,1024,0,0,0,0,0,0,95,4.225,4.237,4.235,4.238,4.236,4.229,0,,119.7447586,0,10,Assisted_Takeoff,
2400,2022-10-12 10:13:59,45.4389382196776,9.05594883971663,0,,,119.7447586,0.1,0,0.024037,0.0911163,17,5,25.4,119.7447586,0,0,0.0271719,0,0,0,53.8, 0.7, 2.4,0,0,1024,1024,1024,1024,0,0,0,0,0,0,95,4.225,4.237,4.235,4.238,4.236,4.229,0,,119.7447586,0,10,Assisted_Takeoff,
2500,2022-10-12 10:14:00,45.4389382143957,9.05594884343282,0,,,119.7447586,0.1,0,0.0242663,0.0917713,17,5,25.4,119.7447586,0,0,0.0271719,0,0,0,53.8, 0.7, 2.4,0,0,1024,1024,1024,1024,0,0,0,0,0,0,95,4.225,4.237,4.235,4.238,4.236,4.229,0,,119.7447586,0,10,Assisted_Takeoff,
2600,2022-10-12 10:14:00,45.4389382169206,9.05594881956832,0,,,119.7447586,0.1,0,0.0253657,0.0936545,17,5,25.4,119.7447586,0,0,0.0271719,0,0,0,53.8, 0.7, 2.4,0,0,1024,1024,1024,1024,0,0,0,0,0,0,95,4.225,4.237,4.235,4.238,4.236,4.229,0,,119.7447586,0,10,Assisted_Takeoff,
2700,2022-10-12 10:14:00,45.4389382197517,9.05594879101853,0,,,119.7447586,0.1,0,0.0268094,0.0959044,17,5,25.4,119.7447586,0,0,0.0271719,0,0,0,53.8, 0.7, 2.4,0,0,1024,1024,1024,1024,0,0,0,0,0,0,95,4.225,4.237,4.235,4.238,4.236,4.229,0,,119.7447586,0,10,Assisted_Takeoff,
2800,2022-10-12 10:14:00,45.4389382795009,9.05594874615261,0,,,119.7447586,0.1,0,0.0262446,0.103415,17,5,25.4,119.7447586,0,0,0.0271719,0,0,0,53.8, 0.7, 2.4,0,0,1024,1024,1024,1024,0,0,0,0,0,0,95,4.225,4.237,4.235,4.238,4.236,4.229,0,,119.7447586,0,10,Assisted_Takeoff,
2900,2022-10-12 10:14:00,45.4389382934673,9.05594874733843,0,,,119.7447586,0.1,0,0.0255673,0.104971,17,5,25.4,119.7447586,0,0,0.0271719,0,0,0,53.8, 0.7, 2.4,0,0,1024,1024,1024,1024,0,0,0,0,0,0,95,4.225,4.237,4.235,4.238,4.236,4.229,0,,119.7447586,0,10,Assisted_Takeoff,
3000,2022-10-12 10:14:00,45.4389383044682,9.05594876272055,0,,,119.7447586,0.1,0,0.024021,0.106684,17,5,25.4,119.7447586,0,0,0.0271719,0,0,0,53.9, 0.7, 2.4,0,0,1024,1024,1024,1024,0,0,0,0,0,0,95,4.225,4.237,4.235,4.238,4.236,4.229,0,,119.7447586,0,10,Assisted_Takeoff,
3100,2022-10-12 10:14:00,45.4389383082397,9.05594878624319,0,,,119.7447586,0.1,0,0.0221504,0.108567,17,5,25.4,119.7447586,0,0,0.0271719,0,0,0,53.9, 0.7, 2.4,0,0,1024,1024,1024,1024,0,0,0,0,0,0,95,4.225,4.237,4.235,4.238,4.236,4.229,0,,119.7447586,0,10,Assisted_Takeoff,
3200,2022-10-12 10:14:00,45.4389383079124,9.05594880865478,0,,,119.7447586,0.1,0,0.0205253,0.110316,17,5,25.4,119.7447586,0,0,0.0271719,0,0,0,53.9, 0.7, 2.4,0,0,1024,1024,1024,1024,0,0,0,0,0,0,95,4.225,4.237,4.235,4.238,4.236,4.229,0,,119.7447586,0,10,Assisted_Takeoff,
3300,2022-10-12 10:14:00,45.4389383271801,9.05594885477979,0,,,119.7447586,0.1,0,0.0164066,0.114505,17,5,25.4,119.7447586,0,0,0.0271719,0,0,0,53.9, 0.7, 2.4,0,0,1024,1024,1024,1024,0,0,0,0,0,0,95,4.225,4.237,4.235,4.238,4.236,4.229,0,,119.7447586,0,10,Assisted_Takeoff,
3400,2022-10-12 10:14:00,45.4389383143952,9.05594883368832,0,,,119.7447586,0.1,0,0.0184436,0.11668,17,5,25.4,119.7447586,0,0,0.0271719,0,0,0,53.9, 0.7, 2.4,0,0,1024,1024,1024,1024,0,0,0,0,0,0,95,4.225,4.237,4.235,4.238,4.236,4.229,0,,119.7447586,0,10,Assisted_Takeoff,
3500,2022-10-12 10:14:01,45.4389382968642,9.05594879595412,0,,,119.7447586,0.1,0,0.0219102,0.120211,17,5,25.4,119.7447586,0,0,0.0271719,0,0,0,53.9, 0.7, 2.4,0,0,1024,1024,1024,1024,0,0,0,0,0,0,95,4.225,4.237,4.235,4.238,4.236,4.229,0,,119.7447586,0,10,Assisted_Takeoff,
3600,2022-10-12 10:14:01,45.438938275718,9.0559487851642,0,,,119.7447586,0.1,0,0.0236885,0.122709,17,5,25.4,119.7447586,0,0,0.0271719,0,0,0,53.9, 0.7, 2.4,0,0,1024,1024,1024,1024,0,0,0,0,0,0,95,4.225,4.237,4.235,4.238,4.236,4.229,0,,119.7447586,0,10,Assisted_Takeoff,
3700,2022-10-12 10:14:01,45.4389382456366,9.05594869199697,0,,,119.7447586,0.1,0,0.0316821,0.130712,17,5,25.4,119.7447586,0,0,0.0316821,0,0,0,53.9, 0.7, 2.4,0,0,1024,1024,1024,1024,0,0,0,0,0,0,95,4.225,4.237,4.235,4.238,4.236,4.229,0,,119.7447586,0,10,Assisted_Takeoff,
3800,2022-10-12 10:14:01,45.4389382621824,9.05594865732882,0,,,119.7447586,0.1,0,0.0333774,0.133983,17,5,25.4,119.7447586,0,0,0.0333774,0,0,0,53.8, 0.7, 2.4,0,0,1024,1024,1024,1024,0,0,0,0,0,0,95,4.225,4.237,4.235,4.238,4.236,4.229,0,,119.7447586,0,10,Assisted_Takeoff,
3900,2022-10-12 10:14:01,45.4389382922304,9.05594861331601,0,,,119.7447586,0.1,0,0.0355716,0.138775,17,5,25.565,119.7447586,0,0,0.0355716,0,0,0,53.8, 0.7, 2.4,0,0,1024,1024,1024,1024,0,0,0,0,0,0,95,4.255,4.264,4.26,4.265,4.264,4.257,0,,119.7447586,0,10,Assisted_Takeoff,
4000,2022-10-12 10:14:01,45.4389383074369,9.05594856257897,0,,,119.7447586,0.1,0,0.0390467,0.14308,17,5,25.565,119.7447586,0,0,0.0390467,0,0,0,53.8, 0.7, 2.4,0,0,1024,1024,1024,1024,0,0,0,0,0,0,95,4.255,4.264,4.26,4.265,4.264,4.257,0,,119.7447586,0,10,Assisted_Takeoff,
4100,2022-10-12 10:14:01,45.4389384214597,9.05594836690597,0,,,119.7447586,0.1,0,0.0538256,0.162927,17,5,25.565,119.7447586,0,0,0.0538256,0,0,0,53.8, 0.7, 2.4,0,0,1024,1024,1024,1024,0,0,0,0,0,0,95,4.255,4.264,4.26,4.265,4.264,4.257,0,,119.7447586,0,10,Assisted_Takeoff,
4200,2022-10-12 10:14:01,45.438938422532,9.05594835886923,0,,,119.7447586,0.1,0,0.0544612,0.163565,17,5,25.565,119.7447586,0,0,0.0544612,0,0,0,53.8, 0.7, 2.4,0,0,1024,1024,1024,1024,0,0,0,0,0,0,95,4.255,4.264,4.26,4.265,4.264,4.257,0,,119.7447586,0,10,Assisted_Takeoff,
4300,2022-10-12 10:14:01,45.4389384207261,9.0559483667213,0,,,119.7447586,0.1,0,0.0538322,0.16421,17,5,25.565,119.7447586,0,0,0.0544612,0,0,0,53.8, 0.7, 2.4,0,0,1024,1024,1024,1024,0,0,0,0,0,0,95,4.255,4.264,4.26,4.265,4.264,4.257,0,,119.7447586,0,10,Assisted_Takeoff,
4400,2022-10-12 10:14:01,45.4389384163415,9.05594839191508,0,,,119.7447586,0.1,0,0.0518301,0.166235,17,5,25.565,119.7447586,0,0,0.0544612,0,0,0,53.7, 0.7, 2.3,0,0,1024,1024,1024,1024,0,0,0,0,0,0,95,4.255,4.264,4.26,4.265,4.264,4.257,0,,119.7447586,0,10,Assisted_Takeoff,
4500,2022-10-12 10:14:02,45.4389384094906,9.0559484957593,0,,,119.7447586,0.1,0,0.0436915,0.174374,17,5,25.565,119.7447586,0,0,0.0544612,0,0,0,53.7, 0.7, 2.3,0,0,1024,1024,1024,1024,0,0,0,0,0,0,95,4.255,4.264,4.26,4.265,4.264,4.257,0,,119.7447586,0,10,Assisted_Takeoff,
4600,2022-10-12 10:14:02,45.4389383907912,9.05594848883665,0,,,119.7447586,0.1,0,0.0440994,0.176523,17,5,25.565,119.7447586,0,0,0.0544612,0,0,0,53.7, 0.7, 2.3,0,0,1024,1024,1024,1024,0,0,0,0,0,0,95,4.255,4.264,4.26,4.265,4.264,4.257,0,,119.7447586,0,10,Assisted_Takeoff,
4700,2022-10-12 10:14:02,45.4389383631793,9.05594846776349,0,,,119.7447586,0.1,0,0.0457296,0.180006,17,5,25.565,119.7447586,0,0,0.0544612,0,0,0,53.6, 0.7, 2.3,0,0,1024,1024,1024,1024,0,0,0,0,0,0,95,4.255,4.264,4.26,4.265,4.264,4.257,0,,119.7447586,0,10,Assisted_Takeoff,
4800,2022-10-12 10:14:02,45.4389383332843,9.05594846662956,0,,,119.7447586,0.1,0,0.0460356,0.183332,17,5,25.565,119.7447586,0,0,0.0544612,0,0,0,53.6, 0.7, 2.3,0,0,1024,1024,1024,1024,0,0,0,0,0,0,95,4.255,4.264,4.26,4.265,4.264,4.257,0,,119.7447586,0,10,Assisted_Takeoff,
4900,2022-10-12 10:14:02,45.4389383016795,9.05594847857325,0,,,119.7447586,0.1,0,0.0456064,0.186968,17,5,25.56,119.7447586,0,0,0.0544612,0,0,0,53.6, 0.7, 2.3,0,0,1024,1024,1024,1024,0,0,0,0,0,0,95,4.255,4.262,4.259,4.263,4.264,4.257,0,,119.7447586,0,10,Assisted_Takeoff,
5000,2022-10-12 10:14:02,45.4389382810137,9.05594840798245,0,,,119.7447586,0.1,0,0.0514533,0.192936,17,5,25.56,119.7447586,0,0,0.0544612,0,0,0,53.6, 0.7, 2.3,0,0,1024,1024,1024,1024,0,0,0,0,0,0,95,4.255,4.262,4.259,4.263,4.264,4.257,0,,119.7447586,0,10,Assisted_Takeoff,
5100,2022-10-12 10:14:02,45.4389382619048,9.05594830954541,0,,,119.7447586,0.1,0,0.0594084,0.200906,17,5,25.56,119.7447586,0,0,0.0594084,0,0,0,53.6, 0.7, 2.3,0,0,1024,1024,1024,1024,0,0,0,0,0,0,95,4.255,4.262,4.259,4.263,4.264,4.257,0,,119.7447586,0,10,Assisted_Takeoff,
5200,2022-10-12 10:14:02,45.4389382557305,9.05594828391973,0,,,119.7447586,0.1,0,0.0615086,0.20302,17,5,25.56,119.7447586,0,0,0.0615086,0,0,0,53.6, 0.7, 2.3,0,0,1024,1024,1024,1024,0,0,0,0,0,0,95,4.255,4.262,4.259,4.263,4.264,4.257,0,,119.7447586,0,10,Assisted_Takeoff,
5300,2022-10-12 10:14:02,45.4389382588693,9.05594828598462,0,,,119.7447586,0.1,0,0.0612766,0.203404,17,5,25.56,119.7447586,0,0,0.0615086,0,0,0,53.5, 0.7, 2.3,0,0,1024,1024,1024,1024,0,0,0,0,0,0,95,4.255,4.262,4.259,4.263,4.264,4.257,0,,119.7447586,0,10,Assisted_Takeoff,
5400,2022-10-12 10:14:02,45.4389383503024,9.05594830869229,0,,,119.7447586,0.1,0,0.0581884,0.213725,17,5,25.56,119.7447586,0,0,0.0615086,0,0,0,53.5, 0.7, 2.3,0,0,1024,1024,1024,1024,0,0,0,0,0,0,95,4.255,4.262,4.259,4.263,4.264,4.257,0,,119.7447586,0,10,Assisted_Takeoff,
5500,2022-10-12 10:14:03,45.4389383588069,9.05594832695579,0,,,119.7447586,0.1,0,0.0567266,0.215436,17,5,25.56,119.7447586,0,0,0.0615086,0,0,0,53.5, 0.7, 2.3,0,0,1024,1024,1024,1024,0,0,0,0,0,0,95,4.255,4.262,4.259,4.263,4.264,4.257,0,,119.7447586,0,10,Assisted_Takeoff,
5600,2022-10-12 10:14:03,45.4389383712564,9.05594830977433,0,,,119.7447586,0.1,0,0.0580394,0.217363,17,5,25.56,119.7447586,0,0,0.0615086,0,0,0,53.5, 0.7, 2.3,0,0,1024,1024,1024,1024,0,0,0,0,0,0,95,4.255,4.262,4.259,4.263,4.264,4.257,0,,119.7447586,0,10,Assisted_Takeoff,
5700,2022-10-12 10:14:03,45.4389383907212,9.05594828545809,0,,,119.7447586,0.1,0,0.0599598,0.220241,17,5,25.56,119.7447586,0,0,0.0615086,0,0,0,53.5, 0.7, 2.3,0,0,1024,1024,1024,1024,0,0,0,0,0,0,95,4.255,4.262,4.259,4.263,4.264,4.257,0,,119.7447586,0,10,Assisted_Takeoff,
5800,2022-10-12 10:14:03,45.4389385571034,9.05594821552506,0,,,119.7447586,0.1,0,0.0684475,0.239532,17,5,25.56,119.7447586,0,0,0.0684475,0,0,0,53.4, 0.7, 2.3,0,0,1024,1024,1024,1024,0,0,0,0,0,0,95,4.255,4.262,4.259,4.263,4.264,4.257,0,,119.7447586,0,10,Assisted_Takeoff,
5900,2022-10-12 10:14:03,45.4389386274546,9.05594823708506,0,,,119.7447586,0.1,0,0.0696096,0.247534,17,5,25.56,119.7447586,0,0,0.0696096,0,0,0,53.5, 0.7, 2.3,0,0,1024,1024,1024,1024,0,0,0,0,0,0,95,4.255,4.262,4.259,4.263,4.264,4.257,0,,119.7447586,0,10,Assisted_Takeoff,
6000,2022-10-12 10:14:03,45.4389386628187,9.0559482383594,0,,,119.7447586,0.1,0,0.0711961,0.251468,17,5,25.566,119.7447586,0,0,0.0711961,0,0,0,53.5, 0.7, 2.3,0,0,1024,1024,1024,1024,0,0,0,0,0,0,95,4.255,4.262,4.26,4.266,4.264,4.259,0,,119.7447586,0,10,Assisted_Takeoff,
6100,2022-10-12 10:14:03,45.4389386844542,9.05594823365121,0,,,119.7447586,0.1,0,0.0726322,0.253902,17,5,25.566,119.7447586,0,0,0.0726322,0,0,0,53.4, 0.7, 2.3,0,0,1024,1024,1024,1024,0,0,0,0,0,0,95,4.255,4.262,4.26,4.266,4.264,4.259,0,,119.7447586,0,10,Assisted_Takeoff,
6200,2022-10-12 10:14:03,45.4389385261393,9.05594816708336,0,,,119.7447586,0.1,0,0.0711778,0.272258,17,5,25.566,119.7447586,0,0,0.0726322,0,0,0,53.4, 0.8, 2.3,0,0,1024,1024,1024,1024,0,0,0,0,0,0,95,4.255,4.262,4.26,4.266,4.264,4.259,0,,119.7447586,0,10,Assisted_Takeoff,
6300,2022-10-12 10:14:03,45.4389384697056,9.05594819749659,0,,,119.7447586,0.1,0,0.0676195,0.278967,17,5,25.566,119.7447586,0,0,0.0726322,0,0,0,53.4, 0.8, 2.3,0,0,1024,1024,1024,1024,0,0,0,0,0,0,95,4.255,4.262,4.26,4.266,4.264,4.259,0,,119.7447586,0,10,Assisted_Takeoff,
6400,2022-10-12 10:14:03,45.438938468446,9.05594823578936,0,,,119.7447586,0.1,0,0.0646468,0.281959,17,5,25.566,119.7447586,0,0,0.0726322,0,0,0,53.4, 0.8, 2.2,0,0,1024,1024,1024,1024,0,0,0,0,0,0,95,4.255,4.262,4.26,4.266,4.264,4.259,0,,119.7447586,0,10,Assisted_Takeoff,
6500,2022-10-12 10:14:04,45.438938482677,9.05594827826837,0,,,119.7447586,0.1,0,0.0616643,0.285632,17,5,25.566,119.7447586,0,0,0.0726322,0,0,0,53.4, 0.7, 2.2,0,0,1024,1024,1024,1024,0,0,0,0,0,0,95,4.255,4.262,4.26,4.266,4.264,4.259,0,,119.7447586,0,10,Assisted_Takeoff,
6600,2022-10-12 10:14:04,45.438938491232,9.05594827214697,0,,,119.7447586,0.1,0,0.0623229,0.286696,17,5,25.566,119.7447586,0,0,0.0726322,0,0,0,53.4, 0.8, 2.2,0,0,1024,1024,1051,1024,0,0,4,0,0,0,95,4.255,4.262,4.26,4.266,4.264,4.259,0,,119.7447586,0,10,Assisted_Takeoff,
6700,2022-10-12 10:14:04,45.4389385389764,9.05594814286174,0,,,119.7447586,0.1,0,0.0733572,0.298096,17,5,25.566,119.7447586,0,0,0.0733572,0,0,0,53.4, 0.8, 2.2,0,0,1024,1024,1118,1024,0,0,14,0,0,0,95,4.255,4.262,4.26,4.266,4.264,4.259,0,,119.7447586,0,10,Assisted_Takeoff,
6800,2022-10-12 10:14:04,45.4389385478945,9.05594814472975,0,,,119.7447586,0.1,0,0.0734689,0.299099,17,5,25.566,119.7447586,0,0,0.0734689,0,0,0,53.4, 0.8, 2.2,0,0,1024,1024,1152,1024,0,0,19,0,0,0,95,4.255,4.262,4.26,4.266,4.264,4.259,0,,119.7447586,0,10,Assisted_Takeoff,
6900,2022-10-12 10:14:04,45.4389385542569,9.05594816081238,0,,,119.7447586,0.1,0,0.0724495,0.300539,18,5,25.566,119.7447586,0,0,0.0734689,0,0,0,53.4, 0.8, 2.2,0,0,1024,1024,1191,1024,0,0,25,0,0,0,95,4.255,4.262,4.26,4.266,4.264,4.259,0,,119.7447586,0,10,Assisted_Takeoff,
7000,2022-10-12 10:14:04,45.4389385576408,9.05594817583128,0,,,119.7447586,0.1,0,0.0714293,0.30177,18,5,25.562,119.7447586,0,0,0.0734689,0,0,0,53.4, 0.8, 2.3,0,0,1024,1024,1207,1024,0,0,28,0,0,0,95,4.256,4.262,4.26,4.263,4.264,4.257,0,,119.7447586,0,10,Assisted_Takeoff,
7100,2022-10-12 10:14:04,45.4389385476209,9.05594812522548,0,,,119.7447586,0.1,0,0.0749312,0.305873,18,5,25.562,119.7447586,0,0,0.0749312,0,0,0,53.4, 0.7, 2.2,0,0,1024,1024,1195,1024,0,0,26,0,0,0,95,4.256,4.262,4.26,4.263,4.264,4.257,0,,119.7447586,0,10,Assisted_Takeoff,
7200,2022-10-12 10:14:04,45.4389385352773,9.05594815031854,0,,,119.7447586,0.1,0,0.0726919,0.308264,18,5,25.562,119.7447586,0,0,0.0749312,0,0,0,53.3, 0.7, 2.2,0,0,1024,1024,1195,1024,0,0,26,0,0,0,95,4.256,4.262,4.26,4.263,4.264,4.257,0,,119.7447586,0,10,Assisted_Takeoff,
7300,2022-10-12 10:14:04,45.4389385163068,9.05594818168256,0,,,119.7447586,0.1,0,0.0698175,0.311496,18,5,25.562,119.7447586,0,0,0.0749312,0,0,0,53.3, 0.7, 2.2,0,0,1024,1024,1195,1024,0,0,26,0,0,0,95,4.256,4.262,4.26,4.263,4.264,4.257,0,,119.7447586,0,10,Assisted_Takeoff,
7400,2022-10-12 10:14:04,45.4389385286463,9.05594820730061,0,,,119.7447586,0.1,0,0.0682013,0.31392,18,5,25.562,119.7447586,0,0,0.0749312,0,0,0,53.3, 0.7, 2.2,0,0,1024,1024,1201,1024,0,0,27,0,0,0,95,4.256,4.262,4.26,4.263,4.264,4.257,0,,119.7447586,0,10,Assisted_Takeoff,
7500,2022-10-12 10:14:04,45.4389386096736,9.05594818501721,0,,,119.7447586,0.1,0,0.0726132,0.323097,18,5,25.562,119.7447586,0,0,0.0749312,0,0,0,53.2, 0.7, 2.3,0,0,1024,1024,1202,1024,0,0,27,0,0,0,95,4.256,4.262,4.26,4.263,4.264,4.257,0,,119.7447586,0,10,Assisted_Takeoff,
7600,2022-10-12 10:14:05,45.4389385985953,9.05594821702985,0,,,119.7447586,0.1,0,0.06984,0.325882,18,5,25.562,119.7447586,0,0,0.0749312,0,0,0,53.2, 0.7, 2.5,0,0,1024,1024,1199,1024,0,0,27,0,0,0,95,4.256,4.262,4.26,4.263,4.264,4.257,0,,119.7447586,0,10,Assisted_Takeoff,
7700,2022-10-12 10:14:05,45.4389385708727,9.05594826428421,0,,,119.7447586,0.1,0,0.0653163,0.330689,18,5,25.562,119.7447586,0,0,0.0749312,0,0,0,53.2, 0.5, 3,0,0,1024,1024,1197,1024,0,0,26,0,0,0,95,4.256,4.262,4.26,4.263,4.264,4.257,0,,119.7447586,0,10,Assisted_Takeoff,
7800,2022-10-12 10:14:05,45.438938563289,9.05594831699,0,,,119.7447586,0.1,0,0.0611603,0.334887,18,5,25.562,119.7447586,0,0,0.0749312,0,0,-0.2,53.1, 0.1, 3.8,0,0,1024,1024,1201,1024,0,0,27,0,0,0,95,4.256,4.262,4.26,4.263,4.264,4.257,0,,119.7447586,0,10,Assisted_Takeoff,
7900,2022-10-12 10:14:05,45.4389386092413,9.05594830968734,0,,,119.7447586,0.2,0.1,0.06361,0.340029,18,5,25.562,119.7447586,0,0.1,0.0749312,-0.1,0,-0.4,53.2, 0, 3.1,0,0,1024,1024,1199,1024,0,0,27,0,0,0,95,4.256,4.262,4.26,4.263,4.264,4.257,0,,119.7447586,0,6,P-GPS,
8000,2022-10-12 10:14:05,45.4389385335162,9.05594843182405,0,,,119.7447586,0.2,0.14,0.0516078,0.352747,18,5,25.083,119.7447586,0,0.14,0.0749312,-0.1,0.1,-0.5,53.3, 0, 1,0,0,1024,1024,1199,1024,0,0,27,0,0,0,95,4.168,4.187,4.187,4.186,4.184,4.171,0,,119.7447586,0,6,P-GPS,
8100,2022-10-12 10:14:05,45.4389384306547,9.05594857501256,0.1,,,119.8447586,0.3,0.14,0.037846,0.368737,18,5,25.083,119.8447586,0.1,0.14,0.0749312,-0.1,0.1,-0.6,53.4, 0.1, -0.8,0,0,1024,1024,1198,1024,0,0,26,0,0,0,95,4.168,4.187,4.187,4.186,4.184,4.171,0,,119.8447586,0.1,6,P-GPS,
8200,2022-10-12 10:14:05,45.4389383538068,9.05594871175916,0.2,,,119.9447586,0.4,0.14,0.0267774,0.382407,18,5,25.083,119.9447586,0.2,0.14,0.0749312,-0.1,0.1,-0.6,53.4, 0.2, -1.7,0,0,1024,1024,1196,1024,0,0,26,0,0,0,95,4.168,4.187,4.187,4.186,4.184,4.171,0,,119.9447586,0.2,6,P-GPS,
8300,2022-10-12 10:14:05,45.4389383046864,9.05594883367458,0.2,,,119.9447586,0.4,0,0.0188675,0.393377,18,5,25.083,119.9447586,0.2,0.14,0.0749312,0,0,-0.5,53.4, 0.1, -1.8,0,0,1024,1024,1195,1024,0,0,26,0,0,0,95,4.168,4.187,4.187,4.186,4.184,4.171,0,,119.9447586,0.2,6,P-GPS,
8400,2022-10-12 10:14:05,45.4389383274496,9.05594886350177,0.3,,,120.0447586,0.5,0,0.0157546,0.396816,18,5,25.083,120.0447586,0.3,0.14,0.0749312,0,0,-0.4,53.3, 0.1, -1.4,0,0,1024,1024,1193,1024,0,0,26,0,0,0,95,4.168,4.187,4.187,4.186,4.184,4.171,0,,120.0447586,0.3,6,P-GPS,
8500,2022-10-12 10:14:05,45.4389383598125,9.0559488993939,0.3,,,120.0447586,0.5,0,0.0121518,0.401376,18,5,25.083,120.0447586,0.3,0.14,0.0749312,0,0,-0.4,53.2, 0.1, -0.9,0,0,1024,1024,1195,1024,0,0,26,0,0,0,95,4.168,4.187,4.187,4.186,4.184,4.171,0,,120.0447586,0.3,6,P-GPS,
8600,2022-10-12 10:14:06,45.4389383317227,9.05594886006029,0.3,,,120.0447586,0.5,0,0.0158562,0.405755,18,5,25.083,120.0447586,0.3,0.14,0.0749312,0,0,-0.4,53.2, 0, -0.6,0,0,1024,1024,1195,1024,0,0,26,0,0,0,95,4.168,4.187,4.187,4.186,4.184,4.171,0,,120.0447586,0.3,6,P-GPS,
8700,2022-10-12 10:14:06,45.4389382880388,9.05594878617604,0.4,,,120.1447586,0.6,0,0.0230085,0.413294,18,5,25.083,120.1447586,0.4,0.14,0.0749312,0,0,-0.3,53.2, 0, -0.2,0,0,1024,1024,1199,1024,0,0,27,0,0,0,95,4.168,4.187,4.187,4.186,4.184,4.171,0,,120.1447586,0.4,6,P-GPS,
8800,2022-10-12 10:14:06,45.4389384558614,9.05594866663684,0.4,,,120.1447586,0.6,0,0.0314943,0.434158,18,5,25.083,120.1447586,0.4,0.14,0.0749312,0,0,-0.3,53.2, 0, 0.1,0,0,1024,1024,1200,1024,0,0,27,0,0,0,95,4.168,4.187,4.187,4.186,4.184,4.171,0,,120.1447586,0.4,6,P-GPS,
8900,2022-10-12 10:14:06,45.4389385792233,9.05594868732388,0.5,,,120.2447586,0.7,0,0.0364851,0.447972,18,5,25.083,120.2447586,0.5,0.14,0.0749312,0,0,-0.3,53.2, 0, 0.4,0,0,1024,1024,1201,1024,0,0,27,0,0,0,95,4.168,4.187,4.187,4.186,4.184,4.171,0,,120.2447586,0.5,6,P-GPS,
9000,2022-10-12 10:14:06,45.4389387175898,9.05594866301222,0.5,,,120.2447586,0.7,0,0.0487646,0.463475,18,5,24.984,120.2447586,0.5,0.14,0.0749312,0,0,-0.3,53.2, 0, 0.4,0,0,1024,1024,1204,1024,0,0,27,0,0,0,95,4.149,4.17,4.17,4.171,4.168,4.156,0,,120.2447586,0.5,6,P-GPS,
9100,2022-10-12 10:14:06,45.4389388632167,9.0559486231643,0.5,,,120.2447586,0.7,0,0.0638159,0.479966,18,5,24.984,120.2447586,0.5,0.14,0.0749312,0,0,-0.3,53.2, 0, 0.5,0,0,1024,1024,1214,1024,0,0,29,0,0,0,95,4.149,4.17,4.17,4.171,4.168,4.156,0,,120.2447586,0.5,6,P-GPS,
9200,2022-10-12 10:14:06,45.4389392394173,9.05594841966822,0.6,,,120.3447586,0.8,0,0.108082,0.524714,18,5,24.984,120.3447586,0.6,0.14,0.108082,0,0,-0.3,53.2, 0.1, 0.7,0,0,1024,1024,1214,1024,0,0,29,0,0,0,95,4.149,4.17,4.17,4.171,4.168,4.156,0,,120.3447586,0.6,6,P-GPS,
9300,2022-10-12 10:14:06,45.4389393962569,9.05594835732782,0.6,,,120.3447586,0.8,0,0.125869,0.542821,17,5,24.984,120.3447586,0.6,0.14,0.125869,0,0,-0.3,53.1, 0.3, 0.8,0,0,1024,1024,1220,1024,0,0,30,0,0,0,95,4.149,4.17,4.17,4.171,4.168,4.156,0,,120.3447586,0.6,6,P-GPS,
9400,2022-10-12 10:14:06,45.4389394414087,9.05594839235309,0.6,,,120.3447586,0.9,0,0.129302,0.548538,17,5,24.984,120.3447586,0.6,0.14,0.129302,0,0,-0.3,53.1, 0.4, 0.6,0,0,1024,1024,1220,1024,0,0,30,0,0,0,95,4.149,4.17,4.17,4.171,4.168,4.156,0,,120.3447586,0.6,6,P-GPS,
9500,2022-10-12 10:14:07,45.4389394504222,9.0559484658268,0.7,,,120.4447586,0.9,0,0.128059,0.554358,17,5,24.984,120.4447586,0.7,0.14,0.129302,0,0,-0.3,53.1, 0.6, 0.6,0,0,1024,1024,1223,1024,0,0,30,0,0,0,95,4.149,4.17,4.17,4.171,4.168,4.156,0,,120.4447586,0.7,6,P-GPS,
9600,2022-10-12 10:14:07,45.4389394945937,9.05594857409992,0.7,,,120.4447586,0.9,0,0.129978,0.56413,17,5,24.984,120.4447586,0.7,0.14,0.129978,0,0,-0.4,53.2, 0.8, 0.8,0,0,1024,1024,1227,1024,0,0,31,0,0,0,95,4.149,4.17,4.17,4.171,4.168,4.156,0,,120.4447586,0.7,6,P-GPS,
9700,2022-10-12 10:14:07,45.4389395949286,9.05594858323091,0.8,,,120.5447586,1,0,0.140512,0.575311,18,5,24.984,120.5447586,0.8,0.14,0.140512,0,0,-0.4,53.2, 1, 0.9,0,0,1024,1024,1235,1024,0,0,32,0,0,0,95,4.149,4.17,4.17,4.171,4.168,4.156,0,,120.5447586,0.8,6,P-GPS,
9800,2022-10-12 10:14:07,45.4389396288206,9.05594864175898,0.8,,,120.5447586,1,0,0.143059,0.581232,18,5,24.984,120.5447586,0.8,0.14,0.143059,0,0,-0.4,53.2, 1.2, 0.8,0,0,1024,1024,1239,1024,0,0,33,0,0,0,95,4.149,4.17,4.17,4.171,4.168,4.156,0,,120.5447586,0.8,6,P-GPS,
9900,2022-10-12 10:14:07,45.4389396328706,9.05594871017043,0.9,,,120.6447586,1.1,0,0.142398,0.586589,18,5,24.984,120.6447586,0.9,0.14,0.143059,0,0,-0.5,53.2, 1.1, 0.7,0,0,1024,1024,1240,1024,0,0,33,0,0,0,95,4.149,4.17,4.17,4.171,4.168,4.156,0,,120.6447586,0.9,6,P-GPS,
10000,2022-10-12 10:14:07,45.43893961124,9.05594873459656,0.9,,,120.6447586,1.2,0,0.139684,0.589658,18,5,24.84,120.6447586,0.9,0.14,0.143059,0,0,-0.5,53.2, 0.8, 0.6,0,0,1024,1024,1252,1024,0,0,35,0,0,0,95,4.123,4.147,4.149,4.148,4.143,4.13,0,,120.6447586,0.9,6,P-GPS,
10100,2022-10-12 10:14:07,45.4389394505337,9.05594879611742,1,,,120.7447586,1.2,0,0.121253,0.608163,18,5,24.84,120.7447586,1,0.14,0.143059,0,0,-0.5,53.2, 0.6, 0.5,0,0,1024,1024,1258,1024,0,0,35,0,0,0,95,4.123,4.147,4.149,4.148,4.143,4.13,0,,120.7447586,1,6,P-GPS,
10200,2022-10-12 10:14:07,45.4389394206526,9.05594885518727,1.1,,,120.8447586,1.3,0,0.11728,0.613846,18,5,24.84,120.8447586,1.1,0.14,0.143059,0,0,-0.5,53.2, 0.4, 0.3,0,0,1024,1024,1271,1024,0,0,37,0,0,0,95,4.123,4.147,4.149,4.148,4.143,4.13,0,,120.8447586,1.1,6,P-GPS,
10300,2022-10-12 10:14:07,45.4389393937002,9.05594894087786,1.1,,,120.8447586,1.3,0,0.113598,0.621173,18,5,24.84,120.8447586,1.1,0.14,0.143059,0,0,-0.6,53.2, 0.3, 0.3,0,0,1024,1024,1279,1024,0,0,39,0,0,0,95,4.123,4.147,4.149,4.148,4.143,4.13,0,,120.8447586,1.1,6,P-GPS,
10400,2022-10-12 10:14:07,45.4389393914969,9.05594902025474,1.2,,,120.9447586,1.4,0,0.113042,0.627372,18,5,24.84,120.9447586,1.2,0.14,0.143059,0,0,-0.6,53.2, 0.3, 0.4,0,0,1024,1024,1284,1024,0,0,39,0,0,0,95,4.123,4.147,4.149,4.148,4.143,4.13,0,,120.9447586,1.2,6,P-GPS,
10500,2022-10-12 10:14:08,45.4389394246528,9.05594918038815,1.3,,,121.0447586,1.5,0,0.117118,0.6404,18,5,24.84,121.0447586,1.3,0.14,0.143059,0,0,-0.7,53.2, 0.3, 0.4,0,0,1024,1024,1297,1024,0,0,41,0,0,0,95,4.123,4.147,4.149,4.148,4.143,4.13,0,,121.0447586,1.3,6,P-GPS,
10600,2022-10-12 10:14:08,45.4389394111815,9.05594920804667,1.3,,,121.0447586,1.6,0,0.11583,0.643027,18,5,24.84,121.0447586,1.3,0.14,0.143059,0,0,-0.7,53.1, 0, 0.3,0,0,1024,1024,1313,1024,0,0,44,0,0,0,95,4.123,4.147,4.149,4.148,4.143,4.13,0,,121.0447586,1.3,6,P-GPS,
10700,2022-10-12 10:14:08,45.4389393883833,9.05594923665294,1.4,,,121.1447586,1.7,0,0.113568,0.646405,18,5,24.84,121.1447586,1.4,0.14,0.143059,0,0,-0.8,53.1, -0.1, 0.2,0,0,1024,1024,1319,1024,0,0,45,0,0,0,95,4.123,4.147,4.149,4.148,4.143,4.13,0,,121.1447586,1.4,6,P-GPS,
10800,2022-10-12 10:14:08,45.4389393685513,9.05594930055155,1.5,,,121.2447586,1.8,0,0.112129,0.651857,18,5,24.84,121.2447586,1.5,0.14,0.143059,0,0,-0.9,53.1, 0, 0,0,0,1024,1024,1319,1024,0,0,45,0,0,0,95,4.123,4.147,4.149,4.148,4.143,4.13,0,,121.2447586,1.5,6,P-GPS,
10900,2022-10-12 10:14:08,45.4389393825942,9.0559493329793,1.6,,,121.3447586,1.9,0,0.114124,0.65483,18,5,24.84,121.3447586,1.6,0.14,0.143059,0,0,-1,53.1, 0, -0.3,0,0,1024,1024,1319,1024,0,0,45,0,0,0,95,4.123,4.147,4.149,4.148,4.143,4.13,0,,121.3447586,1.6,6,P-GPS,
11000,2022-10-12 10:14:08,45.4389393789994,9.05594936246768,1.7,,,121.4447586,2,0,0.114195,0.657166,18,5,24.805,121.4447586,1.7,0.14,0.143059,0,0,-1,53.1, 0, -0.3,0,0,1024,1024,1313,1024,0,0,44,0,0,0,95,4.119,4.144,4.142,4.141,4.138,4.121,0,,121.4447586,1.7,6,P-GPS,
11100,2022-10-12 10:14:08,45.4389393868518,9.05594937076692,1.8,,,121.5447586,2.1,0,0.115186,0.658253,18,5,24.805,121.5447586,1.8,0.14,0.143059,0,0,-1,53.1, 0.1, -0.3,0,0,1024,1024,1311,1024,0,0,43,0,0,0,95,4.119,4.144,4.142,4.141,4.138,4.121,0,,121.5447586,1.8,6,P-GPS,
11200,2022-10-12 10:14:08,45.4389393763996,9.0559493503729,1.9,,,121.6447586,2.2,0,0.113717,0.660223,18,5,24.805,121.6447586,1.9,0.14,0.143059,0,0,-1,53.1, 0.2, -0.4,0,0,1024,1024,1312,1024,0,0,44,0,0,0,95,4.119,4.144,4.142,4.141,4.138,4.121,0,,121.6447586,1.9,6,P-GPS,
11300,2022-10-12 10:14:08,45.4389393735376,9.05594921308299,2,,,121.7447586,2.3,0,0.11171,0.670941,18,5,24.805,121.7447586,2,0.14,0.143059,0,0,-1,53.1, 0.3, -0.2,0,0,1024,1024,1318,1024,0,0,45,0,0,0,95,4.119,4.144,4.142,4.141,4.138,4.121,0,,121.7447586,2,6,P-GPS,
11400,2022-10-12 10:14:08,45.4389394393333,9.05594918634779,2.2,,,121.9447586,2.4,0,0.118784,0.678549,18,5,24.805,121.9447586,2.2,0.14,0.143059,0,0,-1,53.1, 0.4, 0.1,0,0,1024,1024,1313,1024,0,0,44,0,0,0,95,4.119,4.144,4.142,4.141,4.138,4.121,0,,121.9447586,2.2,6,P-GPS,
11500,2022-10-12 10:14:09,45.4389395324469,9.05594916144246,2.3,,,122.0447586,2.5,0,0.128962,0.689085,18,5,24.805,122.0447586,2.3,0.14,0.143059,0,0,-1,53.1, 0.4, 0.2,0,0,1024,1024,1313,1024,0,0,44,0,0,0,95,4.119,4.144,4.142,4.141,4.138,4.121,0,,122.0447586,2.3,6,P-GPS,
11600,2022-10-12 10:14:09,45.4389395523424,9.0559491474705,2.4,,,122.1447586,2.6,0,0.131104,0.691551,18,5,24.805,122.1447586,2.4,0.14,0.143059,0,0,-1,53.1, 0.2, 0.1,0,0,1024,1024,1313,1024,0,0,44,0,0,0,95,4.119,4.144,4.142,4.141,4.138,4.121,0,,122.1447586,2.4,6,P-GPS,
11700,2022-10-12 10:14:09,45.4389395503248,9.05594913254775,2.5,,,122.2447586,2.8,0,0.13082,0.692737,17,5,24.805,122.2447586,2.5,0.14,0.143059,0,0,-1,53.1, 0.1, 0.1,0,0,1024,1024,1316,1024,0,0,44,0,0,0,95,4.119,4.144,4.142,4.141,4.138,4.121,0,,122.2447586,2.5,6,P-GPS,
11800,2022-10-12 10:14:09,45.4389395634264,9.05594918352898,2.6,,,122.3447586,2.9,0,0.13252,0.696974,17,5,24.805,122.3447586,2.6,0.14,0.143059,0,0,-1,53.1, 0.2, 0.2,0,0,1024,1024,1316,1024,0,0,44,0,0,0,95,4.119,4.144,4.142,4.141,4.138,4.121,0,,122.3447586,2.6,6,P-GPS,
11900,2022-10-12 10:14:09,45.4389395947658,9.05594918815629,2.7,,,122.4447586,3,0,0.136023,0.700477,18,5,24.805,122.4447586,2.7,0.14,0.143059,0,0,-1,53.1, 0.1, 0.1,0,0,1024,1024,1319,1024,0,0,45,0,0,0,95,4.119,4.144,4.142,4.141,4.138,4.121,0,,122.4447586,2.7,6,P-GPS,
12000,2022-10-12 10:14:09,45.438939558445,9.05594920879602,2.8,,,122.5447586,3.1,0,0.132134,0.704826,18,5,24.805,122.5447586,2.8,0.14,0.143059,0,0,-1,53.1, 0, 0,0,0,1024,1024,1317,1024,0,0,44,0,0,0,95,4.119,4.144,4.142,4.141,4.138,4.121,0,,122.5447586,2.8,6,P-GPS,
12100,2022-10-12 10:14:09,45.4389395082946,9.05594922528766,2.9,,,122.6447586,3.2,0,0.126711,0.710549,18,5,24.869,122.6447586,2.9,0.14,0.143059,0,0,-1,53.1, -0.1, 0,0,0,1024,1024,1313,1024,0,0,44,0,0,0,95,4.131,4.152,4.152,4.151,4.148,4.135,0,,122.6447586,2.9,6,P-GPS,
12200,2022-10-12 10:14:09,45.4389395394036,9.05594924055989,3.1,,,122.8447586,3.3,0,0.13028,0.714208,18,5,24.869,122.8447586,3.1,0.14,0.143059,0,0,-1.1,53.1, -0.1, 0.4,0,0,1024,1024,1313,1024,0,0,44,0,0,0,95,4.131,4.152,4.152,4.151,4.148,4.135,0,,122.8447586,3.1,6,P-GPS,
12300,2022-10-12 10:14:09,45.4389396114158,9.05594916177363,3.2,,,122.9447586,3.4,0,0.137727,0.724304,18,5,24.869,122.9447586,3.2,0.14,0.143059,0,0,-1,53.1, 0, 0.8,0,0,1024,1024,1315,1024,0,0,44,0,0,0,95,4.131,4.152,4.152,4.151,4.148,4.135,0,,122.9447586,3.2,6,P-GPS,
12400,2022-10-12 10:14:09,45.438939698952,9.0559491520215,3.3,,,123.0447586,3.5,0,0.147403,0.734068,18,5,24.869,123.0447586,3.3,0.14,0.147403,0,0,-1,53.1, 0.1, 1,0,0,1024,1024,1312,1024,0,0,44,0,0,0,95,4.131,4.152,4.152,4.151,4.148,4.135,0,,123.0447586,3.3,6,P-GPS,
12500,2022-10-12 10:14:10,45.4389397939734,9.05594916196898,3.4,,,123.1447586,3.6,0,0.157996,0.744664,18,5,24.869,123.1447586,3.4,0.14,0.157996,0,0,-1,53.1, 0.2, 1.2,0,0,1024,1024,1310,1024,0,0,43,0,0,0,95,4.131,4.152,4.152,4.151,4.148,4.135,0,,123.1447586,3.4,6,P-GPS,
12600,2022-10-12 10:14:10,45.438940126903,9.05594930119559,3.5,,,123.2447586,3.8,0,0.19575,0.783249,18,5,24.869,123.2447586,3.5,0.14,0.19575,0,0,-1,53.1, 0.3, 1.3,0,0,1024,1024,1312,1024,0,0,44,0,0,0,95,4.131,4.152,4.152,4.151,4.148,4.135,0,,123.2447586,3.5,6,P-GPS,
12700,2022-10-12 10:14:10,45.4389402498815,9.05594929443624,3.6,,,123.3447586,3.9,0,0.209315,0.796935,18,5,24.869,123.3447586,3.6,0.14,0.209315,0,0,-1,53.1, 0.5, 1.4,0,0,1024,1024,1309,1024,0,0,43,0,0,0,95,4.131,4.152,4.152,4.151,4.148,4.135,0,,123.3447586,3.6,6,P-GPS,
12800,2022-10-12 10:14:10,45.4389403074942,9.05594929080247,3.7,,,123.4447586,4,0,0.215672,0.803348,18,5,24.869,123.4447586,3.7,0.14,0.215672,0,0,-1,53.1, 0.7, 1.4,0,0,1024,1024,1299,1024,0,0,42,0,0,0,95,4.131,4.152,4.152,4.151,4.148,4.135,0,,123.4447586,3.7,6,P-GPS,
12900,2022-10-12 10:14:10,45.4389403326879,9.05594928950065,3.8,,,123.5447586,4.1,0,0.218455,0.806151,17,5,24.869,123.5447586,3.8,0.14,0.218455,0,0,-1,53.2, 0.7, 1.3,0,0,1024,1024,1300,1024,0,0,42,0,0,0,95,4.131,4.152,4.152,4.151,4.148,4.135,0,,123.5447586,3.8,6,P-GPS,"Setting new Return-To-Home altitude to 45m (148 ft). Data Recorder File Index is 161. Setting new Maximum Flight Altitude to 100m (328 ft)"
13000,2022-10-12 10:14:10,45.4389402327584,9.05594936367793,3.9,,,123.6447586,4.2,0,0.207978,0.818681,17,5,24.869,123.6447586,3.9,0.14,0.218455,0,0,-1,53.2, 0.5, 1,0,0,1024,1024,1296,1024,0,0,41,0,0,0,95,4.131,4.152,4.152,4.151,4.148,4.135,0,,123.6447586,3.9,6,P-GPS,
13100,2022-10-12 10:14:10,45.4389402095335,9.05594936534754,4,,,123.7447586,4.3,0,0.205428,0.821267,17,5,24.781,123.7447586,4,0.14,0.218455,0,0,-0.9,53.3, 0.4, 0.8,0,0,1024,1024,1296,1024,0,0,41,0,0,0,95,4.114,4.137,4.139,4.136,4.135,4.12,0,,123.7447586,4,6,P-GPS,
13200,2022-10-12 10:14:10,45.4389401919757,9.05594940287723,4.1,,,123.8447586,4.4,0,0.203861,0.824787,17,5,24.781,123.8447586,4.1,0.14,0.218455,0,0,-0.9,53.3, 0.5, 0.7,0,0,1024,1024,1294,1024,0,0,41,0,0,0,95,4.114,4.137,4.139,4.136,4.135,4.12,0,,123.8447586,4.1,6,P-GPS,
13300,2022-10-12 10:14:10,45.438940173264,9.05594944679084,4.2,,,123.9447586,4.5,0,0.20229,0.828796,17,5,24.781,123.9447586,4.2,0.14,0.218455,0,0,-0.9,53.4, 0.5, 0.6,0,0,1024,1024,1296,1024,0,0,41,0,0,0,95,4.114,4.137,4.139,4.136,4.135,4.12,0,,123.9447586,4.2,6,P-GPS,
13400,2022-10-12 10:14:10,45.4389401410184,9.05594945383863,4.3,,,124.0447586,4.6,0,0.198832,0.832424,17,5,24.781,124.0447586,4.3,0.14,0.218455,0,0,-0.9,53.4, 0.5, 0.6,0,0,1024,1024,1296,1024,0,0,41,0,0,0,95,4.114,4.137,4.139,4.136,4.135,4.12,0,,124.0447586,4.3,6,P-GPS,
13500,2022-10-12 10:14:11,45.4389400293877,9.05594951019345,4.4,,,124.1447586,4.7,0,0.187368,0.845593,17,5,24.781,124.1447586,4.4,0.14,0.218455,0,0,-0.9,53.4, 0.6, 0.6,0,0,1024,1024,1294,1024,0,0,41,0,0,0,95,4.114,4.137,4.139,4.136,4.135,4.12,0,,124.1447586,4.4,6,P-GPS,
13600,2022-10-12 10:14:11,45.4389399993454,9.05594946058728,4.5,,,124.2447586,4.8,0,0.18338,0.850707,17,5,24.781,124.2447586,4.5,0.14,0.218455,0,0,-0.9,53.5, 0.5, 0.7,0,0,1024,1024,1298,1024,0,0,42,0,0,0,95,4.114,4.137,4.139,4.136,4.135,4.12,0,,124.2447586,4.5,6,P-GPS,
13700,2022-10-12 10:14:11,45.4389399698046,9.05594938573851,4.6,,,124.3447586,4.9,0,0.179208,0.857408,17,5,24.781,124.3447586,4.6,0.14,0.218455,0,0,-0.9,53.5, 0.3, 0.8,0,0,1024,1024,1310,1024,0,0,43,0,0,0,95,4.114,4.137,4.139,4.136,4.135,4.12,0,,124.3447586,4.6,6,P-GPS,
13800,2022-10-12 10:14:11,45.4389399147494,9.05594931225716,4.7,,,124.4447586,5,0,0.172387,0.865796,17,5,24.781,124.4447586,4.7,0.14,0.218455,0,0,-0.9,53.5, 0, 0.9,0,0,1024,1024,1313,1024,0,0,44,0,0,0,95,4.114,4.137,4.139,4.136,4.135,4.12,0,,124.4447586,4.7,6,P-GPS,
13900,2022-10-12 10:14:11,45.4389397908174,9.0559492344629,4.8,,,124.5447586,5.1,0,0.15805,0.880855,18,5,24.781,124.5447586,4.8,0.14,0.218455,0,0,-0.9,53.5, -0.1, 0.9,0,0,1024,1024,1312,1024,0,0,44,0,0,0,95,4.114,4.137,4.139,4.136,4.135,4.12,0,,124.5447586,4.8,6,P-GPS,
14000,2022-10-12 10:14:11,45.4389397594691,9.0559491511287,4.9,,,124.6447586,5.1,0,0.154121,0.888233,18,5,24.781,124.6447586,4.9,0.14,0.218455,0,0,-0.9,53.4, -0.1, 0.8,0,0,1024,1024,1313,1024,0,0,44,0,0,0,95,4.114,4.137,4.139,4.136,4.135,4.12,0,,124.6447586,4.9,6,P-GPS,
14100,2022-10-12 10:14:11,45.4389397407444,9.05594906043232,5,,,124.7447586,5.2,0,0.151851,0.89561,18,5,24.781,124.7447586,5,0.14,0.218455,0,0,-1,53.4, -0.1, 0.7,0,0,1024,1024,1312,1024,0,0,44,0,0,0,95,4.114,4.137,4.139,4.136,4.135,4.12,0,,124.7447586,5,6,P-GPS,
14200,2022-10-12 10:14:11,45.438939701025,9.05594895943744,5.1,,,124.8447586,5.3,0,0.147616,0.904644,18,5,24.774,124.8447586,5.1,0.14,0.218455,0,0,-1,53.4, -0.2, 0.8,0,0,1024,1024,1315,1024,0,0,44,0,0,0,95,4.113,4.137,4.139,4.136,4.133,4.116,0,,124.8447586,5.1,6,P-GPS,
14300,2022-10-12 10:14:11,45.4389396770258,9.05594871444367,5.2,,,124.9447586,5.4,0,0.147163,0.923947,18,5,24.774,124.9447586,5.2,0.14,0.218455,0,0,-1,53.4, -0.1, 0.8,0,0,1024,1024,1314,1024,0,0,44,0,0,0,95,4.113,4.137,4.139,4.136,4.133,4.116,0,,124.9447586,5.2,6,P-GPS,
14400,2022-10-12 10:14:11,45.4389396650633,9.05594865581487,5.3,,,125.0447586,5.6,0,0.146754,0.928711,18,5,24.774,125.0447586,5.3,0.14,0.218455,0,0,-1,53.3, -0.1, 0.9,0,0,1024,1024,1318,1024,0,0,45,0,0,0,95,4.113,4.137,4.139,4.136,4.133,4.116,0,,125.0447586,5.3,6,P-GPS,
14500,2022-10-12 10:14:12,45.4389396631083,9.05594860706793,5.4,,,125.1447586,5.7,0,0.147394,0.932521,18,5,24.774,125.1447586,5.4,0.14,0.218455,0,0,-1,53.2, 0, 0.9,0,0,1024,1024,1314,1024,0,0,44,0,0,0,95,4.113,4.137,4.139,4.136,4.133,4.116,0,,125.1447586,5.4,6,P-GPS,
14600,2022-10-12 10:14:12,45.4389396716569,9.05594862057441,5.5,,,125.2447586,5.8,0,0.148074,0.93394,18,5,24.774,125.2447586,5.5,0.14,0.218455,0,0,-1,53.2, 0.1, 1,0,0,1024,1024,1312,1024,0,0,44,0,0,0,95,4.113,4.137,4.139,4.136,4.133,4.116,0,,125.2447586,5.5,6,P-GPS,
14700,2022-10-12 10:14:12,45.4389397583015,9.05594880953538,5.6,,,125.3447586,5.9,0,0.154977,0.951554,18,5,24.774,125.3447586,5.6,0.14,0.218455,0,0,-1,53.2, 0, 0.8,0,0,1024,1024,1311,1024,0,0,43,0,0,0,95,4.113,4.137,4.139,4.136,4.133,4.116,0,,125.3447586,5.6,6,P-GPS,
14800,2022-10-12 10:14:12,45.4389396761408,9.05594876406052,5.7,,,125.4447586,6,0,0.146419,0.961356,18,5,24.774,125.4447586,5.7,0.14,0.218455,0,0,-1,53.2, -0.3, 0.5,0,0,1024,1024,1313,1024,0,0,44,0,0,0,95,4.113,4.137,4.139,4.136,4.133,4.116,0,,125.4447586,5.7,6,P-GPS,
14900,2022-10-12 10:14:12,45.4389395634736,9.05594870417264,5.8,,,125.5447586,6.1,0,0.13492,0.974728,18,5,24.774,125.5447586,5.8,0.14,0.218455,0,0,-1,53.2, -0.5, 0.3,0,0,1024,1024,1312,1024,0,0,44,0,0,0,95,4.113,4.137,4.139,4.136,4.133,4.116,0,,125.5447586,5.8,6,P-GPS,
15000,2022-10-12 10:14:12,45.4389395506952,9.05594869049523,5.9,,,125.6447586,6.2,0,0.133751,0.976505,18,5,24.774,125.6447586,5.9,0.14,0.218455,0,0,-1,53.2, -0.4, 0.2,0,0,1024,1024,1311,1024,0,0,43,0,0,0,95,4.113,4.137,4.139,4.136,4.133,4.116,0,,125.6447586,5.9,6,P-GPS,
15100,2022-10-12 10:14:12,45.4389395789634,9.0559486876398,6,,,125.7447586,6.3,0,0.136871,0.979657,18,5,24.774,125.7447586,6,0.14,0.218455,0,0,-1,53.2, -0.4, 0.2,0,0,1024,1024,1313,1024,0,0,44,0,0,0,95,4.113,4.137,4.139,4.136,4.133,4.116,0,,125.7447586,6,6,P-GPS,
15200,2022-10-12 10:14:12,45.4389396132755,9.05594871839031,6.1,,,125.8447586,6.4,0,0.140137,0.984164,18,5,24.754,125.8447586,6.1,0.14,0.218455,0,0,-1,53.1, -0.1, 0.4,0,0,1024,1024,1315,1024,0,0,44,0,0,0,95,4.109,4.134,4.134,4.131,4.13,4.116,0,,125.8447586,6.1,6,P-GPS,
15300,2022-10-12 10:14:12,45.4389396099926,9.05594868617011,6.2,,,125.9447586,6.5,0,0.140271,0.986705,18,5,24.754,125.9447586,6.2,0.14,0.218455,0,0,-1,53, -0.1, 0.7,0,0,1024,1024,1313,1024,0,0,44,0,0,0,95,4.109,4.134,4.134,4.131,4.13,4.116,0,,125.9447586,6.2,6,P-GPS,
15400,2022-10-12 10:14:12,45.4389395790749,9.05594859892589,6.3,,,126.0447586,6.6,0,0.138492,0.994331,18,5,24.754,126.0447586,6.3,0.14,0.218455,0,0,-1,53, -0.4, 0.8,0,0,1024,1024,1312,1024,0,0,44,0,0,0,95,4.109,4.134,4.134,4.131,4.13,4.116,0,,126.0447586,6.3,6,P-GPS,
15500,2022-10-12 10:14:13,45.4389395422355,9.05594850758242,6.4,,,126.1447586,6.7,0,0.136589,1.00255,18,5,24.754,126.1447586,6.4,0.14,0.218455,0,0,-1,53, -0.4, 0.7,0,0,1024,1024,1311,1024,0,0,43,0,0,0,95,4.109,4.134,4.134,4.131,4.13,4.116,0,,126.1447586,6.4,6,P-GPS,
15600,2022-10-12 10:14:13,45.4389395373159,9.05594833564267,6.5,,,126.2447586,6.8,0,0.140848,1.01598,18,5,24.754,126.2447586,6.5,0.14,0.218455,0,0,-1,53, -0.2, 0.7,0,0,1024,1024,1312,1024,0,0,44,0,0,0,95,4.109,4.134,4.134,4.131,4.13,4.116,0,,126.2447586,6.5,6,P-GPS,
15700,2022-10-12 10:14:13,45.4389395354432,9.05594831845816,6.6,,,126.3447586,6.9,0,0.141196,1.01734,17,5,24.754,126.3447586,6.6,0.14,0.218455,0,0,-1,53.1, 0, 0.6,0,0,1024,1024,1312,1024,0,0,44,0,0,0,95,4.109,4.134,4.134,4.131,4.13,4.116,0,,126.3447586,6.6,6,P-GPS,
15800,2022-10-12 10:14:13,45.4389395391569,9.05594838703596,6.8,,,126.5447586,7,0,0.139491,1.0227,17,5,24.754,126.5447586,6.8,0.14,0.218455,0,0,-1,53, 0.1, 0.5,0,0,1024,1024,1310,1024,0,0,43,0,0,0,95,4.109,4.134,4.134,4.131,4.13,4.116,0,,126.5447586,6.8,6,P-GPS,
15900,2022-10-12 10:14:13,45.4389395440878,9.05594849195764,6.9,,,126.6447586,7.1,0,0.137169,1.03091,18,5,24.754,126.6447586,6.9,0.14,0.218455,0,0,-1,53, 0.2, 0.4,0,0,1024,1024,1309,1024,0,0,43,0,0,0,95,4.109,4.134,4.134,4.131,4.13,4.116,0,,126.6447586,6.9,6,P-GPS,
16000,2022-10-12 10:14:13,45.4389396091165,9.05594862450121,7,,,126.7447586,7.2,0,0.141238,1.04353,18,5,24.754,126.7447586,7,0.14,0.218455,0,0,-1,53, 0.4, 0.1,0,0,1024,1024,1310,1024,0,0,43,0,0,0,95,4.109,4.134,4.134,4.131,4.13,4.116,0,,126.7447586,7,6,P-GPS,
16100,2022-10-12 10:14:13,45.4389396183164,9.0559486365441,7.1,,,126.8447586,7.3,0,0.142014,1.04492,18,5,24.754,126.8447586,7.1,0.14,0.218455,0,0,-1,53, 0.5, 0,0,0,1024,1024,1302,1024,0,0,42,0,0,0,95,4.109,4.134,4.134,4.131,4.13,4.116,0,,126.8447586,7.1,6,P-GPS,
16200,2022-10-12 10:14:13,45.4389396261891,9.05594859934406,7.2,,,126.9447586,7.4,0,0.143555,1.04795,18,5,24.748,126.9447586,7.2,0.14,0.218455,0,0,-1,53, 0.3, 0,0,0,1024,1024,1298,1024,0,0,42,0,0,0,95,4.109,4.13,4.134,4.131,4.128,4.116,0,,126.9447586,7.2,6,P-GPS,
16300,2022-10-12 10:14:13,45.4389396401815,9.05594853933257,7.3,,,127.0447586,7.5,0,0.146278,1.05288,18,5,24.748,127.0447586,7.3,0.14,0.218455,0,0,-1,53, 0.3, 0.3,0,0,1024,1024,1302,1024,0,0,42,0,0,0,95,4.109,4.13,4.134,4.131,4.128,4.116,0,,127.0447586,7.3,6,P-GPS,
16400,2022-10-12 10:14:13,45.4389397697674,9.0559483540008,7.4,,,127.1447586,7.6,0,0.164405,1.0733,18,5,24.748,127.1447586,7.4,0.14,0.218455,0,0,-0.9,53, 0.4, 0.6,0,0,1024,1024,1303,1024,0,0,42,0,0,0,95,4.109,4.13,4.134,4.131,4.128,4.116,0,,127.1447586,7.4,6,P-GPS,
16500,2022-10-12 10:14:14,45.4389398465175,9.05594829140858,7.5,,,127.2447586,7.7,0,0.174086,1.08313,18,5,24.748,127.2447586,7.5,0.14,0.218455,0,0,-0.9,53, 0.4, 1,0,0,1024,1024,1295,1024,0,0,41,0,0,0,95,4.109,4.13,4.134,4.131,4.128,4.116,0,,127.2447586,7.5,6,P-GPS,
16600,2022-10-12 10:14:14,45.4389398813842,9.05594820387897,7.6,,,127.3447586,7.8,0,0.180136,1.09099,18,5,24.748,127.3447586,7.6,0.14,0.218455,0,0,-0.9,53, 0.3, 1.3,0,0,1024,1024,1296,1024,0,0,41,0,0,0,95,4.109,4.13,4.134,4.131,4.128,4.116,0,,127.3447586,7.6,6,P-GPS,
16700,2022-10-12 10:14:14,45.4389398930259,9.05594811296282,7.7,,,127.4447586,7.9,0,0.184052,1.0982,18,5,24.748,127.4447586,7.7,0.14,0.218455,0,0,-0.9,53, 0.2, 1.3,0,0,1024,1024,1296,1024,0,0,41,0,0,0,95,4.109,4.13,4.134,4.131,4.128,4.116,0,,127.4447586,7.7,6,P-GPS,
16800,2022-10-12 10:14:14,45.4389399090978,9.05594804737628,7.8,,,127.5447586,8,0,0.187774,1.10362,18,5,24.748,127.5447586,7.8,0.14,0.218455,0,0,-0.9,53, 0.1, 0.9,0,0,1024,1024,1299,1024,0,0,42,0,0,0,95,4.109,4.13,4.134,4.131,4.128,4.116,0,,127.5447586,7.8,6,P-GPS,
16900,2022-10-12 10:14:14,45.4389399571044,9.05594791963095,7.9,,,127.6447586,8.1,0,0.19691,1.11493,18,5,24.748,127.6447586,7.9,0.14,0.218455,0,0,-0.9,53, 0.1, 0.8,0,0,1024,1024,1306,1024,0,0,43,0,0,0,95,4.109,4.13,4.134,4.131,4.128,4.116,0,,127.6447586,7.9,6,P-GPS,
17000,2022-10-12 10:14:14,45.4389400098578,9.05594790710579,8,,,127.7447586,8.2,0,0.202598,1.12087,18,5,24.748,127.7447586,8,0.14,0.218455,0,0,-0.9,53, 0.2, 0.9,0,0,1024,1024,1305,1024,0,0,43,0,0,0,95,4.109,4.13,4.134,4.131,4.128,4.116,0,,127.7447586,8,6,P-GPS,
17100,2022-10-12 10:14:14,45.4389400651907,9.05594791204595,8.1,,,127.8447586,8.3,0,0.207971,1.12704,18,5,24.748,127.8447586,8.1,0.14,0.218455,0,0,-0.9,53.1, 0.3, 0.9,0,0,1024,1024,1305,1024,0,0,43,0,0,0,95,4.109,4.13,4.134,4.131,4.128,4.116,0,,127.8447586,8.1,6,P-GPS,
17200,2022-10-12 10:14:14,45.4389400542036,9.0559479634835,8.2,,,127.9447586,8.4,0,0.205171,1.13124,18,5,24.705,127.9447586,8.2,0.14,0.218455,0,0,-0.9,53.1, 0.5, 0.9,0,0,1024,1024,1307,1024,0,0,43,0,0,0,95,4.099,4.125,4.129,4.125,4.121,4.106,0,,127.9447586,8.2,6,P-GPS,
17300,2022-10-12 10:14:14,45.4389400444427,9.05594812055697,8.3,,,128.0447586,8.5,0,0.19939,1.14354,18,5,24.705,128.0447586,8.3,0.14,0.218455,0,0,-0.9,53.1, 0.5, 0.7,0,0,1024,1024,1308,1024,0,0,43,0,0,0,95,4.099,4.125,4.129,4.125,4.121,4.106,0,,128.0447586,8.3,6,P-GPS,
17400,2022-10-12 10:14:14,45.4389400142375,9.05594812787947,8.4,,,128.1447586,8.6,0,0.196055,1.14695,18,5,24.705,128.1447586,8.4,0.14,0.218455,0,0,-0.9,53.1, 0.3, 0.5,0,0,1024,1024,1312,1024,0,0,44,0,0,0,95,4.099,4.125,4.129,4.125,4.121,4.106,0,,128.1447586,8.4,6,P-GPS,
17500,2022-10-12 10:14:14,45.4389399830316,9.05594812115828,8.5,,,128.2447586,8.7,0,0.19303,1.15046,18,5,24.705,128.2447586,8.5,0.14,0.218455,0,0,-0.9,53.1, 0.1, 0.2,0,0,1024,1024,1315,1024,0,0,44,0,0,0,95,4.099,4.125,4.129,4.125,4.121,4.106,0,,128.2447586,8.5,6,P-GPS,
17600,2022-10-12 10:14:15,45.4389399439205,9.05594810314811,8.6,,,128.3447586,8.8,0,0.189554,1.15503,18,5,24.705,128.3447586,8.6,0.14,0.218455,0,0,-1,53.1, 0, 0,0,0,1024,1024,1319,1024,0,0,45,0,0,0,95,4.099,4.125,4.129,4.125,4.121,4.106,0,,128.3447586,8.6,6,P-GPS,
17700,2022-10-12 10:14:15,45.4389399453845,9.05594803312046,8.7,,,128.4447586,8.9,0,0.191906,1.16049,18,5,24.705,128.4447586,8.7,0.14,0.218455,0,0,-1,53.1, 0, 0,0,0,1024,1024,1320,1024,0,0,45,0,0,0,95,4.099,4.125,4.129,4.125,4.121,4.106,0,,128.4447586,8.7,6,P-GPS,
17800,2022-10-12 10:14:15,45.4389399705822,9.055948043071,8.8,,,128.5447586,9,0,0.194143,1.1634,18,5,24.705,128.5447586,8.8,0.14,0.218455,0,0,-1,53.1, 0.1, 0.2,0,0,1024,1024,1317,1024,0,0,44,0,0,0,95,4.099,4.125,4.129,4.125,4.121,4.106,0,,128.5447586,8.8,6,P-GPS,
17900,2022-10-12 10:14:15,45.4389400134966,9.05594806816405,8.9,,,128.6447586,9.1,0,0.197744,1.16856,18,5,24.705,128.6447586,8.9,0.14,0.218455,0,0,-1,53.1, 0.3, 0.4,0,0,1024,1024,1318,1024,0,0,45,0,0,0,95,4.099,4.125,4.129,4.125,4.121,4.106,0,,128.6447586,8.9,6,P-GPS,
18000,2022-10-12 10:14:15,45.4389400857889,9.05594803436123,9,,,128.7447586,9.2,0,0.206177,1.17702,18,5,24.705,128.7447586,9,0.14,0.218455,0,0,-1,53, 0.4, 0.6,0,0,1024,1024,1315,1024,0,0,44,0,0,0,95,4.099,4.125,4.129,4.125,4.121,4.106,0,,128.7447586,9,6,P-GPS,
18100,2022-10-12 10:14:15,45.438940373653,9.05594794675073,9.1,,,128.8447586,9.3,0,0.238425,1.20976,18,5,24.705,128.8447586,9.1,0.14,0.238425,0,0,-1,53, 0.4, 0.7,0,0,1024,1024,1313,1024,0,0,44,0,0,0,95,4.099,4.125,4.129,4.125,4.121,4.106,0,,128.8447586,9.1,6,P-GPS,
18200,2022-10-12 10:14:15,45.4389404032288,9.05594790639002,9.2,,,128.9447586,9.4,0,0.242638,1.21431,18,5,24.694,128.9447586,9.2,0.14,0.242638,0,0,-1,53, 0.2, 0.9,0,0,1024,1024,1310,1024,0,0,43,0,0,0,95,4.099,4.124,4.125,4.123,4.12,4.103,0,,128.9447586,9.2,6,P-GPS,
18300,2022-10-12 10:14:15,45.4389404119215,9.05594787515114,9.3,,,129.0447586,9.5,0,0.244443,1.21693,18,5,24.694,129.0447586,9.3,0.14,0.244443,0,0,-1,53, 0.2, 1,0,0,1024,1024,1313,1024,0,0,44,0,0,0,95,4.099,4.124,4.125,4.123,4.12,4.103,0,,129.0447586,9.3,6,P-GPS,
18400,2022-10-12 10:14:15,45.4389404656072,9.05594786270839,9.4,,,129.1447586,9.6,0,0.250344,1.22298,18,5,24.694,129.1447586,9.4,0.14,0.250344,0,0,-1,53, 0.4, 1.1,0,0,1024,1024,1312,1024,0,0,44,0,0,0,95,4.099,4.124,4.125,4.123,4.12,4.103,0,,129.1447586,9.4,6,P-GPS,
18500,2022-10-12 10:14:15,45.4389405212503,9.05594786023602,9.5,,,129.2447586,9.7,0,0.25617,1.22917,18,5,24.694,129.2447586,9.5,0.14,0.25617,0,0,-1,53, 0.3, 1,0,0,1024,1024,1311,1024,0,0,43,0,0,0,95,4.099,4.124,4.125,4.123,4.12,4.103,0,,129.2447586,9.5,6,P-GPS,
18600,2022-10-12 10:14:16,45.4389404621402,9.05594780739746,9.6,,,129.3447586,9.8,0,0.251622,1.23693,18,5,24.694,129.3447586,9.6,0.14,0.25617,0,0,-1,53, 0.1, 0.8,0,0,1024,1024,1308,1024,0,0,43,0,0,0,95,4.099,4.124,4.125,4.123,4.12,4.103,0,,129.3447586,9.6,6,P-GPS,
18700,2022-10-12 10:14:16,45.4389403586705,9.0559477312194,9.7,,,129.4447586,9.9,0,0.243509,1.24988,18,5,24.694,129.4447586,9.7,0.14,0.25617,0,0,-1,52.9, 0, 0.8,0,0,1024,1024,1301,1024,0,0,42,0,0,0,95,4.099,4.124,4.125,4.123,4.12,4.103,0,,129.4447586,9.7,6,P-GPS,
18800,2022-10-12 10:14:16,45.4389403140495,9.05594763605138,9.9,,,129.6447586,10,0,0.242322,1.25881,18,5,24.694,129.6447586,9.9,0.14,0.25617,0,0,-1,52.9, -0.2, 0.8,0,0,1024,1024,1303,1024,0,0,42,0,0,0,95,4.099,4.124,4.125,4.123,4.12,4.103,0,,129.6447586,9.9,6,P-GPS,
18900,2022-10-12 10:14:16,45.438940284503,9.05594754390668,10,,,129.7447586,10.1,0,0.242809,1.26672,18,5,24.694,129.7447586,10,0.14,0.25617,0,0,-1,52.9, -0.2, 0.7,0,0,1024,1024,1309,1024,0,0,43,0,0,0,95,4.099,4.124,4.125,4.123,4.12,4.103,0,,129.7447586,10,6,P-GPS,
19000,2022-10-12 10:14:16,45.4389403329346,9.05594738522464,10.1,,,129.8447586,10.2,0,0.253659,1.28022,18,5,24.694,129.8447586,10.1,0.14,0.25617,0,0,-1,52.9, -0.3, 0.6,0,0,1024,1024,1304,1024,0,0,42,0,0,0,95,4.099,4.124,4.125,4.123,4.12,4.103,0,,129.8447586,10.1,6,P-GPS,
19100,2022-10-12 10:14:16,45.4389403180278,9.05594736734878,10.2,,,129.9447586,10.3,0,0.25296,1.28239,18,5,24.694,129.9447586,10.2,0.14,0.25617,0,0,-1,52.8, -0.1, 0.6,0,0,1024,1024,1306,1024,0,0,43,0,0,0,95,4.099,4.124,4.125,4.123,4.12,4.103,0,,129.9447586,10.2,6,P-GPS,
19200,2022-10-12 10:14:16,45.4389403633026,9.05594736378826,10.3,,,130.0447586,10.4,0,0.257416,1.28743,18,5,24.72,130.0447586,10.3,0.14,0.257416,0,0,-1,52.8, 0.1, 0.8,0,0,1024,1024,1305,1024,0,0,43,0,0,0,95,4.104,4.129,4.129,4.125,4.123,4.11,0,,130.0447586,10.3,6,P-GPS,
19300,2022-10-12 10:14:16,45.4389404211873,9.05594736302213,10.4,,,130.1447586,10.5,0,0.262995,1.29387,18,5,24.72,130.1447586,10.4,0.14,0.262995,0,0,-1,52.8, 0.2, 1,0,0,1024,1024,1308,1024,0,0,43,0,0,0,95,4.104,4.129,4.129,4.125,4.123,4.11,0,,130.1447586,10.4,6,P-GPS,
19400,2022-10-12 10:14:16,45.4389404900004,9.05594734754081,10.5,,,130.2447586,10.6,0,0.270235,1.30161,18,5,24.72,130.2447586,10.5,0.14,0.270235,0,0,-1,52.8, 0.3, 1.1,0,0,1024,1024,1312,1024,0,0,44,0,0,0,95,4.104,4.129,4.129,4.125,4.123,4.11,0,,130.2447586,10.5,6,P-GPS,
19500,2022-10-12 10:14:17,45.4389404621402,9.05594734614438,10.6,,,130.3447586,10.7,0,0.267598,1.30471,18,5,24.72,130.3447586,10.6,0.14,0.270235,0,0,-1,52.8, 0.3, 1,0,0,1024,1024,1292,1024,0,0,41,0,0,0,95,4.104,4.129,4.129,4.125,4.123,4.11,0,,130.3447586,10.6,6,P-GPS,
19600,2022-10-12 10:14:17,45.438940437992,9.05594733476994,10.7,,,130.4447586,10.8,0,0.265719,1.30754,18,5,24.72,130.4447586,10.7,0.14,0.270235,0,0,-1,52.8, 0.3, 1,0,0,1024,1024,1152,1024,0,0,19,0,0,0,95,4.104,4.129,4.129,4.125,4.123,4.11,0,,130.4447586,10.7,6,P-GPS,
19700,2022-10-12 10:14:17,45.4389404073822,9.05594732304448,10.8,,,130.5447586,10.9,0,0.263254,1.31107,18,5,24.72,130.5447586,10.8,0.14,0.270235,0,0,-1,52.8, 0.5, 1,0,0,1024,1024,1251,1024,0,0,34,0,0,0,95,4.104,4.129,4.129,4.125,4.123,4.11,0,,130.5447586,10.8,6,P-GPS,
19800,2022-10-12 10:14:17,45.4389406121614,9.05594719051923,10.9,,,130.6447586,11,0,0.288121,1.33608,18,5,24.72,130.6447586,10.9,0.14,0.288121,0,0,-0.8,52.8, 0.8, 1.1,0,0,1024,1024,1247,1024,0,0,34,0,0,0,95,4.104,4.129,4.129,4.125,4.123,4.11,0,,130.6447586,10.9,6,P-GPS,
19900,2022-10-12 10:14:17,45.4389406581055,9.05594715826393,10.9,,,130.6447586,11,0,0.293802,1.34177,18,5,24.72,130.6447586,10.9,0.14,0.293802,0,0,-0.7,52.8, 0.8, 1.1,0,0,1024,1024,1315,1024,0,0,44,0,0,0,95,4.104,4.129,4.129,4.125,4.123,4.11,0,,130.6447586,10.9,6,P-GPS,
20000,2022-10-12 10:14:17,45.4389406028003,9.0559471249159,11,,,130.7447586,11.1,0,0.289847,1.34845,18,5,24.72,130.7447586,11,0.14,0.293802,0,0,-0.6,52.8, 0.6, 1,0,0,1024,1024,1327,1024,0,0,46,0,0,0,95,4.104,4.129,4.129,4.125,4.123,4.11,0,,130.7447586,11,6,P-GPS,
20100,2022-10-12 10:14:17,45.4389404983332,9.05594709807845,11.1,,,130.8447586,11.2,0.1,0.281114,1.36026,18,5,24.72,130.8447586,11.1,0.14,0.293802,-0.1,0,-0.7,52.8, 0.3, 0.9,0,0,1024,1024,1324,1024,0,0,45,0,0,0,95,4.104,4.129,4.129,4.125,4.123,4.11,0,,130.8447586,11.1,6,P-GPS,
20200,2022-10-12 10:14:17,45.4389403609389,9.05594706180936,11.2,,,130.9447586,11.3,0.1,0.270029,1.3758,18,5,24.664,130.9447586,11.2,0.14,0.293802,-0.1,0,-0.8,52.9, 0, 0.6,0,0,1024,1024,1328,1024,0,0,46,0,0,0,95,4.094,4.117,4.12,4.118,4.115,4.1,0,,130.9447586,11.2,6,P-GPS,
20300,2022-10-12 10:14:17,45.4389400502416,9.05594693017843,11.3,,,131.0447586,11.4,0.1,0.249296,1.41184,18,5,24.664,131.0447586,11.3,0.14,0.293802,-0.1,0,-1,52.9, 0, 0.3,0,0,1024,1024,1325,1024,0,0,46,0,0,0,95,4.094,4.117,4.12,4.118,4.115,4.1,0,,131.0447586,11.3,6,P-GPS,
20400,2022-10-12 10:14:17,45.4389399568511,9.05594695201467,11.4,,,131.1447586,11.5,0.1,0.240469,1.42237,18,5,24.664,131.1447586,11.4,0.14,0.293802,-0.1,0,-1,52.9, 0, 0,0,0,1024,1024,1334,1024,0,0,47,0,0,0,95,4.094,4.117,4.12,4.118,4.115,4.1,0,,131.1447586,11.4,6,P-GPS,
20500,2022-10-12 10:14:18,45.4389398811871,9.0559469764179,11.5,,,131.2447586,11.6,0.1,0.233057,1.43099,18,5,24.664,131.2447586,11.5,0.14,0.293802,-0.1,0,-1.1,52.8, 0, 0,0,0,1024,1024,1368,1024,0,0,52,0,0,0,95,4.094,4.117,4.12,4.118,4.115,4.1,0,,131.2447586,11.5,6,P-GPS,
20600,2022-10-12 10:14:18,45.4389397942632,9.05594695338363,11.6,,,131.3447586,11.7,0,0.227502,1.44082,18,5,24.664,131.3447586,11.6,0.14,0.293802,0,0,-1.1,52.8, -0.1, 0,0,0,1024,1024,1370,1024,0,0,52,0,0,0,95,4.094,4.117,4.12,4.118,4.115,4.1,0,,131.3447586,11.6,6,P-GPS,
20700,2022-10-12 10:14:18,45.4389397310112,9.05594689403144,11.7,,,131.4447586,11.7,0,0.22611,1.44925,18,5,24.664,131.4447586,11.7,0.14,0.293802,0,0,-1.1,52.8, -0.3, 0,0,0,1024,1024,1368,1024,0,0,52,0,0,0,95,4.094,4.117,4.12,4.118,4.115,4.1,0,,131.4447586,11.7,6,P-GPS,
20800,2022-10-12 10:14:18,45.4389397364331,9.05594688669215,11.8,,,131.5447586,11.7,0,0.226939,1.45008,18,5,24.664,131.5447586,11.8,0.14,0.293802,0,0,-1.2,52.9, -0.3, 0.1,0,0,1024,1024,1368,1024,0,0,52,0,0,0,95,4.094,4.117,4.12,4.118,4.115,4.1,0,,131.5447586,11.8,6,P-GPS,
20900,2022-10-12 10:14:18,45.4389397846652,9.05594689806049,11.9,,,131.6447586,11.7,0,0.229902,1.45551,18,5,24.664,131.6447586,11.9,0.14,0.293802,0,0,-1.3,52.9, 0, 0,0,0,1024,1024,1365,1024,0,0,52,0,0,0,94,4.094,4.117,4.12,4.118,4.115,4.1,0,,131.6447586,11.9,6,P-GPS,
21000,2022-10-12 10:14:18,45.4389398307086,9.05594691146013,12.1,,,131.8447586,11.7,0,0.23267,1.46074,18,5,24.664,131.8447586,12.1,0.14,0.293802,0,0,-1.3,53, 0.2, 0,0,0,1024,1024,1367,1024,0,0,52,0,0,0,94,4.094,4.117,4.12,4.118,4.115,4.1,0,,131.8447586,12.1,6,P-GPS,
21100,2022-10-12 10:14:18,45.438940087011,9.05594693411439,12.2,,,131.9447586,11.7,0,0.252164,1.4893,18,5,24.664,131.9447586,12.2,0.14,0.293802,0,0,-1.3,53.1, 0.4, 0,0,0,1024,1024,1363,1024,0,0,51,0,0,0,94,4.094,4.117,4.12,4.118,4.115,4.1,0,,131.9447586,12.2,6,P-GPS,
21200,2022-10-12 10:14:18,45.4389401446498,9.05594690389651,12.4,,,132.1447586,11.7,0,0.25856,1.49613,18,5,24.631,132.1447586,12.4,0.14,0.293802,0,0,-1.4,53.1, 0.3, 0.1,0,0,1024,1024,1367,1024,0,0,52,0,0,0,94,4.086,4.112,4.115,4.113,4.11,4.095,0,,132.1447586,12.4,6,P-GPS,
21300,2022-10-12 10:14:18,45.4389402168444,9.0559468592885,12.5,,,132.2447586,11.7,0,0.26694,1.50488,18,5,24.631,132.2447586,12.5,0.14,0.293802,0,0,-1.4,53.1, 0.3, 0.3,0,0,1024,1024,1361,1024,0,0,51,0,0,0,94,4.086,4.112,4.115,4.113,4.11,4.095,0,,132.2447586,12.5,6,P-GPS,
21400,2022-10-12 10:14:18,45.4389402751216,9.05594687211432,12.7,,,132.4447586,11.7,0,0.271315,1.51144,18,5,24.631,132.4447586,12.7,0.14,0.293802,0,0,-1.4,53.2, 0.4, 0.4,0,0,1024,1024,1369,1024,0,0,52,0,0,0,94,4.086,4.112,4.115,4.113,4.11,4.095,0,,132.4447586,12.7,6,P-GPS,
21500,2022-10-12 10:14:19,45.4389404169273,9.05594692863244,12.8,,,132.5447586,11.7,0,0.281145,1.52781,18,5,24.631,132.5447586,12.8,0.14,0.293802,0,0,-1.4,53.2, 0.5, 0.5,0,0,1024,1024,1368,1024,0,0,52,0,0,0,94,4.086,4.112,4.115,4.113,4.11,4.095,0,,132.5447586,12.8,6,P-GPS,
21600,2022-10-12 10:14:19,45.4389404804977,9.05594703409438,13,,,132.7447586,11.7,0,0.282208,1.53866,18,5,24.631,132.7447586,13,0.14,0.293802,0,0,-1.4,53.3, 0.8, 0.5,0,0,1024,1024,1366,1024,0,0,52,0,0,0,94,4.086,4.112,4.115,4.113,4.11,4.095,0,,132.7447586,13,6,P-GPS,
21700,2022-10-12 10:14:19,45.4389405445615,9.05594716466157,13.1,,,132.8447586,11.7,0,0.282702,1.55109,18,5,24.631,132.8447586,13.1,0.14,0.293802,0,0,-1.4,53.3, 0.9, 0.5,0,0,1024,1024,1370,1024,0,0,52,0,0,0,94,4.086,4.112,4.115,4.113,4.11,4.095,0,,132.8447586,13.1,6,P-GPS,
