time(millisecond),datetime(utc),latitude,longitude,height_above_takeoff(meters),height_above_ground_at_drone_location(meters),ground_elevation_at_drone_location(meters),altitude_above_seaLevel(meters),height_sonar(meters),speed(m/s),distance(meters),mileage(meters),satellites,gpslevel,voltage(v),max_altitude(meters),max_ascent(meters),max_speed(m/s),max_distance(meters), xSpeed(m/s), ySpeed(m/s), zSpeed(m/s), compass_heading(degrees), pitch(degrees), roll(degrees),isPhoto,isVideo,rc_elevator,rc_aileron,rc_throttle,rc_rudder,rc_elevator(percent),rc_aileron(percent),rc_throttle(percent),rc_rudder(percent),gimbal_heading(degrees),gimbal_pitch(degrees),battery_percent,voltageCell1,voltageCell2,voltageCell3,voltageCell4,voltageCell5,voltageCell6,current(A),battery_temperature(c),altitude(meters),ascent(meters),flycStateRaw,flycState,message
0,2022-10-12 09:51:54,45.4389523846335,9.05595283639146,0,Available with any HD 360 subscription,Available with any HD 360 subscription,119.7507248,0.1,0,0,0,15,5,0,119.7507248,0,0,0,0,0,0,60.3, 0.9, 0.3,0,0,1024,1024,1024,1024,0,0,0,0,0,0,92,4.233,4.235,4.222,4.232,4.229,4.235,0,,119.7507248,0,41,Motors_Started,"GEO: You are in a Warning Zone (Class D Airspace). Fly with caution."
100,2022-10-12 09:51:54,45.4389523957159,9.05595282037597,0,,,119.7507248,0.1,0,0.00175516,0.00175516,15,5,0,119.7507248,0,0,0.00175516,0,0,0,60.2, 0.9, 0.3,0,0,1024,1024,1024,1024,0,0,0,0,0,0,92,4.233,4.235,4.222,4.232,4.229,4.235,0,,119.7507248,0,41,Motors_Started,"Home Point recorded. Return-to-Home Altitude:45M"
200,2022-10-12 09:51:54,45.4389524064042,9.05595286061767,0,,,119.7507248,0.1,0,0.00307163,0.00511265,15,5,0,119.7507248,0,0,0.00307163,0,0,0,60.2, 0.9, 0.3,0,0,1024,1024,1024,1024,0,0,0,0,0,0,92,4.233,4.235,4.222,4.232,4.229,4.235,0,,119.7507248,0,41,Motors_Started,
300,2022-10-12 09:51:54,45.4389524219021,9.05595289564258,0,,,119.7507248,0.1,0,0.00620904,0.00834368,15,5,0,119.7507248,0,0,0.00620904,0,0,0,60.2, 0.9, 0.3,0,0,1024,750,1024,1508,0,-42,0,73,0,0,92,4.233,4.235,4.222,4.232,4.229,4.235,0,,119.7507248,0,41,Motors_Started,
400,2022-10-12 09:51:54,45.4389524821309,9.05595290589873,0,,,119.7507248,0.1,0,0.0121232,0.0150891,15,5,0,119.7507248,0,0,0.0121232,0,0,0,60.2, 0.9, 0.3,0,0,1024,1024,1024,1024,0,0,0,0,0,0,92,4.233,4.235,4.222,4.232,4.229,4.235,0,,119.7507248,0,41,Motors_Started,
500,2022-10-12 09:51:55,45.4389526069739,9.05595290637527,0,,,119.7507248,0.1,0,0.0253215,0.0289725,15,5,0,119.7507248,0,0,0.0253215,0,0,0,60.2, 0.9, 0.3,0,0,1024,1024,1024,1024,0,0,0,0,0,0,92,4.233,4.235,4.222,4.232,4.229,4.235,0,,119.7507248,0,41,Motors_Started,
600,2022-10-12 09:51:55,45.4389526095119,9.05595291014221,0,,,119.7507248,0.1,0,0.0256614,0.02938,15,5,0,119.7507248,0,0,0.0256614,0,0,0,60.2, 0.9, 0.3,0,0,1024,1024,1024,1024,0,0,0,0,0,0,92,4.233,4.235,4.222,4.232,4.229,4.235,0,,119.7507248,0,41,Motors_Started,
700,2022-10-12 09:51:55,45.4389526065229,9.05595291580234,0,,,119.7507248,0.1,0,0.0254416,0.0299327,15,5,0,119.7507248,0,0,0.0256614,0,0,0,60.2, 0.9, 0.3,0,0,1024,1024,1024,1024,0,0,0,0,0,0,92,4.233,4.235,4.222,4.232,4.229,4.235,0,,119.7507248,0,41,Motors_Started,
800,2022-10-12 09:51:55,45.4389525809262,9.05595291838002,0,,,119.7507248,0.1,0,0.0227471,0.0327864,15,5,0,119.7507248,0,0,0.0256614,0,0,0,60.2, 0.9, 0.3,0,0,1024,1024,1024,1024,0,0,0,0,0,0,92,4.233,4.235,4.222,4.232,4.229,4.235,0,,119.7507248,0,41,Motors_Started,
900,2022-10-12 09:51:55,45.438952509847,9.05595285359697,0,,,119.7507248,0.1,0,0.0139891,0.042169,14,5,0,119.7507248,0,0,0.0256614,0,0,0,60.2, 0.9, 0.3,0,0,1024,1024,1024,1024,0,0,0,0,0,0,92,4.233,4.235,4.222,4.232,4.229,4.235,0,,119.7507248,0,41,Motors_Started,
1000,2022-10-12 09:51:55,45.4389525346792,9.05595285675878,0,,,119.7507248,0.1,0,0.0167615,0.0449414,14,5,0,119.7507248,0,0,0.0256614,0,0,0,60.2, 0.9, 0.3,0,0,1024,1024,1024,1024,0,0,0,0,0,0,92,4.233,4.235,4.222,4.232,4.229,4.235,0,,119.7507248,0,41,Motors_Started,
1100,2022-10-12 09:51:55,45.4389525542319,9.05595286042003,0,,,119.7507248,0.1,0,0.0189533,0.0471345,14,5,0,119.7507248,0,0,0.0256614,0,0,0,60.2, 0.9, 0.3,0,0,1024,1024,1024,1024,0,0,0,0,0,0,92,4.233,4.235,4.222,4.232,4.229,4.235,0,,119.7507248,0,41,Motors_Started,
1200,2022-10-12 09:51:55,45.4389525529422,9.05595286111291,0,,,119.7507248,0.1,0,0.0188161,0.0472878,14,5,0,119.7507248,0,0,0.0256614,0,0,0,60.2, 0.9, 0.3,0,0,1024,1024,1024,1024,0,0,0,0,0,0,92,4.233,4.235,4.222,4.232,4.229,4.235,0,,119.7507248,0,41,Motors_Started,
1300,2022-10-12 09:51:55,45.438952552211,9.05595286979369,0,,,119.7507248,0.1,0,0.018817,0.04797,14,5,0,119.7507248,0,0,0.0256614,0,0,0,60.2, 0.9, 0.3,0,0,1024,1024,1024,1024,0,0,0,0,0,0,92,4.233,4.235,4.222,4.232,4.229,4.235,0,,119.7507248,0,41,Motors_Started,
1400,2022-10-12 09:51:56,45.4389525588355,9.05595293347447,0,,,119.7507248,0.1,0,0.0208008,0.0529933,14,5,0,119.7507248,0,0,0.0256614,0,0,0,60.2, 0.9, 0.3,0,0,1024,1024,1024,1024,0,0,0,0,0,0,92,4.233,4.235,4.222,4.232,4.229,4.235,0,,119.7507248,0,41,Motors_Started,
1500,2022-10-12 09:51:56,45.4389525606374,9.05595299195526,0,,,119.7507248,0.1,0,0.0230312,0.057561,14,5,25.386,119.7507248,0,0,0.0256614,0,0,0,60.1, 0.9, 0.3,0,0,1024,1024,1024,1024,0,0,0,0,0,0,92,4.233,4.235,4.222,4.232,4.229,4.235,0,,119.7507248,0,10,Assisted_Takeoff,
1600,2022-10-12 09:51:56,45.4389525521361,9.05595300803637,0,,,119.7507248,0.2,0,0.0229425,0.0591321,14,5,25.386,119.7507248,0,0,0.0256614,0,0,0,60.1, 0.9, 0.3,0,0,1024,1024,1024,1024,0,0,0,0,0,0,92,4.233,4.235,4.222,4.232,4.229,4.235,0,,119.7507248,0,10,Assisted_Takeoff,
1700,2022-10-12 09:51:56,45.4389525558685,9.0559530199671,0,,,119.7507248,0.2,0,0.0238285,0.0601513,14,5,25.386,119.7507248,0,0,0.0256614,0,0,0,60.1, 0.9, 0.3,0,0,1024,1024,1024,1024,0,0,0,0,0,0,92,4.233,4.235,4.222,4.232,4.229,4.235,0,,119.7507248,0,10,Assisted_Takeoff,
1800,2022-10-12 09:51:56,45.4389526776403,9.05595296844902,0,,,119.7507248,0.2,0,0.0341747,0.0742772,14,5,25.386,119.7507248,0,0,0.0341747,0,0,0,60.1, 0.9, 0.3,0,0,1024,1024,1024,1024,0,0,0,0,0,0,92,4.233,4.235,4.222,4.232,4.229,4.235,0,,119.7507248,0,10,Assisted_Takeoff,
1900,2022-10-12 09:51:56,45.438952720163,9.05595297517479,0,,,119.7507248,0.2,0,0.0388526,0.079035,14,5,25.386,119.7507248,0,0,0.0388526,0,0,0,60.1, 0.9, 0.3,0,0,1024,1024,1024,1024,0,0,0,0,0,0,92,4.233,4.235,4.222,4.232,4.229,4.235,0,,119.7507248,0,10,Assisted_Takeoff,
2000,2022-10-12 09:51:56,45.4389527435304,9.05595298310012,0,,,119.7507248,0.2,0,0.0415208,0.0817062,14,5,25.386,119.7507248,0,0,0.0415208,0,0,0,60.1, 0.9, 0.2,0,0,1024,1024,1024,1024,0,0,0,0,0,0,92,4.233,4.235,4.222,4.232,4.229,4.235,0,,119.7507248,0,10,Assisted_Takeoff,
2100,2022-10-12 09:51:56,45.4389527654671,9.05595299367181,0,,,119.7507248,0.2,0,0.0440934,0.0842814,14,5,25.386,119.7507248,0,0,0.0440934,0,0,0,60.1, 0.9, 0.3,0,0,1024,1024,1024,1024,0,0,0,0,0,0,92,4.233,4.235,4.222,4.232,4.229,4.235,0,,119.7507248,0,10,Assisted_Takeoff,
2200,2022-10-12 09:51:56,45.4389527563788,9.05595307274426,0,,,119.7507248,0.2,0,0.0452676,0.0905336,14,5,25.386,119.7507248,0,0,0.0452676,0,0,0,60.1, 0.9, 0.3,0,0,1024,1024,1024,1024,0,0,0,0,0,0,92,4.233,4.235,4.222,4.232,4.229,4.235,0,,119.7507248,0,10,Assisted_Takeoff,
2300,2022-10-12 09:51:56,45.4389527659133,9.05595312723644,0,,,119.7507248,0.2,0,0.0480922,0.0949158,14,5,25.386,119.7507248,0,0,0.0480922,0,0,0,60.1, 0.9, 0.3,0,0,1024,1024,1024,1024,0,0,0,0,0,0,92,4.233,4.235,4.222,4.232,4.229,4.235,0,,119.7507248,0,10,Assisted_Takeoff,
2400,2022-10-12 09:51:56,45.4389527675874,9.05595315463629,0,,,119.7507248,0.2,0,0.049298,0.0970619,14,5,25.386,119.7507248,0,0,0.049298,0,0,0,60.1, 0.9, 0.3,0,0,1024,1024,1024,1024,0,0,0,0,0,0,92,4.233,4.235,4.222,4.232,4.229,4.235,0,,119.7507248,0,10,Assisted_Takeoff,
2500,2022-10-12 09:51:57,45.4389527770226,9.0559531703847,0,,,119.7507248,0.2,0,0.0508262,0.0986778,14,5,25.054,119.7507248,0,0,0.0508262,0,0,0,60.1, 0.9, 0.3,0,0,1024,1024,1024,1024,0,0,0,0,0,0,92,4.171,4.175,4.172,4.175,4.178,4.183,0,,119.7507248,0,10,Assisted_Takeoff,
2600,2022-10-12 09:51:57,45.4389528632642,9.05595309476403,0,,,119.7507248,0.2,0,0.0569169,0.109938,14,5,25.054,119.7507248,0,0,0.0569169,0,0,0,60.1, 0.9, 0.3,0,0,1024,1024,1024,1024,0,0,0,0,0,0,92,4.171,4.175,4.172,4.175,4.178,4.183,0,,119.7507248,0,10,Assisted_Takeoff,
2700,2022-10-12 09:51:57,45.4389529163107,9.05595310134214,0,,,119.7507248,0.2,0,0.062636,0.11586,14,5,25.054,119.7507248,0,0,0.062636,0,0,0,60, 0.9, 0.3,0,0,1024,1024,1024,1024,0,0,0,0,0,0,92,4.171,4.175,4.172,4.175,4.178,4.183,0,,119.7507248,0,10,Assisted_Takeoff,
2800,2022-10-12 09:51:57,45.4389529464671,9.05595314947483,0,,,119.7507248,0.1,0,0.0670856,0.120895,14,5,25.054,119.7507248,0,0,0.0670856,0,0,0,60, 0.9, 0.3,0,0,1024,1024,1024,1024,0,0,0,0,0,0,92,4.171,4.175,4.172,4.175,4.178,4.183,0,,119.7507248,0,10,Assisted_Takeoff,
2900,2022-10-12 09:51:57,45.4389529822945,9.05595319108358,0,,,119.7507248,0.1,0,0.0719958,0.126034,14,5,25.054,119.7507248,0,0,0.0719958,0,0,0,60, 0.9, 0.3,0,0,1024,1024,1024,1024,0,0,0,0,0,0,92,4.171,4.175,4.172,4.175,4.178,4.183,0,,119.7507248,0,10,Assisted_Takeoff,
3000,2022-10-12 09:51:57,45.4389530620385,9.0559532015904,0,,,119.7507248,0.2,0,0.0805412,0.13494,14,5,25.054,119.7507248,0,0,0.0805412,0,0,0,60, 0.9, 0.3,0,0,1024,1024,1024,1024,0,0,0,0,0,0,92,4.171,4.175,4.172,4.175,4.178,4.183,0,,119.7507248,0,10,Assisted_Takeoff,
3100,2022-10-12 09:51:57,45.4389531196317,9.05595321072369,0,,,119.7507248,0.1,0,0.0867986,0.141384,14,5,25.054,119.7507248,0,0,0.0867986,0,0,0,60, 0.9, 0.3,0,0,1024,1024,1024,1024,0,0,0,0,0,0,92,4.171,4.175,4.172,4.175,4.178,4.183,0,,119.7507248,0,10,Assisted_Takeoff,
3200,2022-10-12 09:51:57,45.4389531438491,9.05595324915841,0,,,119.7507248,0.1,0,0.0903642,0.145415,14,5,25.054,119.7507248,0,0,0.0903642,0,0,0,60, 0.9, 0.3,0,0,1024,1024,1024,1024,0,0,0,0,0,0,92,4.171,4.175,4.172,4.175,4.178,4.183,0,,119.7507248,0,10,Assisted_Takeoff,
3300,2022-10-12 09:51:57,45.4389531695769,9.05595327960256,0,,,119.7507248,0.1,0,0.0938918,0.149134,14,5,25.054,119.7507248,0,0,0.0938918,0,0,0,60, 0.9, 0.3,0,0,1024,1024,1024,1024,0,0,0,0,0,0,92,4.171,4.175,4.172,4.175,4.178,4.183,0,,119.7507248,0,10,Assisted_Takeoff,
3400,2022-10-12 09:51:57,45.4389532234434,9.05595328149042,0,,,119.7507248,0.1,0,0.0995366,0.155126,14,5,25.054,119.7507248,0,0,0.0995366,0,0,0,60, 0.9, 0.3,0,0,1024,1024,1024,1024,0,0,0,0,0,0,92,4.171,4.175,4.172,4.175,4.178,4.183,0,,119.7507248,0,10,Assisted_Takeoff,
3500,2022-10-12 09:51:58,45.4389532331196,9.05595327330679,0,,,119.7507248,0.2,0,0.100327,0.156377,14,5,25.054,119.7507248,0,0,0.100327,0,0,0,60, 0.9, 0.3,0,0,1024,1024,1024,1024,0,0,0,0,0,0,92,4.171,4.175,4.172,4.175,4.178,4.183,0,,119.7507248,0,10,Assisted_Takeoff,
3600,2022-10-12 09:51:58,45.4389532374464,9.05595325953208,0,,,119.7507248,0.2,0,0.100421,0.157555,14,5,25.342,119.7507248,0,0,0.100421,0,0,0,60, 0.9, 0.3,0,0,1024,1024,1024,1024,0,0,0,0,0,0,92,4.225,4.227,4.215,4.224,4.223,4.228,0,,119.7507248,0,10,Assisted_Takeoff,
3700,2022-10-12 09:51:58,45.4389532430865,9.05595325711388,0,,,119.7507248,0.1,0,0.100952,0.15821,14,5,25.342,119.7507248,0,0,0.100952,0,0,0,60, 0.9, 0.3,0,0,1024,1024,1024,1024,0,0,0,0,0,0,92,4.225,4.227,4.215,4.224,4.223,4.228,0,,119.7507248,0,10,Assisted_Takeoff,
3800,2022-10-12 09:51:58,45.4389532784115,9.05595330710505,0,,,119.7507248,0.1,0,0.105963,0.163746,14,5,25.342,119.7507248,0,0,0.105963,0,0,0,60, 0.9, 0.3,0,0,1024,1024,1024,1024,0,0,0,0,0,0,92,4.225,4.227,4.215,4.224,4.223,4.228,0,,119.7507248,0,10,Assisted_Takeoff,
3900,2022-10-12 09:51:58,45.4389532568289,9.05595338559298,0,,,119.7507248,0.1,0,0.106039,0.170324,14,5,25.342,119.7507248,0,0,0.106039,0,0,0,60, 0.9, 0.3,0,0,1024,1024,1024,1024,0,0,0,0,0,0,92,4.225,4.227,4.215,4.224,4.223,4.228,0,,119.7507248,0,10,Assisted_Takeoff,
4000,2022-10-12 09:51:58,45.4389532561922,9.05595340869747,0,,,119.7507248,0.1,0,0.106716,0.172128,14,5,25.342,119.7507248,0,0,0.106716,0,0,0,60, 0.9, 0.3,0,0,1024,1024,1024,1024,0,0,0,0,0,0,92,4.225,4.227,4.215,4.224,4.223,4.228,0,,119.7507248,0,10,Assisted_Takeoff,
4100,2022-10-12 09:51:58,45.4389532626221,9.05595343064016,0,,,119.7507248,0.1,0,0.108089,0.173984,14,5,25.342,119.7507248,0,0,0.108089,0,0,0,60, 1, 0.3,0,0,1024,1024,1024,1024,0,0,0,0,0,0,92,4.225,4.227,4.215,4.224,4.223,4.228,0,,119.7507248,0,10,Assisted_Takeoff,
4200,2022-10-12 09:51:58,45.4389533066699,9.05595343963151,0,,,119.7507248,0.1,0,0.112824,0.178932,14,5,25.342,119.7507248,0,0,0.112824,0,0,0,60, 0.9, 0.3,0,0,1024,1024,1029,1024,0,0,1,0,0,0,92,4.225,4.227,4.215,4.224,4.223,4.228,0,,119.7507248,0,10,Assisted_Takeoff,
4300,2022-10-12 09:51:58,45.4389533365226,9.05595339918302,0,,,119.7507248,0.1,0,0.114603,0.183513,14,5,25.342,119.7507248,0,0,0.114603,0,0,0,60, 0.9, 0.3,0,0,1024,1024,1048,1024,0,0,4,0,0,0,92,4.225,4.227,4.215,4.224,4.223,4.228,0,,119.7507248,0,10,Assisted_Takeoff,
4400,2022-10-12 09:51:58,45.4389533528461,9.0559534528362,0,,,119.7507248,0.1,0,0.117927,0.188076,14,5,25.342,119.7507248,0,0,0.117927,0,0,0,60.1, 0.9, 0.3,0,0,1024,1024,1110,1024,0,0,13,0,0,0,92,4.225,4.227,4.215,4.224,4.223,4.228,0,,119.7507248,0,10,Assisted_Takeoff,
4500,2022-10-12 09:51:59,45.4389533628586,9.05595350275296,0,,,119.7507248,0.1,0,0.120572,0.192127,14,5,25.342,119.7507248,0,0,0.120572,0,0,0,60.1, 1, 0.3,0,0,1024,1024,1146,1024,0,0,18,0,0,0,92,4.225,4.227,4.215,4.224,4.223,4.228,0,,119.7507248,0,10,Assisted_Takeoff,
4600,2022-10-12 09:51:59,45.4389533582517,9.05595352264641,0,,,119.7507248,0.1,0,0.12079,0.193761,14,5,25.339,119.7507248,0,0,0.12079,0,0,0,60.1, 0.9, 0.3,0,0,1024,1024,1150,1024,0,0,19,0,0,0,92,4.225,4.227,4.214,4.224,4.221,4.228,0,,119.7507248,0,10,Assisted_Takeoff,
4700,2022-10-12 09:51:59,45.4389532426476,9.05595359807479,0,,,119.7507248,0.1,0,0.112413,0.207901,14,5,25.339,119.7507248,0,0,0.12079,0,0,0,60.1, 0.9, 0.3,0,0,1024,1024,1161,1024,0,0,21,0,0,0,92,4.225,4.227,4.214,4.224,4.221,4.228,0,,119.7507248,0,10,Assisted_Takeoff,
4800,2022-10-12 09:51:59,45.438953227166,9.05595365860368,0,,,119.7507248,0.1,0,0.113555,0.212928,14,5,25.339,119.7507248,0,0,0.12079,0,0,0,60.1, 0.9, 0.3,0,0,1024,1024,1182,1024,0,0,24,0,0,0,92,4.225,4.227,4.214,4.224,4.221,4.228,0,,119.7507248,0,10,Assisted_Takeoff,
4900,2022-10-12 09:51:59,45.4389532073397,9.05595371618022,0,,,119.7507248,0.2,0,0.114382,0.217932,14,5,25.339,119.7507248,0,0,0.12079,0,0,0,60, 0.9, 0.3,0,0,1024,1024,1168,1024,0,0,22,0,0,0,92,4.225,4.227,4.214,4.224,4.221,4.228,0,,119.7507248,0,10,Assisted_Takeoff,
5000,2022-10-12 09:51:59,45.4389531846962,9.05595373360054,0,,,119.7507248,0.2,0,0.113213,0.220794,14,5,25.339,119.7507248,0,0,0.12079,0,0,0,60, 0.9, 0.3,0,0,1024,1024,1165,1024,0,0,21,0,0,0,92,4.225,4.227,4.214,4.224,4.221,4.228,0,,119.7507248,0,10,Assisted_Takeoff,
5100,2022-10-12 09:51:59,45.4389531592729,9.05595374959237,0,,,119.7507248,0.2,0,0.111796,0.223884,14,5,25.339,119.7507248,0,0,0.12079,0,0,0,60.1, 0.9, 0.3,0,0,1024,1024,1171,1024,0,0,22,0,0,0,92,4.225,4.227,4.214,4.224,4.221,4.228,0,,119.7507248,0,10,Assisted_Takeoff,
5200,2022-10-12 09:51:59,45.4389530993649,9.05595363480937,0,,,119.7507248,0.2,0,0.100989,0.235047,14,5,25.339,119.7507248,0,0,0.12079,0,0,0,60, 0.9, 0.2,0,0,1024,1024,1166,1024,0,0,22,0,0,0,92,4.225,4.227,4.214,4.224,4.221,4.228,0,,119.7507248,0,10,Assisted_Takeoff,
5300,2022-10-12 09:51:59,45.4389530785013,9.05595362891154,0,,,119.7507248,0.1,0,0.098885,0.237412,14,5,25.339,119.7507248,0,0,0.12079,0,0,0,60.1, 0.5, 0,0,0,1024,1024,1167,1024,0,0,22,0,0,0,92,4.225,4.227,4.214,4.224,4.221,4.228,0,,119.7507248,0,10,Assisted_Takeoff,
5400,2022-10-12 09:51:59,45.4389530690343,9.05595365797529,0,,,119.7507248,0.1,0,0.0995113,0.239912,14,5,25.339,119.7507248,0,0,0.12079,0,0,-0.1,60.1, -0.6, -0.1,0,0,1024,1024,1161,1024,0,0,21,0,0,0,92,4.225,4.227,4.214,4.224,4.221,4.228,0,,119.7507248,0,10,Assisted_Takeoff,
5500,2022-10-12 09:52:00,45.4389530724744,9.0559536773258,0,,,119.7507248,0.2,0,0.100781,0.24147,14,5,25.339,119.7507248,0,0,0.12079,0,0,-0.3,60.2, -1.4, 0,0,0,1024,1024,1157,1024,0,0,20,0,0,0,92,4.225,4.227,4.214,4.224,4.221,4.228,0,,119.7507248,0,6,P-GPS,
5600,2022-10-12 09:52:00,45.4389531480684,9.05595367721592,0,,,119.7507248,0.2,0,0.107296,0.249876,14,5,24.085,119.7507248,0,0,0.12079,0,0,-0.4,60.2, -1.2, 0.1,0,0,1024,1024,1160,1024,0,0,21,0,0,0,92,3.994,4.005,4.022,4.01,4.026,4.028,0,,119.7507248,0,6,P-GPS,
5700,2022-10-12 09:52:00,45.4389532132518,9.05595371101533,0.1,,,119.8507248,0.3,0,0.114668,0.25759,14,5,24.085,119.8507248,0.1,0,0.12079,0,0,-0.5,60.2, -0.5, 0.2,0,0,1024,1024,1155,1024,0,0,20,0,0,0,92,3.994,4.005,4.022,4.01,4.026,4.028,0,,119.8507248,0.1,6,P-GPS,
5800,2022-10-12 09:52:00,45.4389533401214,9.05595375430781,0.1,,,119.8507248,0.3,0,0.128142,0.272098,14,5,24.085,119.8507248,0.1,0,0.128142,0,0,-0.4,60.2, 0.1, 0.4,0,0,1024,1024,1152,1024,0,0,19,0,0,0,92,3.994,4.005,4.022,4.01,4.026,4.028,0,,119.8507248,0.1,6,P-GPS,
5900,2022-10-12 09:52:00,45.4389534551001,9.05595380671907,0.2,,,119.9507248,0.3,0,0.141081,0.285522,14,5,24.085,119.9507248,0.2,0,0.141081,0,0,-0.4,60.2, 0.6, 0.4,0,0,1024,1024,1150,1024,0,0,19,0,0,0,92,3.994,4.005,4.022,4.01,4.026,4.028,0,,119.9507248,0.2,6,P-GPS,
6000,2022-10-12 09:52:00,45.4389536307433,9.05595389585043,0.2,,,119.9507248,0.4,0,0.161361,0.306256,14,5,24.085,119.9507248,0.2,0,0.161361,0,0,-0.3,60.2, 0.9, 0.4,0,0,1024,1024,1151,1024,0,0,19,0,0,0,92,3.994,4.005,4.022,4.01,4.026,4.028,0,,119.9507248,0.2,6,P-GPS,
6100,2022-10-12 09:52:00,45.4389536996851,9.05595395374326,0.2,,,119.9507248,0.4,0,0.170259,0.315155,14,5,24.085,119.9507248,0.2,0,0.170259,0,0,-0.2,60.2, 0.8, 0.4,0,0,1024,1024,1154,1024,0,0,20,0,0,0,92,3.994,4.005,4.022,4.01,4.026,4.028,0,,119.9507248,0.2,6,P-GPS,
6200,2022-10-12 09:52:00,45.4389537632327,9.05595400015941,0.3,,,120.0507248,0.5,0,0.178185,0.323095,14,5,24.085,120.0507248,0.3,0,0.178185,0,0,-0.2,60.2, 0.6, 0.6,0,0,1024,1024,1163,1024,0,0,21,0,0,0,92,3.994,4.005,4.022,4.01,4.026,4.028,0,,120.0507248,0.3,6,P-GPS,
6300,2022-10-12 09:52:00,45.4389538185737,9.05595400983486,0.3,,,120.0507248,0.5,0,0.183881,0.329296,15,5,24.085,120.0507248,0.3,0,0.183881,0,0,-0.2,60.2, 0.3, 0.8,0,0,1024,1024,1160,1024,0,0,21,0,0,0,92,3.994,4.005,4.022,4.01,4.026,4.028,0,,120.0507248,0.3,6,P-GPS,
6400,2022-10-12 09:52:01,45.4389539280613,9.05595375897556,0.3,,,120.0507248,0.5,0,0.186124,0.352348,15,5,24.085,120.0507248,0.3,0,0.186124,0,0,-0.1,60.1, 0, 1,0,0,1024,1024,1155,1024,0,0,20,0,0,0,92,3.994,4.005,4.022,4.01,4.026,4.028,0,,120.0507248,0.3,6,P-GPS,
6500,2022-10-12 09:52:01,45.438953982111,9.05595365609163,0.3,,,120.0507248,0.5,0,0.188813,0.362377,15,5,24.085,120.0507248,0.3,0,0.188813,0,0,-0.1,60.1, -0.1, 1.1,0,0,1024,1024,1167,1024,0,0,22,0,0,0,92,3.994,4.005,4.022,4.01,4.026,4.028,0,,120.0507248,0.3,6,P-GPS,
6600,2022-10-12 09:52:01,45.438953983847,9.05595361794191,0.4,,,120.1507248,0.5,0,0.188008,0.36536,15,5,24.317,120.1507248,0.4,0,0.188813,0,0,-0.1,60.1, -0.2, 1,0,0,1024,1024,1169,1024,0,0,22,0,0,0,92,4.036,4.047,4.059,4.05,4.061,4.064,0,,120.1507248,0.4,6,P-GPS,
6700,2022-10-12 09:52:01,45.438953970085,9.05595359854065,0.4,,,120.1507248,0.6,0,0.186072,0.367513,15,5,24.317,120.1507248,0.4,0,0.188813,0,0,-0.1,60.1, 0, 0.5,0,0,1024,1024,1191,1024,0,0,25,0,0,0,92,4.036,4.047,4.059,4.05,4.061,4.064,0,,120.1507248,0.4,6,P-GPS,
6800,2022-10-12 09:52:01,45.4389539487678,9.05595359884435,0.4,,,120.1507248,0.6,0,0.183834,0.369883,15,5,24.317,120.1507248,0.4,0,0.188813,0,0,-0.1,60.2, 0, 0.3,0,0,1024,1024,1218,1024,0,0,29,0,0,0,92,4.036,4.047,4.059,4.05,4.061,4.064,0,,120.1507248,0.4,6,P-GPS,
6900,2022-10-12 09:52:01,45.4389538620923,9.05595359951815,0.4,,,120.1507248,0.6,0,0.17476,0.379522,15,5,24.317,120.1507248,0.4,0,0.188813,0,0,-0.2,60.2, -0.1, 0.2,0,0,1024,1024,1233,1024,0,0,32,0,0,0,92,4.036,4.047,4.059,4.05,4.061,4.064,0,,120.1507248,0.4,6,P-GPS,
7000,2022-10-12 09:52:01,45.4389538841601,9.05595361696212,0.4,,,120.1507248,0.6,0,0.177532,0.382329,15,5,24.317,120.1507248,0.4,0,0.188813,0,0,-0.2,60.2, -0.1, 0.4,0,0,1024,1024,1245,1024,0,0,33,0,0,0,92,4.036,4.047,4.059,4.05,4.061,4.064,0,,120.1507248,0.4,6,P-GPS,
7100,2022-10-12 09:52:01,45.4389539063192,9.05595362623962,0.5,,,120.2507248,0.7,0,0.180095,0.384897,15,5,24.317,120.2507248,0.5,0,0.188813,0,0,-0.3,60.2, -0.2, 0.6,0,0,1024,1024,1248,1024,0,0,34,0,0,0,92,4.036,4.047,4.059,4.05,4.061,4.064,0,,120.2507248,0.5,6,P-GPS,
7200,2022-10-12 09:52:01,45.4389539118583,9.05595360131406,0.5,,,120.2507248,0.7,0,0.180019,0.386937,15,5,24.317,120.2507248,0.5,0,0.188813,0,0,-0.4,60.2, -0.1, 0.8,0,0,1024,1024,1247,1024,0,0,34,0,0,0,92,4.036,4.047,4.059,4.05,4.061,4.064,0,,120.2507248,0.5,6,P-GPS,
7300,2022-10-12 09:52:01,45.4389539285311,9.05595357244146,0.6,,,120.3507248,0.8,0,0.181043,0.389855,15,5,24.317,120.3507248,0.6,0,0.188813,0,0,-0.4,60.2, 0, 0.8,0,0,1024,1024,1245,1024,0,0,33,0,0,0,92,4.036,4.047,4.059,4.05,4.061,4.064,0,,120.3507248,0.6,6,P-GPS,
7400,2022-10-12 09:52:02,45.4389539232843,9.05595352741069,0.6,,,120.3507248,0.8,0,0.179402,0.393417,15,5,24.317,120.3507248,0.6,0,0.188813,0,0,-0.5,60.2, 0, 0.7,0,0,1024,1024,1243,1024,0,0,33,0,0,0,92,4.036,4.047,4.059,4.05,4.061,4.064,0,,120.3507248,0.6,6,P-GPS,
7500,2022-10-12 09:52:02,45.4389539213139,9.05595347335804,0.7,,,120.4507248,0.9,0,0.177969,0.39764,15,5,24.317,120.4507248,0.7,0,0.188813,0,0,-0.5,60.2, 0, 0.6,0,0,1024,1024,1240,1024,0,0,33,0,0,0,92,4.036,4.047,4.059,4.05,4.061,4.064,0,,120.4507248,0.7,6,P-GPS,
7600,2022-10-12 09:52:02,45.4389539576355,9.05595341782503,0.7,,,120.4507248,0.9,0,0.180715,0.403564,15,5,24.148,120.4507248,0.7,0,0.188813,0,0,-0.5,60.2, 0, 0.5,0,0,1024,1024,1240,1024,0,0,33,0,0,0,92,4.004,4.015,4.032,4.022,4.036,4.039,0,,120.4507248,0.7,6,P-GPS,
7700,2022-10-12 09:52:02,45.438954002294,9.05595323286745,0.8,,,120.5507248,1,0,0.182534,0.418827,15,5,24.148,120.5507248,0.8,0,0.188813,0,0,-0.5,60.2, -0.3, 0.4,0,0,1024,1024,1237,1024,0,0,32,0,0,0,92,4.004,4.015,4.032,4.022,4.036,4.039,0,,120.5507248,0.8,6,P-GPS,
7800,2022-10-12 09:52:02,45.4389539463431,9.05595317249461,0.8,,,120.5507248,1,0,0.175641,0.426631,15,5,24.148,120.5507248,0.8,0,0.188813,0,0,-0.5,60.1, -0.5, 0.4,0,0,1024,1024,1234,1024,0,0,32,0,0,0,92,4.004,4.015,4.032,4.022,4.036,4.039,0,,120.5507248,0.8,6,P-GPS,
7900,2022-10-12 09:52:02,45.4389539005113,9.05595312940664,0.9,,,120.6507248,1.1,0,0.170118,0.432737,14,5,24.148,120.6507248,0.9,0,0.188813,0,0,-0.5,60.1, -0.4, 0.5,0,0,1024,1024,1233,1024,0,0,32,0,0,0,92,4.004,4.015,4.032,4.022,4.036,4.039,0,,120.6507248,0.9,6,P-GPS,
8000,2022-10-12 09:52:02,45.4389539312621,9.05595313286491,1,,,120.7507248,1.2,0,0.173543,0.436167,14,5,24.148,120.7507248,1,0,0.188813,0,0,-0.5,60.1, -0.5, 0.5,0,0,1024,1024,1233,1024,0,0,32,0,0,0,92,4.004,4.015,4.032,4.022,4.036,4.039,0,,120.7507248,1,6,P-GPS,
8100,2022-10-12 09:52:02,45.4389539475237,9.05595318115402,1,,,120.7507248,1.2,0,0.175873,0.440347,14,5,24.148,120.7507248,1,0,0.188813,0,0,-0.5,60.1, -0.6, 0.5,0,0,1024,1024,1234,1024,0,0,32,0,0,0,92,4.004,4.015,4.032,4.022,4.036,4.039,0,,120.7507248,1,6,P-GPS,
8200,2022-10-12 09:52:02,45.4389538697533,9.05595323531617,1.1,,,120.8507248,1.3,0,0.168062,0.449973,14,5,24.148,120.8507248,1.1,0,0.188813,0,0,-0.5,60.1, -0.6, 0.3,0,0,1024,1024,1233,1024,0,0,32,0,0,0,92,4.004,4.015,4.032,4.022,4.036,4.039,0,,120.8507248,1.1,6,P-GPS,
8300,2022-10-12 09:52:02,45.4389538003409,9.05595330190505,1.1,,,120.8507248,1.3,0,0.161571,0.459278,14,5,24.148,120.8507248,1.1,0,0.188813,0,0,-0.5,60.1, -0.5, 0.1,0,0,1024,1024,1236,1024,0,0,32,0,0,0,92,4.004,4.015,4.032,4.022,4.036,4.039,0,,120.8507248,1.1,6,P-GPS,
8400,2022-10-12 09:52:02,45.4389537906663,9.05595337543489,1.2,,,120.9507248,1.4,0,0.161918,0.465115,14,5,24.148,120.9507248,1.2,0,0.188813,0,0,-0.5,60.1, -0.3, 0.1,0,0,1024,1024,1240,1024,0,0,33,0,0,0,92,4.004,4.015,4.032,4.022,4.036,4.039,0,,120.9507248,1.2,6,P-GPS,
8500,2022-10-12 09:52:03,45.4389538044519,9.05595343713816,1.3,,,121.0507248,1.5,0,0.164704,0.470168,15,5,24.148,121.0507248,1.3,0,0.188813,0,0,-0.5,60.2, -0.1, 0.2,0,0,1024,1024,1244,1024,0,0,33,0,0,0,92,4.004,4.015,4.032,4.022,4.036,4.039,0,,121.0507248,1.3,6,P-GPS,
8600,2022-10-12 09:52:03,45.4389538822557,9.0559534512841,1.3,,,121.0507248,1.5,0,0.173318,0.47889,15,5,24.14,121.0507248,1.3,0,0.188813,0,0,-0.5,60.2, 0, 0.4,0,0,1024,1024,1250,1024,0,0,34,0,0,0,92,4.006,4.015,4.03,4.019,4.031,4.039,0,,121.0507248,1.3,6,P-GPS,
8700,2022-10-12 09:52:03,45.4389539640866,9.05595344536833,1.4,,,121.1507248,1.6,0,0.181959,0.488002,15,5,24.14,121.1507248,1.4,0,0.188813,0,0,-0.6,60.2, 0.1, 0.6,0,0,1024,1024,1253,1024,0,0,35,0,0,0,92,4.006,4.015,4.03,4.019,4.031,4.039,0,,121.1507248,1.4,6,P-GPS,
8800,2022-10-12 09:52:03,45.4389539747586,9.05595348209338,1.5,,,121.2507248,1.7,0,0.183869,0.491104,15,5,24.14,121.2507248,1.5,0,0.188813,0,0,-0.6,60.2, 0.2, 0.8,0,0,1024,1024,1268,1024,0,0,37,0,0,0,92,4.006,4.015,4.03,4.019,4.031,4.039,0,,121.2507248,1.5,6,P-GPS,
8900,2022-10-12 09:52:03,45.4389539887543,9.05595352034039,1.5,,,121.2507248,1.8,0,0.1862,0.49447,15,5,24.14,121.2507248,1.5,0,0.188813,0,0,-0.6,60.2, 0.3, 0.8,0,0,1024,1024,1275,1024,0,0,38,0,0,0,92,4.006,4.015,4.03,4.019,4.031,4.039,0,,121.2507248,1.5,6,P-GPS,
9000,2022-10-12 09:52:03,45.4389540765339,9.05595369954359,1.6,,,121.3507248,1.9,0,0.199841,0.511523,15,5,24.14,121.3507248,1.6,0,0.199841,0,0,-0.6,60.2, 0.3, 1,0,0,1024,1024,1283,1024,0,0,39,0,0,0,92,4.006,4.015,4.03,4.019,4.031,4.039,0,,121.3507248,1.6,6,P-GPS,
9100,2022-10-12 09:52:03,45.4389541481708,9.05595375588471,1.7,,,121.4507248,1.9,0,0.208828,0.520622,15,5,24.14,121.4507248,1.7,0,0.208828,0,0,-0.7,60.2, 0.3, 1.3,0,0,1024,1024,1283,1024,0,0,39,0,0,0,92,4.006,4.015,4.03,4.019,4.031,4.039,0,,121.4507248,1.7,6,P-GPS,
9200,2022-10-12 09:52:03,45.4389542580891,9.05595374474338,1.8,,,121.5507248,2,0,0.220066,0.532877,15,5,24.14,121.5507248,1.8,0,0.220066,0,0,-0.7,60.2, 0.2, 1.3,0,0,1024,1024,1282,1024,0,0,39,0,0,0,92,4.006,4.015,4.03,4.019,4.031,4.039,0,,121.5507248,1.8,6,P-GPS,
9300,2022-10-12 09:52:03,45.4389543488488,9.05595374156211,1.8,,,121.5507248,2.1,0,0.229568,0.542973,14,5,24.14,121.5507248,1.8,0,0.229568,0,0,-0.7,60.2, 0.2, 1.3,0,0,1024,1024,1284,1024,0,0,39,0,0,0,92,4.006,4.015,4.03,4.019,4.031,4.039,0,,121.5507248,1.8,6,P-GPS,
9400,2022-10-12 09:52:03,45.4389544531108,9.05595390267998,1.9,,,121.6507248,2.1,0,0.244612,0.560075,14,5,24.14,121.6507248,1.9,0,0.244612,0,0,-0.8,60.2, 0.2, 1.1,0,0,1024,1024,1288,1024,0,0,40,0,0,0,92,4.006,4.015,4.03,4.019,4.031,4.039,0,,121.6507248,1.9,6,P-GPS,
9500,2022-10-12 09:52:04,45.4389544668573,9.05595397042912,2,,,121.7507248,2.2,0,0.247888,0.565578,14,5,24.14,121.7507248,2,0,0.247888,0,0,-0.8,60.2, 0.2, 0.9,0,0,1024,1024,1286,1024,0,0,40,0,0,0,92,4.006,4.015,4.03,4.019,4.031,4.039,0,,121.7507248,2,6,P-GPS,
9600,2022-10-12 09:52:04,45.4389544137936,9.05595402437684,2.1,,,121.8507248,2.3,0,0.243953,0.572827,14,5,24.113,121.8507248,2.1,0,0.247888,0,0,-0.8,60.2, 0.2, 0.6,0,0,1024,1024,1294,1024,0,0,41,0,0,0,92,4.001,4.01,4.025,4.014,4.03,4.033,0,,121.8507248,2.1,6,P-GPS,
9700,2022-10-12 09:52:04,45.4389543648491,9.05595405489272,2.2,,,121.9507248,2.4,0,0.239861,0.578768,14,5,24.113,121.9507248,2.2,0,0.247888,0,0,-0.8,60.2, 0, 0.5,0,0,1024,1024,1292,1024,0,0,41,0,0,0,92,4.001,4.01,4.025,4.014,4.03,4.033,0,,121.9507248,2.2,6,P-GPS,
9800,2022-10-12 09:52:04,45.4389541670876,9.05595397566116,2.3,,,122.0507248,2.5,0,0.217241,0.601612,14,5,24.113,122.0507248,2.3,0,0.247888,0,0,-0.8,60.1, 0, 0.6,0,0,1024,1024,1286,1024,0,0,40,0,0,0,92,4.001,4.01,4.025,4.014,4.03,4.033,0,,122.0507248,2.3,6,P-GPS,
9900,2022-10-12 09:52:04,45.4389541438017,9.05595394037604,2.3,,,122.0507248,2.6,0,0.213757,0.605392,14,5,24.113,122.0507248,2.3,0,0.247888,0,0,-0.8,60.1, 0, 0.9,0,0,1024,1024,1283,1024,0,0,39,0,0,0,92,4.001,4.01,4.025,4.014,4.03,4.033,0,,122.0507248,2.3,6,P-GPS,
10000,2022-10-12 09:52:04,45.438954185244,9.05595393166207,2.4,,,122.1507248,2.7,0,0.217715,0.610051,14,5,24.113,122.1507248,2.4,0,0.247888,0,0,-0.8,60.1, 0, 1,0,0,1024,1024,1275,1024,0,0,38,0,0,0,92,4.001,4.01,4.025,4.014,4.03,4.033,0,,122.1507248,2.4,6,P-GPS,
10100,2022-10-12 09:52:04,45.4389542120807,9.05595392402785,2.5,,,122.2507248,2.8,0,0.220232,0.613094,14,5,24.113,122.2507248,2.5,0,0.247888,0,0,-0.8,60.2, 0, 1,0,0,1024,1024,1270,1024,0,0,37,0,0,0,92,4.001,4.01,4.025,4.014,4.03,4.033,0,,122.2507248,2.5,6,P-GPS,
10200,2022-10-12 09:52:04,45.4389541796128,9.05595390729202,2.6,,,122.3507248,2.9,0,0.216397,0.616934,14,5,24.113,122.3507248,2.6,0,0.247888,0,0,-0.8,60.1, 0, 1,0,0,1024,1024,1272,1024,0,0,38,0,0,0,92,4.001,4.01,4.025,4.014,4.03,4.033,0,,122.3507248,2.6,6,P-GPS,
10300,2022-10-12 09:52:04,45.4389541151785,9.05595392658073,2.7,,,122.4507248,3,0,0.21041,0.624255,14,5,24.113,122.4507248,2.7,0,0.247888,0,0,-0.8,60.1, 0.1, 0.7,0,0,1024,1024,1274,1024,0,0,38,0,0,0,92,4.001,4.01,4.025,4.014,4.03,4.033,0,,122.4507248,2.7,6,P-GPS,
10400,2022-10-12 09:52:04,45.4389540953832,9.05595398140943,2.8,,,122.5507248,3,0,0.210181,0.629067,14,5,24.113,122.5507248,2.8,0,0.247888,0,0,-0.7,60.1, 0.1, 0.4,0,0,1024,1024,1273,1024,0,0,38,0,0,0,92,4.001,4.01,4.025,4.014,4.03,4.033,0,,122.5507248,2.8,6,P-GPS,
10500,2022-10-12 09:52:05,45.4389540831698,9.05595401263535,2.9,,,122.6507248,3.1,0,0.210006,0.631856,14,5,24.113,122.6507248,2.9,0,0.247888,0,0,-0.7,60.1, 0, 0.3,0,0,1024,1024,1273,1024,0,0,38,0,0,0,92,4.001,4.01,4.025,4.014,4.03,4.033,0,,122.6507248,2.9,6,P-GPS,
10600,2022-10-12 09:52:05,45.4389540847079,9.05595396490939,2.9,,,122.6507248,3.2,0,0.20856,0.635584,14,5,24.113,122.6507248,2.9,0,0.247888,0,0,-0.7,60.1, 0, 0.3,0,0,1024,1024,1275,1024,0,0,38,0,0,0,92,4.001,4.01,4.025,4.014,4.03,4.033,0,,122.6507248,2.9,6,P-GPS,
10700,2022-10-12 09:52:05,45.4389540800098,9.05595391478163,3,,,122.7507248,3.3,0,0.206462,0.63953,15,5,24.078,122.7507248,3,0,0.247888,0,0,-0.7,60.1, -0.1, 0.2,0,0,1024,1024,1279,1024,0,0,39,0,0,0,92,3.994,4.002,4.019,4.01,4.025,4.028,0,,122.7507248,3,6,P-GPS,
10800,2022-10-12 09:52:05,45.4389540474694,9.05595390745036,3.1,,,122.8507248,3.4,0,0.202927,0.643194,15,5,24.078,122.8507248,3.1,0,0.247888,0,0,-0.7,60.1, -0.2, 0.3,0,0,1024,1024,1283,1024,0,0,39,0,0,0,92,3.994,4.002,4.019,4.01,4.025,4.028,0,,122.8507248,3.1,6,P-GPS,
10900,2022-10-12 09:52:05,45.4389540226072,9.05595389805038,3.2,,,122.9507248,3.4,0,0.200106,0.646055,15,5,24.078,122.9507248,3.2,0,0.247888,0,0,-0.7,60.1, -0.2, 0.3,0,0,1024,1024,1273,1024,0,0,38,0,0,0,92,3.994,4.002,4.019,4.01,4.025,4.028,0,,122.9507248,3.2,6,P-GPS,
11000,2022-10-12 09:52:05,45.4389539962638,9.05595391453783,3.3,,,123.0507248,3.5,0,0.197986,0.649254,15,5,24.078,123.0507248,3.3,0,0.247888,0,0,-0.7,60.1, -0.2, 0.4,0,0,1024,1024,1273,1024,0,0,38,0,0,0,92,3.994,4.002,4.019,4.01,4.025,4.028,0,,123.0507248,3.3,6,P-GPS,
11100,2022-10-12 09:52:05,45.4389538994309,9.05595407779155,3.3,,,123.0507248,3.6,0,0.194319,0.665934,15,5,24.078,123.0507248,3.3,0,0.247888,0,0,-0.7,60.1, 0, 0.5,0,0,1024,1024,1273,1024,0,0,38,0,0,0,92,3.994,4.002,4.019,4.01,4.025,4.028,0,,123.0507248,3.3,6,P-GPS,
11200,2022-10-12 09:52:05,45.4389539318247,9.05595411898671,3.4,,,123.1507248,3.7,0,0.199047,0.670762,15,5,24.078,123.1507248,3.4,0,0.247888,0,0,-0.7,60.1, 0.1, 0.7,0,0,1024,1024,1271,1024,0,0,37,0,0,0,92,3.994,4.002,4.019,4.01,4.025,4.028,0,,123.1507248,3.4,6,P-GPS,
11300,2022-10-12 09:52:05,45.4389539686886,9.05595414759413,3.5,,,123.2507248,3.8,0,0.203713,0.67543,15,5,24.078,123.2507248,3.5,0,0.247888,0,0,-0.7,60.1, 0.1, 0.8,0,0,1024,1024,1278,1024,0,0,38,0,0,0,92,3.994,4.002,4.019,4.01,4.025,4.028,0,,123.2507248,3.5,6,P-GPS,
11400,2022-10-12 09:52:05,45.4389540538652,9.05595413963599,3.6,,,123.3507248,3.8,0,0.211658,0.684923,15,5,24.078,123.3507248,3.6,0,0.247888,0,0,-0.7,60.1, 0.1, 1,0,0,1024,1024,1285,1024,0,0,40,0,0,0,92,3.994,4.002,4.019,4.01,4.025,4.028,0,,123.3507248,3.6,6,P-GPS,
11500,2022-10-12 09:52:06,45.4389541359151,9.05595412160178,3.6,,,123.3507248,3.9,0,0.219057,0.694155,14,5,24.078,123.3507248,3.6,0,0.247888,0,0,-0.7,60.1, 0.1, 1.3,0,0,1024,1024,1286,1024,0,0,40,0,0,0,92,3.994,4.002,4.019,4.01,4.025,4.028,0,,123.3507248,3.6,6,P-GPS,
11600,2022-10-12 09:52:06,45.4389542079746,9.05595406471354,3.7,,,123.4507248,4,0,0.224278,0.703316,14,5,24.078,123.4507248,3.7,0,0.247888,0,0,-0.7,60.1, 0.1, 1.4,0,0,1024,1024,1287,1024,0,0,40,0,0,0,92,3.994,4.002,4.019,4.01,4.025,4.028,0,,123.4507248,3.7,6,P-GPS,
11700,2022-10-12 09:52:06,45.4389542601231,9.05595402027758,3.8,,,123.5507248,4.1,0,0.228109,0.710073,14,5,24.034,123.5507248,3.8,0,0.247888,0,0,-0.8,60.1, 0.2, 1.3,0,0,1024,1024,1287,1024,0,0,40,0,0,0,92,3.986,3.997,4.014,4.002,4.016,4.019,0,,123.5507248,3.8,6,P-GPS,
11800,2022-10-12 09:52:06,45.4389542225654,9.05595403640142,3.9,,,123.6507248,4.2,0,0.224817,0.714435,14,5,24.034,123.6507248,3.9,0,0.247888,0,0,-0.8,60.1, 0.1, 1.1,0,0,1024,1024,1292,1024,0,0,41,0,0,0,92,3.986,3.997,4.014,4.002,4.016,4.019,0,,123.6507248,3.9,6,P-GPS,
11900,2022-10-12 09:52:06,45.4389541773582,9.05595404860991,4,,,123.7507248,4.2,0,0.220663,0.719551,14,5,24.034,123.7507248,4,0,0.247888,0,0,-0.8,60.1, 0.1, 0.7,0,0,1024,1024,1292,1024,0,0,41,0,0,0,92,3.986,3.997,4.014,4.002,4.016,4.019,0,,123.7507248,4,6,P-GPS,
12000,2022-10-12 09:52:06,45.4389540367128,9.05595416359283,4.1,,,123.8507248,4.4,0,0.210899,0.737583,14,5,24.034,123.8507248,4.1,0,0.247888,0,0,-0.8,60.2, 0.1, 0.4,0,0,1024,1024,1295,1024,0,0,41,0,0,0,92,3.986,3.997,4.014,4.002,4.016,4.019,0,,123.8507248,4.1,6,P-GPS,
12100,2022-10-12 09:52:06,45.4389539982277,9.05595416716785,4.1,,,123.8507248,4.4,0,0.207321,0.741872,15,5,24.034,123.8507248,4.1,0,0.247888,0,0,-0.8,60.2, 0.1, 0.4,0,0,1024,1024,1295,1024,0,0,41,0,0,0,92,3.986,3.997,4.014,4.002,4.016,4.019,0,,123.8507248,4.1,6,P-GPS,
12200,2022-10-12 09:52:06,45.4389539755346,9.05595411881006,4.2,,,123.9507248,4.5,0,0.203257,0.746411,15,5,24.034,123.9507248,4.2,0,0.247888,0,0,-0.8,60.2, 0.1, 0.3,0,0,1024,1024,1320,1024,0,0,45,0,0,0,92,3.986,3.997,4.014,4.002,4.016,4.019,0,,123.9507248,4.2,6,P-GPS,
12300,2022-10-12 09:52:06,45.4389539583431,9.05595406986698,4.3,,,124.0507248,4.6,0,0.199727,0.750682,15,5,24.034,124.0507248,4.3,0,0.247888,0,0,-0.9,60.2, 0.1, 0.3,0,0,1024,1024,1320,1024,0,0,45,0,0,0,92,3.986,3.997,4.014,4.002,4.016,4.019,0,,124.0507248,4.3,6,P-GPS,
12400,2022-10-12 09:52:06,45.4389539910724,9.05595413239094,4.4,,,124.1507248,4.7,0,0.205283,0.756769,15,5,24.034,124.1507248,4.4,0,0.247888,0,0,-0.9,60.2, 0.1, 0.4,0,0,1024,1024,1320,1024,0,0,45,0,0,0,92,3.986,3.997,4.014,4.002,4.016,4.019,0,,124.1507248,4.4,6,P-GPS,
12500,2022-10-12 09:52:07,45.438954011239,9.05595413316318,4.5,,,124.2507248,4.8,0,0.207267,0.759012,14,5,24.034,124.2507248,4.5,0,0.247888,0,0,-1,60.2, 0, 0.7,0,0,1024,1024,1319,1024,0,0,45,0,0,0,92,3.986,3.997,4.014,4.002,4.016,4.019,0,,124.2507248,4.5,6,P-GPS,
12600,2022-10-12 09:52:07,45.4389540426322,9.05595406549645,4.6,,,124.3507248,4.9,0,0.207832,0.765342,14,5,24.034,124.3507248,4.6,0,0.247888,0,0,-1,60.2, 0, 0.7,0,0,1024,1024,1320,1024,0,0,45,0,0,0,92,3.986,3.997,4.014,4.002,4.016,4.019,0,,124.3507248,4.6,6,P-GPS,
12700,2022-10-12 09:52:07,45.4389540661387,9.0559540003456,4.7,,,124.4507248,5,0,0.207883,0.771058,14,5,24.034,124.4507248,4.7,0,0.247888,0,0,-1,60.1, 0, 0.7,0,0,1024,1024,1313,1024,0,0,44,0,0,0,92,3.986,3.997,4.014,4.002,4.016,4.019,0,,124.4507248,4.7,6,P-GPS,
12800,2022-10-12 09:52:07,45.4389539769879,9.05595394349551,4.8,,,124.5507248,5.1,0,0.197028,0.78192,14,5,23.731,124.5507248,4.8,0,0.247888,0,0,-1,60.1, 0, 0.6,0,0,1024,1024,1299,1024,0,0,42,0,0,0,92,3.931,3.942,3.965,3.952,3.97,3.971,0,,124.5507248,4.8,6,P-GPS,
12900,2022-10-12 09:52:07,45.4389539419788,9.05595391231498,5,,,124.7507248,5.2,0,0.192462,0.786511,15,5,23.731,124.7507248,5,0,0.247888,0,0,-1,60.1, -0.1, 0.4,0,0,1024,1024,1230,1024,0,0,31,0,0,0,92,3.931,3.942,3.965,3.952,3.97,3.971,0,,124.7507248,5,6,P-GPS,
13000,2022-10-12 09:52:07,45.4389538799514,9.05595391045613,5.1,,,124.8507248,5.3,0,0.186214,0.79341,15,5,23.731,124.8507248,5.1,0,0.247888,0,0,-1,60.1, -0.1, 0.3,0,0,1024,1024,1024,1024,0,0,0,0,0,0,92,3.931,3.942,3.965,3.952,3.97,3.971,0,,124.8507248,5.1,6,P-GPS,
13100,2022-10-12 09:52:07,45.4389538308131,9.05595390874073,5.2,,,124.9507248,5.5,0,0.18129,0.798876,15,5,23.731,124.9507248,5.2,0,0.247888,0,0,-1,60.1, 0, 0.4,0,0,1024,1024,1024,1024,0,0,0,0,0,0,92,3.931,3.942,3.965,3.952,3.97,3.971,0,,124.9507248,5.2,6,P-GPS,
13200,2022-10-12 09:52:07,45.4389537640135,9.05595401222596,5.3,,,125.0507248,5.5,0,0.178741,0.809848,15,5,23.731,125.0507248,5.3,0,0.247888,0,0,-0.7,60.1, 0.2, 0.5,0,0,1024,1024,1024,1024,0,0,0,0,0,0,92,3.931,3.942,3.965,3.952,3.97,3.971,0,,125.0507248,5.3,6,P-GPS,
13300,2022-10-12 09:52:07,45.4389537670636,9.05595400651165,5.3,,,125.0507248,5.6,0,0.178804,0.810408,14,5,23.731,125.0507248,5.3,0,0.247888,0,0,-0.4,60.1, 0.2, 0.7,0,0,1024,1024,1024,1024,0,0,0,0,0,0,92,3.931,3.942,3.965,3.952,3.97,3.971,0,,125.0507248,5.3,6,P-GPS,
13400,2022-10-12 09:52:07,45.4389537429423,9.05595395604356,5.4,,,125.1507248,5.6,0,0.174498,0.815173,14,5,23.731,125.1507248,5.4,0,0.247888,0,0,-0.3,60.1, -0.1, 0.8,0,0,1024,1024,1024,1024,0,0,0,0,0,0,92,3.931,3.942,3.965,3.952,3.97,3.971,0,,125.1507248,5.4,6,P-GPS,
13500,2022-10-12 09:52:08,45.4389537194178,9.05595390314507,5.4,,,125.1507248,5.6,0,0.170182,0.82006,14,5,23.731,125.1507248,5.4,0,0.247888,0,0,-0.1,60.2, -0.4, 0.8,0,0,1024,1024,1024,1024,0,0,0,0,0,0,92,3.931,3.942,3.965,3.952,3.97,3.971,0,,125.1507248,5.4,6,P-GPS,
13600,2022-10-12 09:52:08,45.4389537235532,9.05595383399531,5.4,,,125.1507248,5.7,0,0.168016,0.825475,14,5,23.731,125.1507248,5.4,0,0.247888,0,0,-0.1,60.2, -0.5, 0.9,0,0,1024,1024,1024,1024,0,0,0,0,0,0,92,3.931,3.942,3.965,3.952,3.97,3.971,0,,125.1507248,5.4,6,P-GPS,
13700,2022-10-12 09:52:08,45.4389537249732,9.05595369102573,5.5,,,125.2507248,5.7,0,0.163292,0.836632,15,5,23.731,125.2507248,5.5,0,0.247888,0,0,-0.1,60.2, -0.3, 0.9,0,0,1024,1024,1024,1024,0,0,0,0,0,0,92,3.931,3.942,3.965,3.952,3.97,3.971,0,,125.2507248,5.5,6,P-GPS,
13800,2022-10-12 09:52:08,45.4389537450413,9.05595364485339,5.5,,,125.2507248,5.7,0,0.163911,0.84087,15,5,24.194,125.2507248,5.5,0,0.247888,0,0,0,60.3, -0.2, 1,0,0,1024,1024,1024,1024,0,0,0,0,0,0,92,4.018,4.024,4.035,4.03,4.041,4.046,0,,125.2507248,5.5,6,P-GPS,
13900,2022-10-12 09:52:08,45.4389537670506,9.0559536188351,5.5,,,125.2507248,5.7,0,0.165413,0.84405,15,5,24.194,125.2507248,5.5,0,0.247888,0,0,0,60.3, 0, 0.9,0,0,1024,1024,1024,1024,0,0,0,0,0,0,92,4.018,4.024,4.035,4.03,4.041,4.046,0,,125.2507248,5.5,6,P-GPS,
14000,2022-10-12 09:52:08,45.4389538197975,9.05595363920967,5.5,,,125.2507248,5.7,0,0.171453,0.850128,15,5,24.194,125.2507248,5.5,0,0.247888,0,0,0,60.3, 0, 0.8,0,0,1024,1024,1024,1024,0,0,0,0,0,0,92,4.018,4.024,4.035,4.03,4.041,4.046,0,,125.2507248,5.5,6,P-GPS,
14100,2022-10-12 09:52:08,45.4389539693986,9.05595368430149,5.5,,,125.2507248,5.7,0,0.188246,0.867132,15,5,24.194,125.2507248,5.5,0,0.247888,0,0,0,60.3, 0, 0.8,0,0,1024,1024,1024,1024,0,0,0,0,0,0,92,4.018,4.024,4.035,4.03,4.041,4.046,0,,125.2507248,5.5,6,P-GPS,
14200,2022-10-12 09:52:08,45.4389539737905,9.05595364790685,5.5,,,125.2507248,5.7,0,0.187726,0.870014,15,5,24.194,125.2507248,5.5,0,0.247888,0,0,0,60.2, 0, 0.7,0,0,1024,1024,1024,1024,0,0,0,0,0,0,92,4.018,4.024,4.035,4.03,4.041,4.046,0,,125.2507248,5.5,6,P-GPS,
14300,2022-10-12 09:52:08,45.4389539831826,9.05595360716839,5.5,,,125.2507248,5.7,0,0.187667,0.87336,15,5,24.194,125.2507248,5.5,0,0.247888,0,0,0,60.2, 0, 0.8,0,0,1024,1024,1024,1024,0,0,0,0,0,0,92,4.018,4.024,4.035,4.03,4.041,4.046,0,,125.2507248,5.5,6,P-GPS,
14400,2022-10-12 09:52:08,45.438954014504,9.05595352692652,5.5,,,125.2507248,5.7,0,0.189091,0.880525,15,5,24.194,125.2507248,5.5,0,0.247888,0,0,0,60.2, -0.1, 0.9,0,0,1024,1024,1024,1024,0,0,0,0,0,0,92,4.018,4.024,4.035,4.03,4.041,4.046,0,,125.2507248,5.5,6,P-GPS,
14500,2022-10-12 09:52:09,45.4389540657373,9.05595338862202,5.5,,,125.2507248,5.7,0,0.191851,0.892728,15,5,24.194,125.2507248,5.5,0,0.247888,0,0,0,60.2, -0.3, 1,0,0,1024,1024,1024,1024,0,0,0,0,0,0,92,4.018,4.024,4.035,4.03,4.041,4.046,0,,125.2507248,5.5,6,P-GPS,
14600,2022-10-12 09:52:09,45.4389540591006,9.05595329759442,5.5,,,125.2507248,5.7,0,0.189657,0.89987,15,5,24.194,125.2507248,5.5,0,0.247888,0,0,0,60.2, -0.4, 1,0,0,1024,1024,1024,1024,0,0,0,0,0,0,92,4.018,4.024,4.035,4.03,4.041,4.046,0,,125.2507248,5.5,6,P-GPS,
14700,2022-10-12 09:52:09,45.4389540542446,9.05595322449076,5.5,,,125.2507248,5.7,0,0.188124,0.905599,15,5,24.194,125.2507248,5.5,0,0.247888,0,0,0,60.2, -0.4, 1.1,0,0,1024,1024,1024,1024,0,0,0,0,0,0,92,4.018,4.024,4.035,4.03,4.041,4.046,0,,125.2507248,5.5,6,P-GPS,
14800,2022-10-12 09:52:09,45.4389540446522,9.05595317583766,5.5,,,125.2507248,5.7,0,0.186495,0.909543,15,5,24.005,125.2507248,5.5,0,0.247888,0,0,0,60.2, -0.3, 1.1,0,0,1024,1024,1024,1024,0,0,0,0,0,0,92,3.982,3.99,4.007,3.997,4.011,4.018,0,,125.2507248,5.5,6,P-GPS,
14900,2022-10-12 09:52:09,45.4389540297495,9.05595313872878,5.5,,,125.2507248,5.7,0,0.184462,0.912879,15,5,24.005,125.2507248,5.5,0,0.247888,0,0,0,60.1, -0.2, 1,0,0,1024,1024,1024,1024,0,0,0,0,0,0,92,3.982,3.99,4.007,3.997,4.011,4.018,0,,125.2507248,5.5,6,P-GPS,
15000,2022-10-12 09:52:09,45.4389539806259,9.0559531136712,5.5,,,125.2507248,5.7,0,0.178798,0.918681,15,5,24.005,125.2507248,5.5,0,0.247888,0,0,0,60.2, -0.1, 1,0,0,1024,1024,1024,1024,0,0,0,0,0,0,92,3.982,3.99,4.007,3.997,4.011,4.018,0,,125.2507248,5.5,6,P-GPS,
15100,2022-10-12 09:52:09,45.438953938726,9.05595309070979,5.5,,,125.2507248,5.7,0,0.17396,0.923673,15,5,24.005,125.2507248,5.5,0,0.247888,0,0,0,60.1, 0, 1,0,0,1024,1024,1024,1024,0,0,0,0,0,0,91,3.982,3.99,4.007,3.997,4.011,4.018,0,,125.2507248,5.5,6,P-GPS,
15200,2022-10-12 09:52:09,45.4389539288837,9.0559530759904,5.5,,,125.2507248,5.7,0,0.172745,0.92526,15,5,24.005,125.2507248,5.5,0,0.247888,0,0,0,60.2, 0, 1.1,0,0,1024,1024,1024,1024,0,0,0,0,0,0,91,3.982,3.99,4.007,3.997,4.011,4.018,0,,125.2507248,5.5,6,P-GPS,
15300,2022-10-12 09:52:09,45.4389539153798,9.05595304805677,5.5,,,125.2507248,5.7,0,0.171028,0.927907,15,5,24.005,125.2507248,5.5,0,0.247888,0,0,0,60.2, -0.2, 1.1,0,0,1024,1024,1024,1024,0,0,0,0,0,0,91,3.982,3.99,4.007,3.997,4.011,4.018,0,,125.2507248,5.5,6,P-GPS,
15400,2022-10-12 09:52:10,45.4389538978708,9.0559528524451,5.5,,,125.2507248,5.7,0,0.168286,0.943294,15,5,24.005,125.2507248,5.5,0,0.247888,0,0,0,60.1, -0.3, 1.1,0,0,1024,1024,1024,1024,0,0,0,0,0,0,91,3.982,3.99,4.007,3.997,4.011,4.018,0,,125.2507248,5.5,6,P-GPS,
15500,2022-10-12 09:52:10,45.4389538782977,9.05595276057888,5.5,,,125.2507248,5.7,0,0.16621,0.950786,15,5,24.005,125.2507248,5.5,0,0.247888,0,0,0,60.1, -0.5, 1.2,0,0,1024,1024,1024,1024,0,0,0,0,0,0,91,3.982,3.99,4.007,3.997,4.011,4.018,0,,125.2507248,5.5,6,P-GPS,
15600,2022-10-12 09:52:10,45.438953861458,9.05595268519209,5.5,,,125.2507248,5.7,0,0.164655,0.956959,15,5,24.005,125.2507248,5.5,0,0.247888,0,0,0,60.1, -0.6, 1.2,0,0,1024,1024,1024,1024,0,0,0,0,0,0,91,3.982,3.99,4.007,3.997,4.011,4.018,0,,125.2507248,5.5,6,P-GPS,
15700,2022-10-12 09:52:10,45.4389538445792,9.05595262851827,5.5,,,125.2507248,5.7,0,0.163163,0.961763,15,5,24.005,125.2507248,5.5,0,0.247888,0,0,0,60.1, -0.6, 1.2,0,0,1024,1024,1024,1024,0,0,0,0,0,0,91,3.982,3.99,4.007,3.997,4.011,4.018,0,,125.2507248,5.5,6,P-GPS,
15800,2022-10-12 09:52:10,45.4389538692989,9.05595256667078,5.5,,,125.2507248,5.7,0,0.16644,0.967317,15,5,23.991,125.2507248,5.5,0,0.247888,0,0,0,60.1, -0.6, 1.1,0,0,1024,1024,1024,1024,0,0,0,0,0,0,91,3.977,3.987,4.004,3.996,4.011,4.016,0,,125.2507248,5.5,6,P-GPS,
15900,2022-10-12 09:52:10,45.4389538615858,9.05595255423833,5.5,,,125.2507248,5.7,0,0.165715,0.968612,15,5,23.991,125.2507248,5.5,0,0.247888,0,0,0,60.1, -0.6, 1.1,0,0,1024,1024,1024,1024,0,0,0,0,0,0,91,3.977,3.987,4.004,3.996,4.011,4.016,0,,125.2507248,5.5,6,P-GPS,
16000,2022-10-12 09:52:10,45.4389538576059,9.05595256244561,5.5,,,125.2507248,5.7,0,0.165192,0.96939,15,5,23.991,125.2507248,5.5,0,0.247888,0,0,0,60.1, -0.6, 1,0,0,1024,1024,1024,1024,0,0,0,0,0,0,91,3.977,3.987,4.004,3.996,4.011,4.016,0,,125.2507248,5.5,6,P-GPS,
16100,2022-10-12 09:52:10,45.4389538520317,9.05595257601391,5.5,,,125.2507248,5.7,0,0.164444,0.970617,15,5,23.991,125.2507248,5.5,0,0.247888,0,0,0,60.1, -0.5, 0.9,0,0,1024,1024,1024,1024,0,0,0,0,0,0,91,3.977,3.987,4.004,3.996,4.011,4.016,0,,125.2507248,5.5,6,P-GPS,
16200,2022-10-12 09:52:10,45.4389538901789,9.05595262597493,5.5,,,125.2507248,5.7,0,0.168229,0.976379,15,5,23.991,125.2507248,5.5,0,0.247888,0,0,0,60.1, -0.4, 0.8,0,0,1024,1024,1024,1024,0,0,0,0,0,0,91,3.977,3.987,4.004,3.996,4.011,4.016,0,,125.2507248,5.5,6,P-GPS,
16300,2022-10-12 09:52:10,45.4389538842147,9.05595263725628,5.5,,,125.2507248,5.7,0,0.167485,0.977481,15,5,23.991,125.2507248,5.5,0,0.247888,0,0,0,60, -0.4, 0.7,0,0,1024,1024,1024,1024,0,0,0,0,0,0,91,3.977,3.987,4.004,3.996,4.011,4.016,0,,125.2507248,5.5,6,P-GPS,
16400,2022-10-12 09:52:11,45.4389538796339,9.05595261552266,5.5,,,125.2507248,5.7,0,0.167144,0.979252,15,5,23.991,125.2507248,5.5,0,0.247888,0,0,0,60, -0.5, 0.6,0,0,1024,1024,1024,1024,0,0,0,0,0,0,91,3.977,3.987,4.004,3.996,4.011,4.016,0,,125.2507248,5.5,6,P-GPS,
16500,2022-10-12 09:52:11,45.4389538806614,9.05595260493839,5.5,,,125.2507248,5.7,0,0.167345,0.980085,15,5,23.991,125.2507248,5.5,0,0.247888,0,0,0,60, -0.4, 0.7,0,0,1024,1024,1024,1024,0,0,0,0,0,0,91,3.977,3.987,4.004,3.996,4.011,4.016,0,,125.2507248,5.5,6,P-GPS,
16600,2022-10-12 09:52:11,45.4389539214409,9.05595256898138,5.5,,,125.2507248,5.7,0,0.172171,0.985418,15,5,23.991,125.2507248,5.5,0,0.247888,0,0,0,60, -0.4, 0.7,0,0,1024,1024,1024,1024,0,0,0,0,0,0,91,3.977,3.987,4.004,3.996,4.011,4.016,0,,125.2507248,5.5,6,P-GPS,
16700,2022-10-12 09:52:11,45.4389539243289,9.0559525856741,5.5,,,125.2507248,5.7,0,0.172338,0.98676,16,5,23.991,125.2507248,5.5,0,0.247888,0,0,0,60, -0.4, 0.7,0,0,1024,1024,1024,1024,0,0,0,0,0,0,91,3.977,3.987,4.004,3.996,4.011,4.016,0,,125.2507248,5.5,6,P-GPS,
16800,2022-10-12 09:52:11,45.4389539315649,9.05595260521081,5.5,,,125.2507248,5.7,0,0.172971,0.988483,16,5,23.971,125.2507248,5.5,0,0.247888,0,0,0,60, -0.3, 0.8,0,0,1024,1024,1024,1024,0,0,0,0,0,0,91,3.976,3.983,4.004,3.991,4.006,4.011,0,,125.2507248,5.5,6,P-GPS,
16900,2022-10-12 09:52:11,45.4389539401908,9.05595262210574,5.5,,,125.2507248,5.7,0,0.173794,0.990114,16,5,23.971,125.2507248,5.5,0,0.247888,0,0,0,60, -0.3, 0.8,0,0,1024,1024,1024,1024,0,0,0,0,0,0,91,3.976,3.983,4.004,3.991,4.006,4.011,0,,125.2507248,5.5,6,P-GPS,
17000,2022-10-12 09:52:11,45.4389539479911,9.05595263383502,5.5,,,125.2507248,5.7,0,0.174572,0.991375,16,5,23.971,125.2507248,5.5,0,0.247888,0,0,0,60, -0.3, 0.8,0,0,1024,1024,1024,1024,0,0,0,0,0,0,91,3.976,3.983,4.004,3.991,4.006,4.011,0,,125.2507248,5.5,6,P-GPS,
17100,2022-10-12 09:52:11,45.4389539769424,9.05595265439234,5.5,,,125.2507248,5.7,0,0.177643,0.994972,16,5,23.971,125.2507248,5.5,0,0.247888,0,0,0,60, -0.2, 0.8,0,0,1024,1024,1024,1024,0,0,0,0,0,0,91,3.976,3.983,4.004,3.991,4.006,4.011,0,,125.2507248,5.5,6,P-GPS,
17200,2022-10-12 09:52:11,45.4389539861683,9.05595265860949,5.5,,,125.2507248,5.6,0,0.17864,0.996049,16,5,23.971,125.2507248,5.5,0,0.247888,0,0,0,60, -0.1, 0.8,0,0,1024,1024,1024,1024,0,0,0,0,0,0,91,3.976,3.983,4.004,3.991,4.006,4.011,0,,125.2507248,5.5,6,P-GPS,
17300,2022-10-12 09:52:11,45.438953990653,9.05595265628668,5.5,,,125.2507248,5.6,0,0.179151,0.99658,16,5,23.971,125.2507248,5.5,0,0.247888,0,0,0,60, -0.1, 0.9,0,0,1024,1024,1024,1024,0,0,0,0,0,0,91,3.976,3.983,4.004,3.991,4.006,4.011,0,,125.2507248,5.5,6,P-GPS,
17400,2022-10-12 09:52:11,45.4389539862774,9.05595264496527,5.5,,,125.2507248,5.6,0,0.178738,0.997588,16,5,23.971,125.2507248,5.5,0,0.247888,0,0,0,60, -0.1, 0.9,0,0,1024,1024,1024,1024,0,0,0,0,0,0,91,3.976,3.983,4.004,3.991,4.006,4.011,0,,125.2507248,5.5,6,P-GPS,
17500,2022-10-12 09:52:12,45.4389539768113,9.05595258243254,5.5,,,125.2507248,5.6,0,0.178165,1.00258,15,5,23.971,125.2507248,5.5,0,0.247888,0,0,0,60.1, -0.1, 0.9,0,0,1024,1024,1024,1024,0,0,0,0,0,0,91,3.976,3.983,4.004,3.991,4.006,4.011,0,,125.2507248,5.5,6,P-GPS,
17600,2022-10-12 09:52:12,45.4389539696583,9.05595261426816,5.5,,,125.2507248,5.6,0,0.177115,1.00519,15,5,23.971,125.2507248,5.5,0,0.247888,0,0,0,60.1, -0.2, 1,0,0,1024,1024,1024,1024,0,0,0,0,0,0,91,3.976,3.983,4.004,3.991,4.006,4.011,0,,125.2507248,5.5,6,P-GPS,
17700,2022-10-12 09:52:12,45.4389539680681,9.05595264266803,5.5,,,125.2507248,5.6,0,0.176735,1.00741,15,5,23.971,125.2507248,5.5,0,0.247888,0,0,0,60.1, -0.2, 1,0,0,1024,1024,1024,1024,0,0,0,0,0,0,91,3.976,3.983,4.004,3.991,4.006,4.011,0,,125.2507248,5.5,6,P-GPS,
17800,2022-10-12 09:52:12,45.438954008263,9.05595264382714,5.5,,,125.2507248,5.6,0,0.181182,1.01188,15,5,23.94,125.2507248,5.5,0,0.247888,0,0,0,60.1, -0.2, 1.1,0,0,1024,1024,1024,1024,0,0,0,0,0,0,91,3.972,3.978,3.998,3.987,4.001,4.004,0,,125.2507248,5.5,6,P-GPS,
17900,2022-10-12 09:52:12,45.4389541072781,9.05595269732084,5.5,,,125.2507248,5.6,0,0.191876,1.02366,15,5,23.94,125.2507248,5.5,0,0.247888,0,0,0,60.1, -0.2, 1,0,0,1024,1024,1024,1024,0,0,0,0,0,0,91,3.972,3.978,3.998,3.987,4.001,4.004,0,,125.2507248,5.5,6,P-GPS,
18000,2022-10-12 09:52:12,45.4389541086061,9.05595269138866,5.5,,,125.2507248,5.6,0,0.19205,1.02414,15,5,23.94,125.2507248,5.5,0,0.247888,0,0,0,60.1, -0.2, 0.9,0,0,1024,1024,1024,1024,0,0,0,0,0,0,91,3.972,3.978,3.998,3.987,4.001,4.004,0,,125.2507248,5.5,6,P-GPS,
18100,2022-10-12 09:52:12,45.4389540979651,9.05595269160843,5.5,,,125.2507248,5.6,0,0.190868,1.02533,15,5,23.94,125.2507248,5.5,0,0.247888,0,0,0,60.1, -0.2, 0.8,0,0,1024,1024,1024,1024,0,0,0,0,0,0,91,3.972,3.978,3.998,3.987,4.001,4.004,0,,125.2507248,5.5,6,P-GPS,
18200,2022-10-12 09:52:12,45.4389540734,9.05595270446554,5.5,,,125.2507248,5.6,0,0.188083,1.02824,15,5,23.94,125.2507248,5.5,0,0.247888,0,0,0,60.1, -0.2, 0.6,0,0,1024,1024,1024,1024,0,0,0,0,0,0,91,3.972,3.978,3.998,3.987,4.001,4.004,0,,125.2507248,5.5,6,P-GPS,
18300,2022-10-12 09:52:12,45.4389540474271,9.05595272431168,5.5,,,125.2507248,5.6,0,0.185119,1.03151,15,5,23.94,125.2507248,5.5,0,0.247888,0,0,0,60.1, -0.1, 0.5,0,0,1024,1024,1024,1024,0,0,0,0,0,0,91,3.972,3.978,3.998,3.987,4.001,4.004,0,,125.2507248,5.5,6,P-GPS,
18400,2022-10-12 09:52:12,45.4389540066834,9.05595280076792,5.5,,,125.2507248,5.6,0,0.180403,1.03901,15,5,23.94,125.2507248,5.5,0,0.247888,0,0,0,60.1, -0.1, 0.4,0,0,1024,1024,1024,1024,0,0,0,0,0,0,91,3.972,3.978,3.998,3.987,4.001,4.004,0,,125.2507248,5.5,6,P-GPS,
18500,2022-10-12 09:52:13,45.438953976418,9.05595285676908,5.5,,,125.2507248,5.6,0,0.177023,1.04452,15,5,23.94,125.2507248,5.5,0,0.247888,0,0,0,60.1, -0.1, 0.4,0,0,1024,1024,1024,1024,0,0,0,0,0,0,91,3.972,3.978,3.998,3.987,4.001,4.004,0,,125.2507248,5.5,6,P-GPS,
18600,2022-10-12 09:52:13,45.4389539751234,9.05595284917798,5.5,,,125.2507248,5.6,0,0.176875,1.04513,15,5,23.94,125.2507248,5.5,0,0.247888,0,0,0,60.1, -0.1, 0.5,0,0,1024,1024,1024,1024,0,0,0,0,0,0,91,3.972,3.978,3.998,3.987,4.001,4.004,0,,125.2507248,5.5,6,P-GPS,
18700,2022-10-12 09:52:13,45.4389539789209,9.05595283087784,5.5,,,125.2507248,5.6,0,0.177295,1.04662,15,5,23.94,125.2507248,5.5,0,0.247888,0,0,0,60, 0, 0.7,0,0,1024,1024,1024,1024,0,0,0,0,0,0,91,3.972,3.978,3.998,3.987,4.001,4.004,0,,125.2507248,5.5,6,P-GPS,
18800,2022-10-12 09:52:13,45.4389540443119,9.0559527116648,5.5,,,125.2507248,5.6,0,0.184823,1.05843,15,5,23.94,125.2507248,5.5,0,0.247888,0,0,0,60, -0.1, 0.7,0,0,1024,1024,1024,1024,0,0,0,0,0,0,91,3.972,3.978,3.998,3.987,4.001,4.004,0,,125.2507248,5.5,6,P-GPS,
18900,2022-10-12 09:52:13,45.4389540626628,9.05595265652057,5.5,,,125.2507248,5.6,0,0.187134,1.06319,15,5,23.935,125.2507248,5.5,0,0.247888,0,0,0,60, -0.2, 0.8,0,0,1024,1024,1024,1024,0,0,0,0,0,0,91,3.971,3.978,3.997,3.986,4,4.003,0,,125.2507248,5.5,6,P-GPS,
19000,2022-10-12 09:52:13,45.4389540821138,9.05595261099685,5.5,,,125.2507248,5.6,0,0.189588,1.06735,15,5,23.935,125.2507248,5.5,0,0.247888,0,0,0,60.1, -0.2, 0.8,0,0,1024,1024,1024,1024,0,0,0,0,0,0,91,3.971,3.978,3.997,3.986,4,4.003,0,,125.2507248,5.5,6,P-GPS,
19100,2022-10-12 09:52:13,45.4389541052971,9.05595256601491,5.5,,,125.2507248,5.6,0,0.192508,1.0717,14,5,23.935,125.2507248,5.5,0,0.247888,0,0,0,60.1, -0.2, 0.8,0,0,1024,1024,1024,1024,0,0,0,0,0,0,91,3.971,3.978,3.997,3.986,4,4.003,0,,125.2507248,5.5,6,P-GPS,
19200,2022-10-12 09:52:13,45.438954257257,9.05595268520506,5.5,,,125.2507248,5.6,0,0.208581,1.09099,14,5,23.935,125.2507248,5.5,0,0.247888,0,0,0,60.1, -0.2, 0.9,0,0,1024,1024,1024,1024,0,0,0,0,0,0,91,3.971,3.978,3.997,3.986,4,4.003,0,,125.2507248,5.5,6,P-GPS,
19300,2022-10-12 09:52:13,45.4389543073308,9.05595270623779,5.5,,,125.2507248,5.6,0,0.214057,1.0968,14,5,23.935,125.2507248,5.5,0,0.247888,0,0,0,60.1, -0.2, 0.9,0,0,1024,1024,1024,1024,0,0,0,0,0,0,91,3.971,3.978,3.997,3.986,4,4.003,0,,125.2507248,5.5,6,P-GPS,
19400,2022-10-12 09:52:13,45.4389543201565,9.05595267559218,5.5,,,125.2507248,5.6,0,0.215607,1.09958,14,5,23.935,125.2507248,5.5,0,0.247888,0,0,0,60.1, -0.3, 0.9,0,0,1024,1024,1024,1024,0,0,0,0,0,0,91,3.971,3.978,3.997,3.986,4,4.003,0,,125.2507248,5.5,6,P-GPS,
19500,2022-10-12 09:52:14,45.4389543326523,9.05595265434236,5.5,,,125.2507248,5.6,0,0.217097,1.10175,14,5,23.935,125.2507248,5.5,0,0.247888,0,0,0,60.1, -0.3, 0.9,0,0,1024,1024,1024,1024,0,0,0,0,0,0,91,3.971,3.978,3.997,3.986,4,4.003,0,,125.2507248,5.5,6,P-GPS,
19600,2022-10-12 09:52:14,45.4389543831854,9.05595265255218,5.5,,,125.2507248,5.6,0,0.222714,1.10737,14,5,23.935,125.2507248,5.5,0,0.247888,0,0,0,60.1, -0.3, 0.9,0,0,1024,1024,1024,1024,0,0,0,0,0,0,91,3.971,3.978,3.997,3.986,4,4.003,0,,125.2507248,5.5,6,P-GPS,
19700,2022-10-12 09:52:14,45.4389544146127,9.05595264820569,5.5,,,125.2507248,5.6,0,0.226223,1.11088,14,5,23.935,125.2507248,5.5,0,0.247888,0,0,0,60.1, -0.2, 1,0,0,1024,1024,1024,1024,0,0,0,0,0,0,91,3.971,3.978,3.997,3.986,4,4.003,0,,125.2507248,5.5,6,P-GPS,
19800,2022-10-12 09:52:14,45.4389544114861,9.05595260696779,5.5,,,125.2507248,5.6,0,0.226108,1.11412,14,5,23.922,125.2507248,5.5,0,0.247888,0,0,0,60.1, -0.2, 1,0,0,1024,1024,1024,1024,0,0,0,0,0,0,91,3.967,3.977,3.995,3.984,3.998,4.001,0,,125.2507248,5.5,6,P-GPS,
19900,2022-10-12 09:52:14,45.4389544034514,9.0559525779857,5.5,,,125.2507248,5.6,0,0.225408,1.11655,14,5,23.922,125.2507248,5.5,0,0.247888,0,0,0,60.1, -0.2, 1,0,0,1024,1024,1024,1024,0,0,0,0,0,0,91,3.967,3.977,3.995,3.984,3.998,4.001,0,,125.2507248,5.5,6,P-GPS,
20100,2022-10-12 09:52:14,45.4389542674445,9.05595255714603,5.5,,,125.2507248,5.6,0,0.210511,1.13176,14,5,23.922,125.2507248,5.5,0,0.247888,0,0,0,60.1, -0.3, 0.8,0,0,1024,1024,1024,1024,0,0,0,0,0,0,91,3.967,3.977,3.995,3.984,3.998,4.001,0,,125.2507248,5.5,6,P-GPS,
20200,2022-10-12 09:52:14,45.4389542744566,9.0559525686296,5.5,,,125.2507248,5.6,0,0.211196,1.13295,14,5,23.922,125.2507248,5.5,0,0.247888,0,0,0,60.1, -0.4, 0.7,0,0,1024,1024,1024,1024,0,0,0,0,0,0,91,3.967,3.977,3.995,3.984,3.998,4.001,0,,125.2507248,5.5,6,P-GPS,
20300,2022-10-12 09:52:14,45.4389542757146,9.05595257108404,5.5,,,125.2507248,5.6,0,0.211316,1.13318,14,5,23.922,125.2507248,5.5,0,0.247888,0,0,0,60.1, -0.4, 0.6,0,0,1024,1024,1024,1024,0,0,0,0,0,0,91,3.967,3.977,3.995,3.984,3.998,4.001,0,,125.2507248,5.5,6,P-GPS,
20400,2022-10-12 09:52:14,45.4389542573938,9.05595253335516,5.5,,,125.2507248,5.6,0,0.2096,1.13676,14,5,23.922,125.2507248,5.5,0,0.247888,0,0,0,60.1, -0.5, 0.6,0,0,1024,1024,1024,1024,0,0,0,0,0,0,91,3.967,3.977,3.995,3.984,3.998,4.001,0,,125.2507248,5.5,6,P-GPS,
20500,2022-10-12 09:52:15,45.4389543043964,9.05595247219788,5.5,,,125.2507248,5.6,0,0.215372,1.14384,14,5,23.922,125.2507248,5.5,0,0.247888,0,0,0,60.1, -0.6, 0.6,0,0,1024,1024,1024,1024,0,0,0,0,0,0,91,3.967,3.977,3.995,3.984,3.998,4.001,0,,125.2507248,5.5,6,P-GPS,
20600,2022-10-12 09:52:15,45.4389542948415,9.05595245040894,5.5,,,125.2507248,5.6,0,0.214551,1.14585,14,5,23.922,125.2507248,5.5,0,0.247888,0,0,0,60.1, -0.6, 0.7,0,0,1024,1024,1024,1024,0,0,0,0,0,0,91,3.967,3.977,3.995,3.984,3.998,4.001,0,,125.2507248,5.5,6,P-GPS,
20700,2022-10-12 09:52:15,45.4389542873042,9.0559524298188,5.5,,,125.2507248,5.6,0,0.213954,1.14766,14,5,23.922,125.2507248,5.5,0,0.247888,0,0,0,60, -0.6, 0.7,0,0,1024,1024,1024,1024,0,0,0,0,0,0,91,3.967,3.977,3.995,3.984,3.998,4.001,0,,125.2507248,5.5,6,P-GPS,
20800,2022-10-12 09:52:15,45.4389542934939,9.05595237787492,5.5,,,125.2507248,5.6,0,0.215271,1.15177,14,5,23.922,125.2507248,5.5,0,0.247888,0,0,0,60, -0.5, 0.7,0,0,1024,1024,1024,1024,0,0,0,0,0,0,91,3.967,3.977,3.995,3.984,3.998,4.001,0,,125.2507248,5.5,6,P-GPS,
20900,2022-10-12 09:52:15,45.4389543487177,9.05595228095902,5.5,,,125.2507248,5.6,0,0.222677,1.16151,14,5,23.897,125.2507248,5.5,0,0.247888,0,0,0,60, -0.4, 0.7,0,0,1024,1024,1024,1024,0,0,0,0,0,0,91,3.962,3.97,3.99,3.981,3.995,3.999,0,,125.2507248,5.5,6,P-GPS,
21000,2022-10-12 09:52:15,45.4389544197529,9.05595228124365,5.5,,,125.2507248,5.6,0,0.230426,1.16941,14,5,23.897,125.2507248,5.5,0,0.247888,0,0,0,60, -0.3, 0.8,0,0,1024,1024,1024,1024,0,0,0,0,0,0,91,3.962,3.97,3.99,3.981,3.995,3.999,0,,125.2507248,5.5,6,P-GPS,
21100,2022-10-12 09:52:15,45.4389544820165,9.05595227640574,5.5,,,125.2507248,5.6,0,0.237299,1.17635,14,5,23.897,125.2507248,5.5,0,0.247888,0,0,0,60, -0.3, 0.8,0,0,1024,1024,1024,1024,0,0,0,0,0,0,91,3.962,3.97,3.99,3.981,3.995,3.999,0,,125.2507248,5.5,6,P-GPS,
21200,2022-10-12 09:52:15,45.4389545112446,9.05595224548314,5.5,,,125.2507248,5.6,0,0.240945,1.18039,14,5,23.897,125.2507248,5.5,0,0.247888,0,0,0,59.9, -0.3, 0.9,0,0,1024,1024,1024,1024,0,0,0,0,0,0,91,3.962,3.97,3.99,3.981,3.995,3.999,0,,125.2507248,5.5,6,P-GPS,
21300,2022-10-12 09:52:15,45.4389546276694,9.05595223895195,5.5,,,125.2507248,5.6,0,0.253758,1.19335,14,5,23.897,125.2507248,5.5,0,0.253758,0,0,0,59.9, -0.2, 0.8,0,0,1024,1024,1024,1024,0,0,0,0,0,0,91,3.962,3.97,3.99,3.981,3.995,3.999,0,,125.2507248,5.5,6,P-GPS,
21400,2022-10-12 09:52:15,45.4389546248318,9.05595224765905,5.5,,,125.2507248,5.6,0,0.253324,1.1941,14,5,23.897,125.2507248,5.5,0,0.253758,0,0,0,59.9, -0.1, 0.7,0,0,1024,1024,1024,1024,0,0,0,0,0,0,91,3.962,3.97,3.99,3.981,3.995,3.999,0,,125.2507248,5.5,6,P-GPS,
21500,2022-10-12 09:52:16,45.4389546301047,9.05595225343174,5.5,,,125.2507248,5.6,0,0.253819,1.19484,15,5,23.897,125.2507248,5.5,0,0.253819,0,0,0,59.9, -0.1, 0.7,0,0,1024,1024,1024,1024,0,0,0,0,0,0,91,3.962,3.97,3.99,3.981,3.995,3.999,0,,125.2507248,5.5,6,P-GPS,
21600,2022-10-12 09:52:16,45.438954668935,9.05595225246225,5.5,,,125.2507248,5.6,0,0.258082,1.19916,15,5,23.897,125.2507248,5.5,0,0.258082,0,0,0,59.9, -0.1, 0.8,0,0,1024,1024,1024,1024,0,0,0,0,0,0,91,3.962,3.97,3.99,3.981,3.995,3.999,0,,125.2507248,5.5,6,P-GPS,
21700,2022-10-12 09:52:16,45.4389546980108,9.05595224410845,5.5,,,125.2507248,5.6,0,0.26138,1.20246,15,5,23.897,125.2507248,5.5,0,0.26138,0,0,0,59.9, -0.2, 0.8,0,0,1024,1024,1024,1024,0,0,0,0,0,0,91,3.962,3.97,3.99,3.981,3.995,3.999,0,,125.2507248,5.5,6,P-GPS,
21800,2022-10-12 09:52:16,45.438954677363,9.05595225344051,5.5,,,125.2507248,5.6,0,0.258991,1.20487,15,5,23.897,125.2507248,5.5,0,0.26138,0,0,0,59.9, -0.3, 0.9,0,0,1024,1024,1024,1024,0,0,0,0,0,0,91,3.962,3.97,3.99,3.981,3.995,3.999,0,,125.2507248,5.5,6,P-GPS,
21900,2022-10-12 09:52:16,45.4389546577695,9.05595225934064,5.5,,,125.2507248,5.6,0,0.256765,1.20709,15,5,23.888,125.2507248,5.5,0,0.26138,0,0,0,59.9, -0.4, 1,0,0,1024,1024,1024,1024,0,0,0,0,0,0,91,3.962,3.968,3.99,3.979,3.993,3.996,0,,125.2507248,5.5,6,P-GPS,
22000,2022-10-12 09:52:16,45.4389546479655,9.05595219074334,5.5,,,125.2507248,5.6,0,0.256689,1.21256,15,5,23.888,125.2507248,5.5,0,0.26138,0,0,0,59.9, -0.3, 1,0,0,1024,1024,1024,1024,0,0,0,0,0,0,91,3.962,3.968,3.99,3.979,3.993,3.996,0,,125.2507248,5.5,6,P-GPS,
22100,2022-10-12 09:52:16,45.4389546373505,9.05595213373872,5.5,,,125.2507248,5.6,0,0.256445,1.21716,15,5,23.888,125.2507248,5.5,0,0.26138,0,0,0,59.9, -0.3, 0.8,0,0,1024,1024,1024,1024,0,0,0,0,0,0,91,3.962,3.968,3.99,3.979,3.993,3.996,0,,125.2507248,5.5,6,P-GPS,
22200,2022-10-12 09:52:16,45.4389546901218,9.05595207405475,5.5,,,125.2507248,5.6,0,0.263195,1.22465,15,5,23.888,125.2507248,5.5,0,0.263195,0,0,0,59.9, -0.3, 0.6,0,0,1024,1024,1024,1024,0,0,0,0,0,0,91,3.962,3.968,3.99,3.979,3.993,3.996,0,,125.2507248,5.5,6,P-GPS,
