time(millisecond),datetime(utc),latitude,longitude,height_above_takeoff(meters),height_above_ground_at_drone_location(meters),ground_elevation_at_drone_location(meters),altitude_above_seaLevel(meters),height_sonar(meters),speed(m/s),distance(meters),mileage(meters),satellites,gpslevel,voltage(v),max_altitude(meters),max_ascent(meters),max_speed(m/s),max_distance(meters), xSpeed(m/s), ySpeed(m/s), zSpeed(m/s), compass_heading(degrees), pitch(degrees), roll(degrees),isPhoto,isVideo,rc_elevator,rc_aileron,rc_throttle,rc_rudder,rc_elevator(percent),rc_aileron(percent),rc_throttle(percent),rc_rudder(percent),gimbal_heading(degrees),gimbal_pitch(degrees),battery_percent,voltageCell1,voltageCell2,voltageCell3,voltageCell4,voltageCell5,voltageCell6,current(A),battery_temperature(c),altitude(meters),ascent(meters),flycStateRaw,flycState,message
781500,2022-10-12 10:32:00,45.4389811991878,9.05596697353772,0,Available with any HD 360 subscription,Available with any HD 360 subscription,119.7697067,0.1,0,0,0,16,5,0,119.7697067,0,0,0,0,0,0,57.2, 1.3, 3.7,0,0,1024,1024,1024,1024,0,0,0,0,0,0,47,3.837,3.84,3.84,3.84,3.84,3.837,0,,119.7697067,0,6,P-GPS,"GEO: You are in a Warning Zone (Class D Airspace). Fly with caution."
781600,2022-10-12 10:32:00,45.4389812083071,9.05596702612523,0,,,119.7697067,0.1,0,0.00422685,0.00422685,16,5,0,119.7697067,0,0,0.00422685,0,0,0,57.2, 1.3, 3.7,0,0,1024,1024,1024,1024,0,0,0,0,0,0,47,3.837,3.84,3.84,3.84,3.84,3.837,0,,119.7697067,0,41,Motors_Started,"Home Point recorded. Return-to-Home Altitude:45M"
781700,2022-10-12 10:32:00,45.438981213619,9.05596701954941,0,,,119.7697067,0.1,0,0.0033469,0.00500931,16,5,0,119.7697067,0,0,0.00422685,0,0,0,57.2, 1.3, 3.7,0,0,1024,1024,1024,1024,0,0,0,0,0,0,47,3.837,3.84,3.84,3.84,3.84,3.837,0,,119.7697067,0,41,Motors_Started,
781800,2022-10-12 10:32:00,45.4389812146808,9.05596700667209,0,,,119.7697067,0.1,0,0.00254753,0.00602104,16,5,0,119.7697067,0,0,0.00422685,0,0,0,57.2, 1.3, 3.7,0,0,1024,789,1024,1100,0,-36,0,12,0,0,47,3.837,3.84,3.84,3.84,3.84,3.837,0,,119.7697067,0,41,Motors_Started,
781900,2022-10-12 10:32:00,45.4389811842549,9.0559669224653,0,,,119.7697067,0.1,0,0.00490618,0.0134117,16,5,0,119.7697067,0,0,0.00490618,0,0,0,57.2, 1.3, 3.7,0,0,1024,1024,1024,1024,0,0,0,0,0,0,47,3.837,3.84,3.84,3.84,3.84,3.837,0,,119.7697067,0,41,Motors_Started,
782000,2022-10-12 10:32:00,45.4389811749728,9.05596693293244,0,,,119.7697067,0.1,0,0.0047055,0.014728,16,5,0,119.7697067,0,0,0.00490618,0,0,0,57.1, 1.3, 3.7,0,0,1024,1024,1024,1024,0,0,0,0,0,0,47,3.837,3.84,3.84,3.84,3.84,3.837,0,,119.7697067,0,41,Motors_Started,
782100,2022-10-12 10:32:00,45.4389811672963,9.05596699833317,0,,,119.7697067,0.1,0,0.00395824,0.0199021,16,5,0,119.7697067,0,0,0.00490618,0,0,0,57.1, 1.3, 3.7,0,0,1024,1024,1024,1024,0,0,0,0,0,0,47,3.837,3.84,3.84,3.84,3.84,3.837,0,,119.7697067,0,41,Motors_Started,
782200,2022-10-12 10:32:01,45.4389811569362,9.05596707832929,0,,,119.7697067,0.1,0,0.00903258,0.0262496,16,5,23.034,119.7697067,0,0,0.00903258,0,0,0,57.1, 1.3, 3.7,0,0,1024,1024,1024,1024,0,0,0,0,0,0,47,3.837,3.84,3.84,3.84,3.84,3.837,0,,119.7697067,0,41,Motors_Started,
782300,2022-10-12 10:32:01,45.4389811356947,9.05596703676788,0,,,119.7697067,0.1,0,0.00844521,0.0302617,16,5,23.034,119.7697067,0,0,0.00903258,0,0,0,57.1, 1.3, 3.7,0,0,1024,1024,1024,1024,0,0,0,0,0,0,47,3.837,3.84,3.84,3.84,3.84,3.837,0,,119.7697067,0,41,Motors_Started,
782400,2022-10-12 10:32:01,45.4389811223903,9.0559670226166,0,,,119.7697067,0.1,0,0.00929934,0.0321079,16,5,23.034,119.7697067,0,0,0.00929934,0,0,0,57.1, 1.3, 3.7,0,0,1024,1024,1024,1024,0,0,0,0,0,0,47,3.837,3.84,3.84,3.84,3.84,3.837,0,,119.7697067,0,41,Motors_Started,
782500,2022-10-12 10:32:01,45.4389811157398,9.05596697519589,0,,,119.7697067,0.1,0,0.00945813,0.0358813,16,5,23.034,119.7697067,0,0,0.00945813,0,0,0,57.1, 1.3, 3.7,0,0,1024,1024,1024,1024,0,0,0,0,0,0,47,3.837,3.84,3.84,3.84,3.84,3.837,0,,119.7697067,0,41,Motors_Started,
782600,2022-10-12 10:32:01,45.4389811115873,9.05596692315322,0,,,119.7697067,0.1,0,0.0108832,0.0399683,16,5,23.034,119.7697067,0,0,0.0108832,0,0,0,57.1, 1.3, 3.7,0,0,1024,1024,1024,1024,0,0,0,0,0,0,47,3.837,3.84,3.84,3.84,3.84,3.837,0,,119.7697067,0,41,Motors_Started,
782700,2022-10-12 10:32:01,45.438981123514,9.05596675744171,0,,,119.7697067,0.1,0,0.0194283,0.0529666,16,5,23.034,119.7697067,0,0,0.0194283,0,0,0,57.1, 1.3, 3.7,0,0,1024,1024,1024,1024,0,0,0,0,0,0,47,3.837,3.84,3.84,3.84,3.84,3.837,0,,119.7697067,0,41,Motors_Started,
782800,2022-10-12 10:32:01,45.438981119762,9.0559667448265,0,,,119.7697067,0.1,0,0.0204958,0.0540358,16,5,23.034,119.7697067,0,0,0.0204958,0,0,0,57.1, 1.3, 3.7,0,0,1024,1024,1024,1024,0,0,0,0,0,0,47,3.837,3.84,3.84,3.84,3.84,3.837,0,,119.7697067,0,41,Motors_Started,
782900,2022-10-12 10:32:01,45.4389811177656,9.05596674132856,0,,,119.7697067,0.1,0,0.0208387,0.0543876,16,5,23.034,119.7697067,0,0,0.0208387,0,0,0,57.1, 1.3, 3.6,0,0,1024,1024,1024,1024,0,0,0,0,0,0,47,3.837,3.84,3.84,3.84,3.84,3.837,0,,119.7697067,0,41,Motors_Started,
783000,2022-10-12 10:32:01,45.4389811081349,9.05596673719878,0,,,119.7697067,0.1,0,0.0216171,0.055506,16,5,23.034,119.7697067,0,0,0.0216171,0,0,0,57.1, 1.3, 3.6,0,0,1024,1024,1024,1024,0,0,0,0,0,0,47,3.837,3.84,3.84,3.84,3.84,3.837,0,,119.7697067,0,41,Motors_Started,
783100,2022-10-12 10:32:01,45.4389810989538,9.05596669185059,0,,,119.7697067,0.1,0,0.0252272,0.0591889,16,5,23.034,119.7697067,0,0,0.0252272,0,0,0,57.1, 1.3, 3.6,0,0,1024,1024,1024,1024,0,0,0,0,0,0,47,3.837,3.84,3.84,3.84,3.84,3.837,0,,119.7697067,0,10,Assisted_Takeoff,
783200,2022-10-12 10:32:02,45.4389811147725,9.05596656938537,0,,,119.7697067,0.1,0,0.0334953,0.0689054,16,5,23.037,119.7697067,0,0,0.0334953,0,0,0,57.1, 1.3, 3.6,0,0,1024,1024,1024,1024,0,0,0,0,0,0,47,3.837,3.84,3.84,3.841,3.842,3.837,0,,119.7697067,0,10,Assisted_Takeoff,
783300,2022-10-12 10:32:02,45.4389811074249,9.05596653972187,0,,,119.7697067,0.1,0,0.0359471,0.07136,16,5,23.037,119.7697067,0,0,0.0359471,0,0,0,57.2, 1.3, 3.6,0,0,1024,1024,1024,1024,0,0,0,0,0,0,47,3.837,3.84,3.84,3.841,3.842,3.837,0,,119.7697067,0,10,Assisted_Takeoff,
783400,2022-10-12 10:32:02,45.4389810973546,9.05596651583219,0,,,119.7697067,0.1,0,0.0380588,0.0735346,16,5,23.037,119.7697067,0,0,0.0380588,0,0,0,57.2, 1.3, 3.6,0,0,1024,1024,1024,1024,0,0,0,0,0,0,47,3.837,3.84,3.84,3.841,3.842,3.837,0,,119.7697067,0,10,Assisted_Takeoff,
783500,2022-10-12 10:32:02,45.4389810462248,9.0559664688926,0,,,119.7697067,0.1,0,0.0434821,0.0802982,16,5,23.037,119.7697067,0,0,0.0434821,0,0,0,57.2, 1.3, 3.6,0,0,1024,1024,1024,1024,0,0,0,0,0,0,47,3.837,3.84,3.84,3.841,3.842,3.837,0,,119.7697067,0,10,Assisted_Takeoff,
783600,2022-10-12 10:32:02,45.4389809303186,9.0559663714777,0,,,119.7697067,0.1,0,0.0562558,0.0952621,16,5,23.037,119.7697067,0,0,0.0562558,0,0,0,57.2, 1.3, 3.6,0,0,1024,1024,1024,1024,0,0,0,0,0,0,47,3.837,3.84,3.84,3.841,3.842,3.837,0,,119.7697067,0,10,Assisted_Takeoff,
783700,2022-10-12 10:32:02,45.4389809009904,9.05596631231246,0,,,119.7697067,0.1,0,0.0619016,0.100915,16,5,23.037,119.7697067,0,0,0.0619016,0,0,0,57.2, 1.3, 3.6,0,0,1024,1024,1024,1024,0,0,0,0,0,0,47,3.837,3.84,3.84,3.841,3.842,3.837,0,,119.7697067,0,10,Assisted_Takeoff,
783800,2022-10-12 10:32:02,45.4389808756974,9.05596624926849,0,,,119.7697067,0.1,0,0.067562,0.106581,16,5,23.037,119.7697067,0,0,0.067562,0,0,0,57.2, 1.3, 3.6,0,0,1024,1024,1024,1024,0,0,0,0,0,0,47,3.837,3.84,3.84,3.841,3.842,3.837,0,,119.7697067,0,10,Assisted_Takeoff,
783900,2022-10-12 10:32:02,45.4389808674281,9.05596623316603,0,,,119.7697067,0.1,0,0.0691155,0.108138,16,5,23.037,119.7697067,0,0,0.0691155,0,0,0,57.2, 1.3, 3.6,0,0,1024,1024,1032,1024,0,0,1,0,0,0,47,3.837,3.84,3.84,3.841,3.842,3.837,0,,119.7697067,0,10,Assisted_Takeoff,
784000,2022-10-12 10:32:02,45.438980921017,9.05596624289679,0,,,119.7697067,0.1,0,0.0654425,0.114146,16,5,23.037,119.7697067,0,0,0.0691155,0,0,0,57.2, 1.3, 3.6,0,0,1024,1024,1071,1024,0,0,7,0,0,0,47,3.837,3.84,3.84,3.841,3.842,3.837,0,,119.7697067,0,10,Assisted_Takeoff,
784100,2022-10-12 10:32:02,45.4389809280388,9.0559661985593,0,,,119.7697067,0.1,0,0.0681553,0.117693,16,5,23.037,119.7697067,0,0,0.0691155,0,0,0,57.2, 1.3, 3.6,0,0,1024,1024,1110,1024,0,0,13,0,0,0,47,3.837,3.84,3.84,3.841,3.842,3.837,0,,119.7697067,0,10,Assisted_Takeoff,
784200,2022-10-12 10:32:03,45.4389809327352,9.05596614231703,0,,,119.7697067,0.1,0,0.071894,0.122112,16,5,22.964,119.7697067,0,0,0.071894,0,0,0,57.2, 1.3, 3.6,0,0,1024,1024,1156,1024,0,0,20,0,0,0,47,3.822,3.83,3.828,3.828,3.83,3.826,0,,119.7697067,0,10,Assisted_Takeoff,
784300,2022-10-12 10:32:03,45.4389808978019,9.05596608981079,0,,,119.7697067,0.1,0,0.0772546,0.127758,16,5,22.964,119.7697067,0,0,0.0772546,0,0,0,57.2, 1.3, 3.6,0,0,1024,1024,1214,1024,0,0,29,0,0,0,47,3.822,3.83,3.828,3.828,3.83,3.826,0,,119.7697067,0,10,Assisted_Takeoff,
784400,2022-10-12 10:32:03,45.4389808542117,9.05596600267913,0,,,119.7697067,0.1,0,0.0854982,0.136108,16,5,22.964,119.7697067,0,0,0.0854982,0,0,0,57.2, 1.2, 3.6,0,0,1024,1024,1243,1024,0,0,33,0,0,0,47,3.822,3.83,3.828,3.828,3.83,3.826,0,,119.7697067,0,10,Assisted_Takeoff,
784500,2022-10-12 10:32:03,45.4389808358135,9.05596598652859,0,,,119.7697067,0.1,0,0.0875543,0.138511,16,5,22.964,119.7697067,0,0,0.0875543,0,0,0,57.2, 1.2, 3.6,0,0,1024,1024,1270,1024,0,0,37,0,0,0,47,3.822,3.83,3.828,3.828,3.83,3.826,0,,119.7697067,0,10,Assisted_Takeoff,
784600,2022-10-12 10:32:03,45.4389808131521,9.0559659684921,0,,,119.7697067,0.1,0,0.0899832,0.141398,16,5,22.964,119.7697067,0,0,0.0899832,0,0,0,57.2, 1.2, 3.6,0,0,1024,1024,1277,1024,0,0,38,0,0,0,47,3.822,3.83,3.828,3.828,3.83,3.826,0,,119.7697067,0,10,Assisted_Takeoff,
784700,2022-10-12 10:32:03,45.4389807972031,9.05596593410552,0,,,119.7697067,0.1,0,0.0931885,0.144614,16,5,22.964,119.7697067,0,0,0.0931885,0,0,0,57.2, 1.2, 3.6,0,0,1024,1024,1283,1024,0,0,39,0,0,0,47,3.822,3.83,3.828,3.828,3.83,3.826,0,,119.7697067,0,10,Assisted_Takeoff,
784800,2022-10-12 10:32:03,45.4389807836056,9.05596590182771,0,,,119.7697067,0.1,0,0.0961241,0.147552,16,5,22.964,119.7697067,0,0,0.0961241,0,0,0,57.3, 1.2, 3.6,0,0,1024,1024,1294,1024,0,0,41,0,0,0,47,3.822,3.83,3.828,3.828,3.83,3.826,0,,119.7697067,0,10,Assisted_Takeoff,
784900,2022-10-12 10:32:03,45.4389808514694,9.05596599737574,0,,,119.7697067,0.1,0,0.0860051,0.15816,16,5,22.964,119.7697067,0,0,0.0961241,0,0,0,57.3, 1.2, 3.7,0,0,1024,1024,1306,1024,0,0,43,0,0,0,47,3.822,3.83,3.828,3.828,3.83,3.826,0,,119.7697067,0,10,Assisted_Takeoff,
785000,2022-10-12 10:32:03,45.438980831293,9.05596599909915,0,,,119.7697067,0.1,0,0.0869227,0.160408,16,5,22.964,119.7697067,0,0,0.0961241,0,0,0,57.2, 1.2, 3.9,0,0,1024,1024,1309,1024,0,0,43,0,0,0,47,3.822,3.83,3.828,3.828,3.83,3.826,0,,119.7697067,0,10,Assisted_Takeoff,
785100,2022-10-12 10:32:03,45.4389807608237,9.05596598050523,0,,,119.7697067,0.1,0,0.0921153,0.168378,16,5,22.964,119.7697067,0,0,0.0961241,0,0,0,57.2, 1.2, 4.5,0,0,1024,1024,1311,1024,0,0,43,0,0,0,47,3.822,3.83,3.828,3.828,3.83,3.826,0,,119.7697067,0,10,Assisted_Takeoff,
785200,2022-10-12 10:32:04,45.4389806412242,9.05596597979328,0,,,119.7697067,0.1,0.1,0.0998599,0.181678,16,5,23.02,119.7697067,0,0.1,0.0998599,-0.1,0,-0.1,57.2, 1, 5,0,0,1024,1024,1310,1024,0,0,43,0,0,0,47,3.834,3.838,3.838,3.836,3.838,3.836,0,,119.7697067,0,10,Assisted_Takeoff,
785300,2022-10-12 10:32:04,45.4389804929479,9.05596594150241,0,,,119.7697067,0.1,0.1,0.113011,0.198436,16,5,23.02,119.7697067,0,0.1,0.113011,-0.1,0,-0.3,57.3, 0.9, 4.5,0,0,1024,1024,1299,1024,0,0,42,0,0,0,47,3.834,3.838,3.838,3.836,3.838,3.836,0,,119.7697067,0,6,P-GPS,
785400,2022-10-12 10:32:04,45.4389802773452,9.05596600790888,0,,,119.7697067,0.2,0.22,0.127698,0.222966,16,5,23.02,119.7697067,0,0.22,0.127698,-0.2,0.1,-0.5,57.4, 0.4, 2.6,0,0,1024,1024,1295,1024,0,0,41,0,0,0,47,3.834,3.838,3.838,3.836,3.838,3.836,0,,119.7697067,0,6,P-GPS,
785600,2022-10-12 10:32:04,45.4389797646621,9.05596627096089,0.2,,,119.9697067,0.3,0.32,0.169029,0.283561,16,5,23.02,119.9697067,0.2,0.32,0.169029,-0.3,0.1,-0.8,57.4, -0.5, -2.9,0,0,1024,1024,1295,1024,0,0,41,0,0,0,47,3.834,3.838,3.838,3.836,3.838,3.836,0,,119.9697067,0.2,6,P-GPS,
785700,2022-10-12 10:32:04,45.4389794961838,9.05596639699044,0.2,,,119.9697067,0.4,0.32,0.19495,0.314996,16,5,23.02,119.9697067,0.2,0.32,0.19495,-0.2,0,-0.8,57.4, -0.6, -3.8,0,0,1024,1024,1295,1024,0,0,41,0,0,0,47,3.834,3.838,3.838,3.836,3.838,3.836,0,,119.9697067,0.2,6,P-GPS,
785800,2022-10-12 10:32:04,45.4389792608932,9.05596642201673,0.3,,,120.0697067,0.5,0.1,0.220081,0.341234,16,5,23.02,120.0697067,0.3,0.32,0.220081,-0.1,0,-0.8,57.4, -0.6, -3.3,0,0,1024,1024,1311,1024,0,0,43,0,0,0,47,3.834,3.838,3.838,3.836,3.838,3.836,0,,120.0697067,0.3,6,P-GPS,
785900,2022-10-12 10:32:04,45.4389790290842,9.05596634769905,0.4,,,120.1697067,0.6,0.1,0.246498,0.367657,16,5,23.02,120.1697067,0.4,0.32,0.246498,-0.1,0,-0.9,57.3, -0.9, -2.2,0,0,1024,1024,1331,1024,0,0,47,0,0,0,47,3.834,3.838,3.838,3.836,3.838,3.836,0,,120.1697067,0.4,6,P-GPS,
786000,2022-10-12 10:32:04,45.4389788049256,9.0559662472284,0.5,,,120.2697067,0.7,0,0.272504,0.393788,16,5,23.02,120.2697067,0.5,0.32,0.272504,0,0,-0.9,57.3, -1.2, -1.2,0,0,1024,1024,1334,1024,0,0,47,0,0,0,47,3.834,3.838,3.838,3.836,3.838,3.836,0,,120.2697067,0.5,6,P-GPS,
786100,2022-10-12 10:32:04,45.4389784295888,9.05596595923939,0.6,,,120.3697067,0.8,0,0.318307,0.441193,16,5,23.02,120.3697067,0.6,0.32,0.318307,0,0,-0.9,57.4, -1.1, -0.8,0,0,1024,1024,1328,1024,0,0,46,0,0,0,47,3.834,3.838,3.838,3.836,3.838,3.836,0,,120.3697067,0.6,6,P-GPS,
786200,2022-10-12 10:32:05,45.4389782494618,9.05596585275951,0.7,,,120.4697067,0.9,0,0.339794,0.462879,15,5,23.02,120.4697067,0.7,0.32,0.339794,0,0,-0.9,57.4, -0.8, -1,0,0,1024,1024,1320,1024,0,0,45,0,0,0,47,3.834,3.838,3.838,3.836,3.838,3.836,0,,120.4697067,0.7,6,P-GPS,
786300,2022-10-12 10:32:05,45.438978156489,9.05596580985165,0.8,,,120.5697067,1,0,0.350648,0.473747,15,5,22.89,120.5697067,0.8,0.32,0.350648,0,0,-1,57.3, -0.7, -1.2,0,0,1024,1024,1320,1024,0,0,45,0,0,0,47,3.807,3.818,3.817,3.816,3.819,3.813,0,,120.5697067,0.8,6,P-GPS,
786400,2022-10-12 10:32:05,45.4389780817565,9.05596576436686,0.9,,,120.6697067,1.1,0,0.359599,0.482784,15,5,22.89,120.6697067,0.9,0.32,0.359599,0,0,-1,57.3, -0.8, -1.3,0,0,1024,1024,1318,1024,0,0,45,0,0,0,47,3.807,3.818,3.817,3.816,3.819,3.813,0,,120.6697067,0.9,6,P-GPS,
786500,2022-10-12 10:32:05,45.4389779896468,9.05596561671168,1,,,120.7697067,1.2,0,0.372615,0.4982,15,5,22.89,120.7697067,1,0.32,0.372615,0,0,-1,57.3, -0.9, -1.2,0,0,1024,1024,1320,1024,0,0,45,0,0,0,47,3.807,3.818,3.817,3.816,3.819,3.813,0,,120.7697067,1,6,P-GPS,
786600,2022-10-12 10:32:05,45.4389780035765,9.05596532847124,1.1,,,120.8697067,1.3,0,0.378195,0.520745,15,5,22.89,120.8697067,1.1,0.32,0.378195,0,0,-1,57.3, -1.1, -1.3,0,0,1024,1024,1331,1024,0,0,47,0,0,0,47,3.807,3.818,3.817,3.816,3.819,3.813,0,,120.8697067,1.1,6,P-GPS,
786700,2022-10-12 10:32:05,45.4389779657624,9.05596530347815,1.2,,,120.9697067,1.4,0,0.382814,0.52538,15,5,22.89,120.9697067,1.2,0.32,0.382814,0,0,-1,57.3, -1.1, -1.5,0,0,1024,1024,1331,1024,0,0,47,0,0,0,47,3.807,3.818,3.817,3.816,3.819,3.813,0,,120.9697067,1.2,6,P-GPS,
786800,2022-10-12 10:32:05,45.4389779456088,9.05596529990466,1.3,,,121.0697067,1.6,0,0.385015,0.527638,16,5,22.89,121.0697067,1.3,0.32,0.385015,0,0,-1.1,57.3, -1, -1.6,0,0,1024,1024,1329,1024,0,0,46,0,0,0,47,3.807,3.818,3.817,3.816,3.819,3.813,0,,121.0697067,1.3,6,P-GPS,
786900,2022-10-12 10:32:05,45.4389779830597,9.05596525572474,1.4,,,121.1697067,1.7,0,0.382303,0.533045,16,5,22.89,121.1697067,1.4,0.32,0.385015,0,0,-1.1,57.3, -1, -1.5,0,0,1024,1024,1338,1024,0,0,48,0,0,0,47,3.807,3.818,3.817,3.816,3.819,3.813,0,,121.1697067,1.4,6,P-GPS,
787000,2022-10-12 10:32:05,45.438978201649,9.05596543961276,1.6,,,121.3697067,1.8,0,0.354532,0.561272,15,5,22.89,121.3697067,1.6,0.32,0.385015,0,0,-1.1,57.3, -1.1, -1.3,0,0,1024,1024,1346,1024,0,0,49,0,0,0,47,3.807,3.818,3.817,3.816,3.819,3.813,0,,121.3697067,1.6,6,P-GPS,
787100,2022-10-12 10:32:05,45.4389782336023,9.05596530833133,1.7,,,121.4697067,1.9,0,0.35483,0.572115,15,5,22.89,121.4697067,1.7,0.32,0.385015,0,0,-1.2,57.3, -1.2, -0.7,0,0,1024,1024,1354,1024,0,0,50,0,0,0,47,3.807,3.818,3.817,3.816,3.819,3.813,0,,121.4697067,1.7,6,P-GPS,
787200,2022-10-12 10:32:06,45.4389782730742,9.05596515529149,1.8,,,121.5697067,2.1,0,0.355368,0.584838,15,5,22.89,121.5697067,1.8,0.32,0.385015,0,0,-1.2,57.4, -1.3, 0,0,0,1024,1024,1369,1024,0,0,52,0,0,0,47,3.807,3.818,3.817,3.816,3.819,3.813,0,,121.5697067,1.8,6,P-GPS,
787300,2022-10-12 10:32:06,45.4389783044739,9.05596505626077,1.9,,,121.6697067,2.2,0,0.355367,0.593318,15,5,22.56,121.6697067,1.9,0.32,0.385015,0,0,-1.2,57.5, -1.3, 0.5,0,0,1024,1024,1367,1024,0,0,52,0,0,0,47,3.742,3.768,3.762,3.761,3.769,3.758,0,,121.6697067,1.9,6,P-GPS,
787400,2022-10-12 10:32:06,45.4389783428481,9.05596498876348,2.1,,,121.8697067,2.4,0,0.353786,0.600096,15,5,22.56,121.8697067,2.1,0.32,0.385015,0,0,-1.3,57.4, -1.2, 0.5,0,0,1024,1024,1358,1024,0,0,51,0,0,0,47,3.742,3.768,3.762,3.761,3.769,3.758,0,,121.8697067,2.1,6,P-GPS,
787500,2022-10-12 10:32:06,45.4389784260405,9.05596497085939,2.2,,,121.9697067,2.5,0,0.34613,0.609453,15,5,22.56,121.9697067,2.2,0.32,0.385015,0,0,-1.3,57.4, -0.7, 0.1,0,0,1024,1024,1361,1024,0,0,51,0,0,0,47,3.742,3.768,3.762,3.761,3.769,3.758,0,,121.9697067,2.2,6,P-GPS,
787600,2022-10-12 10:32:06,45.4389785106707,9.05596495767035,2.4,,,122.1697067,2.7,0,0.338246,0.61892,16,5,22.56,122.1697067,2.4,0.32,0.385015,0,0,-1.4,57.4, -0.4, -0.1,0,0,1024,1024,1359,1024,0,0,51,0,0,0,47,3.742,3.768,3.762,3.761,3.769,3.758,0,,122.1697067,2.4,6,P-GPS,
787700,2022-10-12 10:32:06,45.4389785648099,9.05596491409555,2.5,,,122.2697067,2.8,0,0.334559,0.625835,16,5,22.56,122.2697067,2.5,0.32,0.385015,0,0,-1.4,57.4, -0.4, -0.2,0,0,1024,1024,1366,1024,0,0,52,0,0,0,47,3.742,3.768,3.762,3.761,3.769,3.758,0,,122.2697067,2.5,6,P-GPS,
787800,2022-10-12 10:32:06,45.4389786190355,9.0559649024487,2.7,,,122.4697067,3,0,0.329735,0.631933,16,5,22.56,122.4697067,2.7,0.32,0.385015,0,0,-1.4,57.4, -0.6, -0.3,0,0,1024,1024,1370,1024,0,0,52,0,0,0,47,3.742,3.768,3.762,3.761,3.769,3.758,0,,122.4697067,2.7,6,P-GPS,
787900,2022-10-12 10:32:06,45.4389786005917,9.05596484486455,2.8,,,122.5697067,3.1,0,0.333743,0.636872,16,5,22.56,122.5697067,2.8,0.32,0.385015,0,0,-1.4,57.4, -0.9, -0.4,0,0,1024,1024,1361,1024,0,0,51,0,0,0,47,3.742,3.768,3.762,3.761,3.769,3.758,0,,122.5697067,2.8,6,P-GPS,
788000,2022-10-12 10:32:06,45.4389785769256,9.0559647911599,3,,,122.7697067,3.3,0,0.338124,0.641821,15,5,22.56,122.7697067,3,0.32,0.385015,0,0,-1.4,57.4, -1, -0.5,0,0,1024,1024,1367,1024,0,0,52,0,0,0,47,3.742,3.768,3.762,3.761,3.769,3.758,0,,122.7697067,3,6,P-GPS,
788100,2022-10-12 10:32:06,45.4389785915001,9.0559648147268,3.1,,,122.8697067,3.4,0,0.335797,0.644272,15,5,22.56,122.8697067,3.1,0.32,0.385015,0,0,-1.4,57.4, -1, -0.4,0,0,1024,1024,1375,1024,0,0,53,0,0,0,47,3.742,3.768,3.762,3.761,3.769,3.758,0,,122.8697067,3.1,6,P-GPS,
788200,2022-10-12 10:32:07,45.4389786260118,9.05596485134919,3.3,,,123.0697067,3.6,0,0.331043,0.649057,16,5,22.56,123.0697067,3.3,0.32,0.385015,0,0,-1.4,57.3, -1, -0.2,0,0,1024,1024,1359,1024,0,0,51,0,0,0,47,3.742,3.768,3.762,3.761,3.769,3.758,0,,123.0697067,3.3,6,P-GPS,
788300,2022-10-12 10:32:07,45.4389784373761,9.0559649101306,3.4,,,123.1697067,3.7,0,0.347187,0.67053,16,5,22.538,123.1697067,3.4,0.32,0.385015,0,0,-1.4,57.2, -1.2, -0.1,0,0,1024,1024,1372,1024,0,0,53,0,0,0,47,3.739,3.765,3.757,3.758,3.765,3.754,0,,123.1697067,3.4,6,P-GPS,
788400,2022-10-12 10:32:07,45.4389784058738,9.05596483159005,3.6,,,123.3697067,3.9,0,0.35316,0.677589,16,5,22.538,123.3697067,3.6,0.32,0.385015,0,0,-1.4,57.2, -1.3, -0.2,0,0,1024,1024,1372,1024,0,0,53,0,0,0,47,3.739,3.765,3.757,3.758,3.765,3.754,0,,123.3697067,3.6,6,P-GPS,
788500,2022-10-12 10:32:07,45.4389784379053,9.05596477426383,3.8,,,123.5697067,4,0,0.352194,0.683307,16,5,22.538,123.5697067,3.8,0.32,0.385015,0,0,-1.4,57.1, -1.2, -0.5,0,0,1024,1024,1374,1024,0,0,53,0,0,0,47,3.739,3.765,3.757,3.758,3.765,3.754,0,,123.5697067,3.8,6,P-GPS,
788600,2022-10-12 10:32:07,45.4389784971058,9.05596470987074,3.9,,,123.6697067,4.2,0,0.34899,0.691589,17,5,22.538,123.6697067,3.9,0.32,0.385015,0,0,-1.4,57, -1.1, -0.7,0,0,1024,1024,1379,1024,0,0,54,0,0,0,47,3.739,3.765,3.757,3.758,3.765,3.754,0,,123.6697067,3.9,6,P-GPS,
788700,2022-10-12 10:32:07,45.4389785715615,9.05596472167327,4.1,,,123.8697067,4.3,0,0.341407,0.69992,17,5,22.538,123.8697067,4.1,0.32,0.385015,0,0,-1.5,57, -1.1, -0.5,0,0,1024,1024,1380,1024,0,0,54,0,0,0,47,3.739,3.765,3.757,3.758,3.765,3.754,0,,123.8697067,4.1,6,P-GPS,
788800,2022-10-12 10:32:07,45.4389786213007,9.05596469349891,4.2,,,123.9697067,4.5,0,0.337838,0.705872,17,5,22.538,123.9697067,4.2,0.32,0.385015,0,0,-1.5,57.1, -1.1, -0.1,0,0,1024,1024,1375,1024,0,0,53,0,0,0,47,3.739,3.765,3.757,3.758,3.765,3.754,0,,123.9697067,4.2,6,P-GPS,
788900,2022-10-12 10:32:07,45.4389786486781,9.05596464239101,4.4,,,124.1697067,4.6,0,0.337397,0.710889,17,5,22.538,124.1697067,4.4,0.32,0.385015,0,0,-1.5,57.1, -1.2, 0.2,0,0,1024,1024,1376,1024,0,0,53,0,0,0,47,3.739,3.765,3.757,3.758,3.765,3.754,0,,124.1697067,4.4,6,P-GPS,
789000,2022-10-12 10:32:07,45.4389786652035,9.05596458853526,4.5,,,124.2697067,4.8,0,0.338154,0.715476,17,5,22.538,124.2697067,4.5,0.32,0.385015,0,0,-1.5,57.2, -1.4, 0.4,0,0,1024,1024,1382,1024,0,0,54,0,0,0,47,3.739,3.765,3.757,3.758,3.765,3.754,0,,124.2697067,4.5,6,P-GPS,
789100,2022-10-12 10:32:07,45.4389785924528,9.05596452271522,4.7,,,124.4697067,4.9,0,0.347735,0.725059,17,5,22.538,124.4697067,4.7,0.32,0.385015,0,0,-1.5,57.2, -1.6, 0.6,0,0,1024,1024,1381,1024,0,0,54,0,0,0,47,3.739,3.765,3.757,3.758,3.765,3.754,0,,124.4697067,4.7,6,P-GPS,
789200,2022-10-12 10:32:08,45.4389785822229,9.05596448540605,4.9,,,124.6697067,5.1,0,0.350294,0.728184,16,5,22.538,124.6697067,4.9,0.32,0.385015,0,0,-1.5,57.2, -1.4, 0.6,0,0,1024,1024,1382,1024,0,0,54,0,0,0,47,3.739,3.765,3.757,3.758,3.765,3.754,0,,124.6697067,4.9,6,P-GPS,
789300,2022-10-12 10:32:08,45.4389785868477,9.05596448194397,5,,,124.7697067,5.3,0,0.350017,0.728765,16,5,22.503,124.7697067,5,0.32,0.385015,0,0,-1.5,57.2, -1.2, 0.4,0,0,1024,1024,1392,1024,0,0,56,0,0,0,47,3.734,3.758,3.752,3.751,3.759,3.749,0,,124.7697067,5,6,P-GPS,
789400,2022-10-12 10:32:08,45.4389785891356,9.05596450427849,5.2,,,124.9697067,5.4,0,0.348838,0.730527,17,5,22.503,124.9697067,5.2,0.32,0.385015,0,0,-1.5,57.2, -1, 0.2,0,0,1024,1024,1400,1024,0,0,57,0,0,0,47,3.734,3.758,3.752,3.751,3.759,3.749,0,,124.9697067,5.2,6,P-GPS,
789500,2022-10-12 10:32:08,45.4389785005092,9.05596456492563,5.3,,,125.0697067,5.6,0,0.354546,0.74146,17,5,22.503,125.0697067,5.3,0.32,0.385015,0,0,-1.5,57.2, -0.8, -0.3,0,0,1024,1024,1409,1024,0,0,58,0,0,0,47,3.734,3.758,3.752,3.751,3.759,3.749,0,,125.0697067,5.3,6,P-GPS,
789600,2022-10-12 10:32:08,45.4389784401493,9.05596461854101,5.5,,,125.2697067,5.7,0,0.358077,0.749369,17,5,22.503,125.2697067,5.5,0.32,0.385015,0,0,-1.6,57.2, -0.5, -1,0,0,1024,1024,1416,1024,0,0,59,0,0,0,47,3.734,3.758,3.752,3.751,3.759,3.749,0,,125.2697067,5.5,6,P-GPS,
789700,2022-10-12 10:32:08,45.43897839148,9.05596468030834,5.7,,,125.4697067,5.9,0,0.360303,0.756616,17,5,22.503,125.4697067,5.7,0.32,0.385015,0,0,-1.7,57.2, -0.4, -1.4,0,0,1024,1024,1422,1024,0,0,60,0,0,0,47,3.734,3.758,3.752,3.751,3.759,3.749,0,,125.4697067,5.7,6,P-GPS,
789800,2022-10-12 10:32:08,45.4389783523175,9.05596472350313,5.8,,,125.5697067,6.1,0,0.362436,0.762123,17,5,22.503,125.5697067,5.8,0.32,0.385015,0,0,-1.7,57.2, -0.4, -1.4,0,0,1024,1024,1422,1024,0,0,60,0,0,0,47,3.734,3.758,3.752,3.751,3.759,3.749,0,,125.5697067,5.8,6,P-GPS,
789900,2022-10-12 10:32:08,45.4389783431771,9.05596471552439,6,,,125.7697067,6.2,0,0.363627,0.763315,17,5,22.503,125.7697067,6,0.32,0.385015,0,0,-1.8,57.2, -0.4, -1.2,0,0,1024,1024,1417,1024,0,0,60,0,0,0,47,3.734,3.758,3.752,3.751,3.759,3.749,0,,125.7697067,6,6,P-GPS,
790000,2022-10-12 10:32:08,45.4389783699699,9.05596465855376,6.2,,,125.9697067,6.4,0,0.363223,0.768667,17,5,22.503,125.9697067,6.2,0.32,0.385015,0,0,-1.8,57.2, -0.6, -1.1,0,0,1024,1024,1420,1024,0,0,60,0,0,0,47,3.734,3.758,3.752,3.751,3.759,3.749,0,,125.9697067,6.2,6,P-GPS,
790100,2022-10-12 10:32:08,45.4389783932371,9.05596457502649,6.4,,,126.1697067,6.6,0,0.364298,0.775679,17,5,22.503,126.1697067,6.4,0.32,0.385015,0,0,-1.8,57.2, -0.9, -1,0,0,1024,1024,1421,1024,0,0,60,0,0,0,47,3.734,3.758,3.752,3.751,3.759,3.749,0,,126.1697067,6.4,6,P-GPS,
790200,2022-10-12 10:32:09,45.4389784249673,9.05596447975699,6.6,,,126.3697067,6.8,0,0.365196,0.783908,17,5,22.503,126.3697067,6.6,0.32,0.385015,0,0,-1.9,57.2, -1.1, -0.8,0,0,1024,1024,1417,1024,0,0,60,0,0,0,47,3.734,3.758,3.752,3.751,3.759,3.749,0,,126.3697067,6.6,6,P-GPS,
790300,2022-10-12 10:32:09,45.4389784203604,9.05596435313948,6.8,,,126.5697067,7,0,0.370997,0.793801,17,5,22.503,126.5697067,6.8,0.32,0.385015,0,0,-1.9,57.2, -1.4, -0.4,0,0,1024,1024,1438,1024,0,0,63,0,0,0,47,3.734,3.758,3.752,3.751,3.759,3.749,0,,126.5697067,6.8,6,P-GPS,
790400,2022-10-12 10:32:09,45.4389784235066,9.05596403451709,7,,,126.7697067,7.2,0,0.385014,0.818666,17,5,22.466,126.7697067,7,0.32,0.385015,0,0,-1.9,57.1, -1.6, -0.2,0,0,1024,1024,1454,1024,0,0,65,0,0,0,47,3.727,3.753,3.745,3.746,3.754,3.741,0,,126.7697067,7,6,P-GPS,
790500,2022-10-12 10:32:09,45.4389784272048,9.05596394176346,7.2,,,126.9697067,7.4,0,0.389053,0.825915,17,5,22.466,126.9697067,7.2,0.32,0.389053,0,0,-1.9,57.2, -1.7, -0.2,0,0,1024,1024,1448,1024,0,0,64,0,0,0,47,3.727,3.753,3.745,3.746,3.754,3.741,0,,126.9697067,7.2,6,P-GPS,
790600,2022-10-12 10:32:09,45.4389784354578,9.05596387517957,7.4,,,127.1697067,7.6,0,0.39152,0.831191,17,5,22.466,127.1697067,7.4,0.32,0.39152,0,0,-2,57.2, -1.6, -0.2,0,0,1024,1024,1469,1024,0,0,67,0,0,0,46,3.727,3.753,3.745,3.746,3.754,3.741,0,,127.1697067,7.4,6,P-GPS,
790800,2022-10-12 10:32:09,45.4389784709481,9.05596377625264,7.8,,,127.5697067,8,0,0.39329,0.839861,17,5,22.466,127.5697067,7.8,0.32,0.39329,0,0,-2.1,57.2, -1.4, -0.5,0,0,1024,1024,1465,1024,0,0,67,0,0,0,46,3.727,3.753,3.745,3.746,3.754,3.741,0,,127.5697067,7.8,6,P-GPS,
790900,2022-10-12 10:32:09,45.4389785283328,9.05596381811432,8,,,127.7697067,8.2,0,0.386291,0.84703,17,5,22.466,127.7697067,8,0.32,0.39329,0,0,-2.2,57.2, -1.2, -0.6,0,0,1024,1024,1463,1024,0,0,67,0,0,0,46,3.727,3.753,3.745,3.746,3.754,3.741,0,,127.7697067,8,6,P-GPS,
791000,2022-10-12 10:32:09,45.4389785999143,9.055963874869,8.3,,,128.0697067,8.5,0,0.377341,0.856139,17,5,22.466,128.0697067,8.3,0.32,0.39329,0,0,-2.2,57.2, -1.3, -0.5,0,0,1024,1024,1457,1024,0,0,66,0,0,0,46,3.727,3.753,3.745,3.746,3.754,3.741,0,,128.0697067,8.3,6,P-GPS,
791100,2022-10-12 10:32:09,45.4389785927866,9.05596382530557,8.5,,,128.2697067,8.7,0,0.380441,0.860087,17,5,22.466,128.2697067,8.5,0.32,0.39329,0,0,-2.3,57.1, -1.3, -0.4,0,0,1024,1024,1469,1024,0,0,67,0,0,0,46,3.727,3.753,3.745,3.746,3.754,3.741,0,,128.2697067,8.5,6,P-GPS,
791200,2022-10-12 10:32:10,45.438978549058,9.05596375212717,8.7,,,128.4697067,8.9,0,0.387845,0.867587,17,5,22.466,128.4697067,8.7,0.32,0.39329,0,0,-2.3,57.1, -1.3, -0.5,0,0,1024,1024,1467,1024,0,0,67,0,0,0,46,3.727,3.753,3.745,3.746,3.754,3.741,0,,128.4697067,8.7,6,P-GPS,
791300,2022-10-12 10:32:10,45.4389785769256,9.0559637046912,9,,,128.7697067,9.2,0,0.387923,0.872414,17,5,22.466,128.7697067,9,0.32,0.39329,0,0,-2.3,57.1, -1.3, -0.4,0,0,1024,1024,1468,1024,0,0,67,0,0,0,46,3.727,3.753,3.745,3.746,3.754,3.741,0,,128.7697067,9,6,P-GPS,
791400,2022-10-12 10:32:10,45.438978622268,9.05596366975444,9.2,,,128.9697067,9.4,0,0.385965,0.878146,17,5,22.435,128.9697067,9.2,0.32,0.39329,0,0,-2.3,57.1, -1, -0.3,0,0,1024,1024,1469,1024,0,0,67,0,0,0,46,3.722,3.75,3.738,3.74,3.747,3.738,0,,128.9697067,9.2,6,P-GPS,
791500,2022-10-12 10:32:10,45.4389786855786,9.05596369283068,9.4,,,129.1697067,9.6,0,0.379544,0.885414,17,5,22.435,129.1697067,9.4,0.32,0.39329,0,0,-2.3,57.2, -0.6, -0.1,0,0,1024,1024,1477,1024,0,0,69,0,0,0,46,3.722,3.75,3.738,3.74,3.747,3.738,0,,129.1697067,9.4,6,P-GPS,
791600,2022-10-12 10:32:10,45.4389787485163,9.05596372491963,9.7,,,129.4697067,9.9,0,0.372705,0.892847,18,5,22.435,129.4697067,9.7,0.32,0.39329,0,0,-2.3,57.2, -0.5, -0.1,0,0,1024,1024,1479,1024,0,0,69,0,0,0,46,3.722,3.75,3.738,3.74,3.747,3.738,0,,129.4697067,9.7,6,P-GPS,
791700,2022-10-12 10:32:10,45.4389788083193,9.05596381017755,9.9,,,129.6697067,10.1,0,0.363304,0.902254,18,5,22.435,129.6697067,9.9,0.32,0.39329,0,0,-2.4,57.2, -0.4, -0.2,0,0,1024,1024,1477,1024,0,0,69,0,0,0,46,3.722,3.75,3.738,3.74,3.747,3.738,0,,129.6697067,9.9,6,P-GPS,
791800,2022-10-12 10:32:10,45.4389788049256,9.05596384739286,10.2,,,129.9697067,10.3,0,0.361611,0.905182,18,5,22.435,129.9697067,10.2,0.32,0.39329,0,0,-2.4,57.2, -0.5, -0.5,0,0,1024,1024,1470,1024,0,0,68,0,0,0,46,3.722,3.75,3.738,3.74,3.747,3.738,0,,129.9697067,10.2,6,P-GPS,
791900,2022-10-12 10:32:10,45.4389788251542,9.05596389838935,10.4,,,130.1697067,10.6,0,0.357266,0.909753,18,5,22.435,130.1697067,10.4,0.32,0.39329,0,0,-2.4,57.1, -0.6, -0.9,0,0,1024,1024,1471,1024,0,0,68,0,0,0,46,3.722,3.75,3.738,3.74,3.747,3.738,0,,130.1697067,10.4,6,P-GPS,
792000,2022-10-12 10:32:10,45.4389788620808,9.05596394181687,10.7,,,130.4697067,10.8,0,0.351948,0.915077,18,5,22.435,130.4697067,10.7,0.32,0.39329,0,0,-2.4,57.1, -0.8, -0.9,0,0,1024,1024,1474,1024,0,0,68,0,0,0,46,3.722,3.75,3.738,3.74,3.747,3.738,0,,130.4697067,10.7,6,P-GPS,
792100,2022-10-12 10:32:10,45.4389788537041,9.05596396455507,10.9,,,130.6697067,11.1,0,0.351446,0.917081,18,5,22.435,130.6697067,10.9,0.32,0.39329,0,0,-2.4,57.1, -0.9, -0.6,0,0,1024,1024,1470,1024,0,0,68,0,0,0,46,3.722,3.75,3.738,3.74,3.747,3.738,0,,130.6697067,10.9,6,P-GPS,
792200,2022-10-12 10:32:11,45.4389788619928,9.0559639374307,11.2,,,130.9697067,11.3,0,0.352186,0.91939,18,5,22.435,130.9697067,11.2,0.32,0.39329,0,0,-2.4,57.1, -0.8, -0.4,0,0,1024,1024,1463,1024,0,0,67,0,0,0,46,3.722,3.75,3.738,3.74,3.747,3.738,0,,130.9697067,11.2,6,P-GPS,
792300,2022-10-12 10:32:11,45.4389788652172,9.05596390014214,11.4,,,131.1697067,11.6,0,0.353891,0.922321,18,5,22.435,131.1697067,11.4,0.32,0.39329,0,0,-2.4,57.1, -0.8, -0.3,0,0,1024,1024,1448,1024,0,0,64,0,0,0,46,3.722,3.75,3.738,3.74,3.747,3.738,0,,131.1697067,11.4,6,P-GPS,
792400,2022-10-12 10:32:11,45.4389788701676,9.05596386010268,11.7,,,131.4697067,11.8,0,0.355619,0.925494,18,5,22.313,131.4697067,11.7,0.32,0.39329,0,0,-2.3,57.2, -0.8, -0.4,0,0,1024,1024,1441,1024,0,0,63,0,0,0,46,3.697,3.728,3.72,3.72,3.73,3.718,0,,131.4697067,11.7,6,P-GPS,
792500,2022-10-12 10:32:11,45.4389788103907,9.05596379637805,11.9,,,131.6697067,12,0,0.36387,0.933795,18,5,22.313,131.6697067,11.9,0.32,0.39329,0,0,-2.3,57.2, -0.7, -0.6,0,0,1024,1024,1407,1024,0,0,58,0,0,0,46,3.697,3.728,3.72,3.72,3.73,3.718,0,,131.6697067,11.9,6,P-GPS,
792600,2022-10-12 10:32:11,45.4389788151392,9.05596377685547,12.1,,,131.8697067,12.3,0,0.364527,0.935408,18,5,22.313,131.8697067,12.1,0.32,0.39329,0,0,-2.2,57.2, -0.6, -0.6,0,0,1024,1024,1413,1024,0,0,59,0,0,0,46,3.697,3.728,3.72,3.72,3.73,3.718,0,,131.8697067,12.1,6,P-GPS,
792700,2022-10-12 10:32:11,45.4389788185655,9.05596377273027,12.3,,,132.0697067,12.5,0,0.364471,0.935906,18,5,22.313,132.0697067,12.3,0.32,0.39329,0,0,-2.1,57.2, -0.8, -0.6,0,0,1024,1024,1426,1024,0,0,61,0,0,0,46,3.697,3.728,3.72,3.72,3.73,3.718,0,,132.0697067,12.3,6,P-GPS,
792800,2022-10-12 10:32:11,45.4389788235062,9.05596377516067,12.5,,,132.2697067,12.7,0,0.363942,0.936488,18,5,22.313,132.2697067,12.5,0.32,0.39329,0,0,-1.9,57.2, -0.8, -0.7,0,0,1024,1024,1444,1024,0,0,64,0,0,0,46,3.697,3.728,3.72,3.72,3.73,3.718,0,,132.2697067,12.5,6,P-GPS,
792900,2022-10-12 10:32:11,45.4389788031799,9.05596397308856,12.7,,,132.4697067,12.9,0,0.355198,0.952096,18,5,22.313,132.4697067,12.7,0.32,0.39329,0,0,-1.9,57.3, -0.7, -0.6,0,0,1024,1024,1446,1024,0,0,64,0,0,0,46,3.697,3.728,3.72,3.72,3.73,3.718,0,,132.4697067,12.7,6,P-GPS,
793000,2022-10-12 10:32:11,45.4389788274047,9.05596402490537,12.9,,,132.6697067,13.1,0,0.350507,0.956955,18,5,22.313,132.6697067,12.9,0.32,0.39329,0,0,-1.9,57.3, -0.6, -0.4,0,0,1024,1024,1418,1024,0,0,60,0,0,0,46,3.697,3.728,3.72,3.72,3.73,3.718,0,,132.6697067,12.9,6,P-GPS,
793100,2022-10-12 10:32:11,45.4389788123025,9.05596404572366,13.1,,,132.8697067,13.2,0,0.35071,0.959291,18,5,22.313,132.8697067,13.1,0.32,0.39329,0,0,-2,57.3, -0.5, -0.1,0,0,1024,1024,1346,1024,0,0,49,0,0,0,46,3.697,3.728,3.72,3.72,3.73,3.718,0,,132.8697067,13.1,6,P-GPS,
793200,2022-10-12 10:32:12,45.4389787857458,9.05596406165443,13.3,,,133.0697067,13.2,0,0.352147,0.962496,18,5,22.313,133.0697067,13.3,0.32,0.39329,0,0,-2,57.2, -0.3, -0.2,0,0,1024,1024,1289,1024,0,0,40,0,0,0,46,3.697,3.728,3.72,3.72,3.73,3.718,0,,133.0697067,13.3,6,P-GPS,
793300,2022-10-12 10:32:12,45.4389787328898,9.05596405819387,13.5,,,133.2697067,13.2,0,0.356822,0.96838,18,5,22.313,133.2697067,13.5,0.32,0.39329,0,0,-1.9,57.1, -0.1, -0.4,0,0,1024,1024,1289,1024,0,0,40,0,0,0,46,3.697,3.728,3.72,3.72,3.73,3.718,0,,133.2697067,13.5,6,P-GPS,
793400,2022-10-12 10:32:12,45.4389784918801,9.05596402374396,13.7,,,133.4697067,13.2,0,0.379453,0.995316,18,5,22.434,133.4697067,13.7,0.32,0.39329,0,0,-1.6,57.1, 0, -0.4,0,0,1024,1024,1296,1024,0,0,41,0,0,0,46,3.722,3.747,3.74,3.74,3.747,3.738,0,,133.4697067,13.7,6,P-GPS,
793500,2022-10-12 10:32:12,45.4389784667955,9.05596399989168,13.9,,,133.6697067,13.2,0,0.382799,0.998669,18,5,22.434,133.6697067,13.9,0.32,0.39329,0,0,-1.3,57.1, 0.1, -0.3,0,0,1024,1024,1342,1024,0,0,48,0,0,0,46,3.722,3.747,3.74,3.74,3.747,3.738,0,,133.6697067,13.9,6,P-GPS,
793600,2022-10-12 10:32:12,45.4389784481433,9.0559639580338,14,,,133.7697067,13.2,0,0.386434,1.00254,18,5,22.434,133.7697067,14,0.32,0.39329,0,0,-1.1,57.1, 0.1, -0.1,0,0,1024,1024,1404,1024,0,0,58,0,0,0,46,3.722,3.747,3.74,3.74,3.747,3.738,0,,133.7697067,14,6,P-GPS,
793700,2022-10-12 10:32:12,45.4389784353356,9.05596394309121,14.1,,,133.8697067,13.2,0,0.388273,1.00438,18,5,22.434,133.8697067,14.1,0.32,0.39329,0,0,-1,57.1, 0, 0,0,0,1024,1024,1420,1024,0,0,60,0,0,0,46,3.722,3.747,3.74,3.74,3.747,3.738,0,,133.8697067,14.1,6,P-GPS,
793800,2022-10-12 10:32:12,45.4389784339498,9.05596397453383,14.2,,,133.9697067,13.2,0,0.386903,1.00684,18,5,22.434,133.9697067,14.2,0.32,0.39329,0,0,-1.1,57.1, -0.2, 0.1,0,0,1024,1024,1427,1024,0,0,61,0,0,0,46,3.722,3.747,3.74,3.74,3.747,3.738,0,,133.9697067,14.2,6,P-GPS,
793900,2022-10-12 10:32:12,45.4389784105816,9.05596386797459,14.4,,,134.1697067,13.2,0,0.394043,1.01555,18,5,22.434,134.1697067,14.4,0.32,0.394043,0,0,-1.3,57.1, -0.6, 0.2,0,0,1024,1024,1426,1024,0,0,61,0,0,0,46,3.722,3.747,3.74,3.74,3.747,3.738,0,,134.1697067,14.4,6,P-GPS,
794000,2022-10-12 10:32:12,45.4389783813299,9.05596374168063,14.5,,,134.2697067,13.2,0,0.40272,1.02593,18,5,22.434,134.2697067,14.5,0.32,0.40272,0,0,-1.5,57, -0.8, 0,0,0,1024,1024,1416,1024,0,0,59,0,0,0,46,3.722,3.747,3.74,3.74,3.747,3.738,0,,134.2697067,14.5,6,P-GPS,
794100,2022-10-12 10:32:12,45.4389783152786,9.05596368073894,14.7,,,134.4697067,13.2,0,0.411424,1.03468,18,5,22.434,134.4697067,14.7,0.32,0.411424,0,0,-1.7,57, -0.8, -0.5,0,0,1024,1024,1407,1024,0,0,58,0,0,0,46,3.722,3.747,3.74,3.74,3.747,3.738,0,,134.4697067,14.7,6,P-GPS,
794200,2022-10-12 10:32:12,45.4389781979622,9.05596351257414,14.9,,,134.6697067,13.2,0,0.429817,1.05318,18,5,22.434,134.6697067,14.9,0.32,0.429817,0,0,-1.8,56.9, -0.8, -1.2,0,0,1024,1024,1404,1024,0,0,58,0,0,0,46,3.722,3.747,3.74,3.74,3.747,3.738,0,,134.6697067,14.9,6,P-GPS,
794300,2022-10-12 10:32:13,45.438978178872,9.05596351317316,15.1,,,134.8697067,13.2,0,0.431439,1.0553,18,5,22.434,134.8697067,15.1,0.32,0.431439,0,0,-1.8,56.9, -0.7, -1.5,0,0,1024,1024,1415,1024,0,0,59,0,0,0,46,3.722,3.747,3.74,3.74,3.747,3.738,0,,134.8697067,15.1,6,P-GPS,
794400,2022-10-12 10:32:13,45.4389781931762,9.05596351557533,15.3,,,135.0697067,13.2,0,0.430083,1.05691,18,5,22.434,135.0697067,15.3,0.32,0.431439,0,0,-1.8,56.9, -0.7, -1.4,0,0,1024,1024,1416,1024,0,0,59,0,0,0,46,3.722,3.747,3.74,3.74,3.747,3.738,0,,135.0697067,15.3,6,P-GPS,
794500,2022-10-12 10:32:13,45.438978215595,9.05596347489412,15.5,,,135.2697067,13.2,0,0.430159,1.06094,18,5,22.459,135.2697067,15.5,0.32,0.431439,0,0,-1.8,56.9, -0.7, -0.8,0,0,1024,1024,1415,1024,0,0,59,0,0,0,46,3.729,3.752,3.743,3.745,3.749,3.741,0,,135.2697067,15.5,6,P-GPS,
794600,2022-10-12 10:32:13,45.4389782798518,9.05596351063745,15.7,,,135.4697067,13.2,0,0.422878,1.06861,18,5,22.459,135.4697067,15.7,0.32,0.431439,0,0,-1.8,56.9, -0.7, -0.1,0,0,1024,1024,1426,1024,0,0,61,0,0,0,46,3.729,3.752,3.743,3.745,3.749,3.741,0,,135.4697067,15.7,6,P-GPS,
794700,2022-10-12 10:32:13,45.438978316995,9.0559634302823,15.9,,,135.6697067,13.2,0,0.423786,1.07612,18,5,22.459,135.6697067,15.9,0.32,0.431439,0,0,-1.9,57, -0.7, 0.3,0,0,1024,1024,1436,1024,0,0,62,0,0,0,46,3.729,3.752,3.743,3.745,3.749,3.741,0,,135.6697067,15.9,6,P-GPS,
794800,2022-10-12 10:32:13,45.4389783502283,9.05596334871996,16.1,,,135.8697067,13.2,0,0.425211,1.08348,18,5,22.459,135.8697067,16.1,0.32,0.431439,0,0,-1.9,57, -0.9, 0.6,0,0,1024,1024,1429,1024,0,0,61,0,0,0,46,3.729,3.752,3.743,3.745,3.749,3.741,0,,135.8697067,16.1,6,P-GPS,
794900,2022-10-12 10:32:13,45.4389783547293,9.05596319391436,16.3,,,136.0697067,13.2,0,0.43299,1.09557,18,5,22.459,136.0697067,16.3,0.32,0.43299,0,0,-1.9,57, -0.9, 0.6,0,0,1024,1024,1427,1024,0,0,61,0,0,0,46,3.729,3.752,3.743,3.745,3.749,3.741,0,,136.0697067,16.3,6,P-GPS,
795000,2022-10-12 10:32:13,45.4389783505751,9.05596303290112,16.5,,,136.2697067,13.2,0,0.441991,1.10814,18,5,22.459,136.2697067,16.5,0.32,0.441991,0,0,-2,57.1, -1, 0.5,0,0,1024,1024,1434,1024,0,0,62,0,0,0,46,3.729,3.752,3.743,3.745,3.749,3.741,0,,136.2697067,16.5,6,P-GPS,
795100,2022-10-12 10:32:13,45.4389782321856,9.05596280056452,16.7,,,136.4697067,13.2,0,0.464083,1.13055,18,5,22.459,136.4697067,16.7,0.32,0.464083,0,0,-2,57.2, -1, 0.4,0,0,1024,1024,1433,1024,0,0,62,0,0,0,46,3.729,3.752,3.743,3.745,3.749,3.741,0,,136.4697067,16.7,6,P-GPS,
795200,2022-10-12 10:32:14,45.4389782212457,9.05596274562216,16.9,,,136.6697067,13.2,0,0.467967,1.135,18,5,22.459,136.6697067,16.9,0.32,0.467967,0,0,-2,57.2, -1, 0.3,0,0,1024,1024,1438,1024,0,0,63,0,0,0,46,3.729,3.752,3.743,3.745,3.749,3.741,0,,136.6697067,16.9,6,P-GPS,
795300,2022-10-12 10:32:14,45.4389781989881,9.05596274565955,17.1,,,136.8697067,13.2,0,0.46972,1.13748,18,5,22.459,136.8697067,17.1,0.32,0.46972,0,0,-2,57.2, -1.1, 0.3,0,0,1024,1024,1439,1024,0,0,63,0,0,0,46,3.729,3.752,3.743,3.745,3.749,3.741,0,,136.8697067,17.1,6,P-GPS,
795400,2022-10-12 10:32:14,45.4389781687365,9.05596276818408,17.3,,,137.0697067,13.2,0,0.470888,1.14128,18,5,22.459,137.0697067,17.3,0.32,0.470888,0,0,-2,57.2, -1.1, 0.3,0,0,1024,1024,1439,1024,0,0,63,0,0,0,46,3.729,3.752,3.743,3.745,3.749,3.741,0,,137.0697067,17.3,6,P-GPS,
795500,2022-10-12 10:32:14,45.4389780761546,9.05596281244564,17.5,,,137.2697067,13.2,0,0.475948,1.15214,18,5,22.459,137.2697067,17.5,0.32,0.475948,0,0,-2,57.2, -1.2, 0.2,0,0,1024,1024,1439,1024,0,0,63,0,0,0,46,3.729,3.752,3.743,3.745,3.749,3.741,0,,137.2697067,17.5,6,P-GPS,
795600,2022-10-12 10:32:14,45.4389780483489,9.05596278720608,17.7,,,137.4697067,13.2,0,0.479551,1.1558,18,5,22.459,137.4697067,17.7,0.32,0.479551,0,0,-2.1,57.2, -1.2, 0,0,0,1024,1024,1447,1024,0,0,64,0,0,0,46,3.729,3.752,3.743,3.745,3.749,3.741,0,,137.4697067,17.7,6,P-GPS,
795700,2022-10-12 10:32:14,45.4389780339291,9.05596278476423,17.9,,,137.6697067,13.2,0,0.480855,1.15742,18,5,22.459,137.6697067,17.9,0.32,0.480855,0,0,-2.1,57.2, -1, -0.1,0,0,1024,1024,1438,1024,0,0,63,0,0,0,46,3.729,3.752,3.743,3.745,3.749,3.741,0,,137.6697067,17.9,6,P-GPS,
795800,2022-10-12 10:32:14,45.4389780267786,9.05596278852697,18.2,,,137.9697067,13.2,0,0.481238,1.15826,18,5,22.459,137.9697067,18.2,0.32,0.481238,0,0,-2.1,57.2, -1, -0.2,0,0,1024,1024,1439,1024,0,0,63,0,0,0,46,3.729,3.752,3.743,3.745,3.749,3.741,0,,137.9697067,18.2,6,P-GPS,
795900,2022-10-12 10:32:14,45.4389780818949,9.05596258744375,18.4,,,138.1697067,13.2,0,0.48766,1.17511,18,5,22.459,138.1697067,18.4,0.32,0.48766,0,0,-2.1,57.2, -1.3, -0.2,0,0,1024,1024,1431,1024,0,0,62,0,0,0,46,3.729,3.752,3.743,3.745,3.749,3.741,0,,138.1697067,18.4,6,P-GPS,
796000,2022-10-12 10:32:14,45.4389781097282,9.05596251365946,18.6,,,138.3697067,13.2,0,0.489546,1.18165,18,5,22.459,138.3697067,18.6,0.32,0.489546,0,0,-2.1,57.2, -1.4, -0.1,0,0,1024,1024,1432,1024,0,0,62,0,0,0,46,3.729,3.752,3.743,3.745,3.749,3.741,0,,138.3697067,18.6,6,P-GPS,
796100,2022-10-12 10:32:14,45.4389781477947,9.05596245927033,18.8,,,138.5697067,13.2,0,0.489632,1.18764,18,5,22.459,138.5697067,18.8,0.32,0.489632,0,0,-2.1,57.2, -1.4, 0,0,0,1024,1024,1432,1024,0,0,62,0,0,0,46,3.729,3.752,3.743,3.745,3.749,3.741,0,,138.5697067,18.8,6,P-GPS,
796200,2022-10-12 10:32:15,45.4389781898281,9.05596241848687,19,,,138.7697067,13.2,0,0.488716,1.19329,18,5,22.459,138.7697067,19,0.32,0.489632,0,0,-2.1,57.1, -1.3, 0.2,0,0,1024,1024,1430,1024,0,0,62,0,0,0,46,3.729,3.752,3.743,3.745,3.749,3.741,0,,138.7697067,19,6,P-GPS,
796300,2022-10-12 10:32:15,45.4389782385316,9.05596241174202,19.3,,,139.0697067,13.2,0,0.485408,1.19874,18,5,22.459,139.0697067,19.3,0.32,0.489632,0,0,-2,57.1, -1.1, 0.3,0,0,1024,1024,1429,1024,0,0,61,0,0,0,46,3.729,3.752,3.743,3.745,3.749,3.741,0,,139.0697067,19.3,6,P-GPS,
796400,2022-10-12 10:32:15,45.4389782721558,9.05596243466641,19.5,,,139.2697067,13.2,0,0.481559,1.20288,18,5,22.328,139.2697067,19.5,0.32,0.489632,0,0,-2,57.1, -1, 0.4,0,0,1024,1024,1433,1024,0,0,62,0,0,0,46,3.702,3.73,3.722,3.723,3.73,3.721,0,,139.2697067,19.5,6,P-GPS,
796500,2022-10-12 10:32:15,45.4389782851051,9.05596239516111,19.7,,,139.4697067,13.2,0,0.482866,1.20628,18,5,22.328,139.4697067,19.7,0.32,0.489632,0,0,-2,57.1, -1.1, 0.4,0,0,1024,1024,1431,1024,0,0,62,0,0,0,46,3.702,3.73,3.722,3.723,3.73,3.721,0,,139.4697067,19.7,6,P-GPS,
796600,2022-10-12 10:32:15,45.4389782916824,9.05596234412264,19.9,,,139.6697067,13.2,0,0.485337,1.21033,18,5,22.328,139.6697067,19.9,0.32,0.489632,0,0,-2,57.1, -1.1, 0.3,0,0,1024,1024,1428,1024,0,0,61,0,0,0,46,3.702,3.73,3.722,3.723,3.73,3.721,0,,139.6697067,19.9,6,P-GPS,
796700,2022-10-12 10:32:15,45.4389783258423,9.05596238961048,20.1,,,139.8697067,13.2,0,0.480159,1.21553,18,5,22.328,139.8697067,20.1,0.32,0.489632,0,0,-2,57.1, -0.9, 0.2,0,0,1024,1024,1421,1024,0,0,60,0,0,0,46,3.702,3.73,3.722,3.723,3.73,3.721,0,,139.8697067,20.1,6,P-GPS,
796800,2022-10-12 10:32:15,45.4389783801118,9.05596255446887,20.3,,,140.0697067,13.2,0,0.46656,1.22974,18,5,22.328,140.0697067,20.3,0.32,0.489632,0,0,-2,57.1, -0.7, 0,0,0,1024,1024,1235,1024,0,0,32,0,0,0,46,3.702,3.73,3.722,3.723,3.73,3.721,0,,140.0697067,20.3,6,P-GPS,
796900,2022-10-12 10:32:15,45.4389783846454,9.05596260798352,20.5,,,140.2697067,13.2,0,0.463137,1.23395,18,5,22.328,140.2697067,20.5,0.32,0.489632,0,0,-2,57, -0.5, -0.1,0,0,1024,1024,1024,1024,0,0,0,0,0,0,46,3.702,3.73,3.722,3.723,3.73,3.721,0,,140.2697067,20.5,6,P-GPS,
797000,2022-10-12 10:32:15,45.4389783846812,9.05596263463172,20.7,,,140.4697067,13.2,0,0.461604,1.23603,18,5,22.328,140.4697067,20.7,0.32,0.489632,0,0,-1.8,57, -0.7, -0.1,0,0,1024,1024,1024,1024,0,0,0,0,0,0,46,3.702,3.73,3.722,3.723,3.73,3.721,0,,140.4697067,20.7,6,P-GPS,
797100,2022-10-12 10:32:15,45.4389784218896,9.05596262407225,20.9,,,140.6697067,13.2,0,0.459416,1.24025,18,5,22.328,140.6697067,20.9,0.32,0.489632,0,0,-1.4,57, -0.8, 0,0,0,1024,1024,1024,1024,0,0,0,0,0,0,46,3.702,3.73,3.722,3.723,3.73,3.721,0,,140.6697067,20.9,6,P-GPS,
797200,2022-10-12 10:32:16,45.4389784790903,9.05596254474725,21,,,140.7697067,13.2,0,0.459803,1.24912,18,5,22.328,140.7697067,21,0.32,0.489632,0,0,-1,57, -0.9, 0.3,0,0,1024,1024,1024,1024,0,0,0,0,0,0,46,3.702,3.73,3.722,3.723,3.73,3.721,0,,140.7697067,21,6,P-GPS,
797300,2022-10-12 10:32:16,45.4389785000646,9.05596245965187,21.1,,,140.8697067,13.2,0,0.463307,1.25616,18,5,22.328,140.8697067,21.1,0.32,0.489632,0,0,-0.7,57, -1, 0.5,0,0,1024,1024,1024,1024,0,0,0,0,0,0,46,3.702,3.73,3.722,3.723,3.73,3.721,0,,140.8697067,21.1,6,P-GPS,
797400,2022-10-12 10:32:16,45.4389785112227,9.05596235962076,21.1,,,140.8697067,13.2,0,0.468485,1.26406,18,5,22.328,140.8697067,21.1,0.32,0.489632,0,0,-0.4,57, -1, 0.5,0,0,1024,1024,1024,1024,0,0,0,0,0,0,46,3.702,3.73,3.722,3.723,3.73,3.721,0,,140.8697067,21.1,6,P-GPS,
797500,2022-10-12 10:32:16,45.4389785527204,9.05596233601571,21.2,,,140.9697067,13.2,0,0.46698,1.26903,18,5,22.338,140.9697067,21.2,0.32,0.489632,0,0,-0.2,57, -1, 0.5,0,0,1024,1024,1024,1024,0,0,0,0,0,0,46,3.705,3.732,3.723,3.723,3.732,3.723,0,,140.9697067,21.2,6,P-GPS,
797600,2022-10-12 10:32:16,45.4389786135134,9.05596226984541,21.2,,,140.9697067,13.2,0,0.466802,1.27754,18,5,22.338,140.9697067,21.2,0.32,0.489632,0,0,-0.1,57, -0.9, 0.6,0,0,1024,1024,1024,1024,0,0,0,0,0,0,46,3.705,3.732,3.723,3.723,3.732,3.723,0,,140.9697067,21.2,6,P-GPS,
797700,2022-10-12 10:32:16,45.4389786190599,9.05596222840342,21.2,,,140.9697067,13.2,0,0.468975,1.28083,18,5,22.338,140.9697067,21.2,0.32,0.489632,0,0,0,57, -0.9, 0.6,0,0,1024,1024,1024,1024,0,0,0,0,0,0,46,3.705,3.732,3.723,3.723,3.732,3.723,0,,140.9697067,21.2,6,P-GPS,
797800,2022-10-12 10:32:16,45.4389786170146,9.05596217574494,21.2,,,140.9697067,13.2,0,0.472369,1.28494,18,5,22.338,140.9697067,21.2,0.32,0.489632,0,0,0,57, -1, 0.7,0,0,1024,1024,1024,1024,0,0,0,0,0,0,46,3.705,3.732,3.723,3.723,3.732,3.723,0,,140.9697067,21.2,6,P-GPS,
797900,2022-10-12 10:32:16,45.4389785975384,9.055962117706,21.2,,,140.9697067,13.2,0,0.477282,1.28996,18,5,22.338,140.9697067,21.2,0.32,0.489632,0,0,0,57, -0.9, 0.5,0,0,1024,1024,1024,1024,0,0,0,0,0,0,46,3.705,3.732,3.723,3.723,3.732,3.723,0,,140.9697067,21.2,6,P-GPS,
798000,2022-10-12 10:32:16,45.4389784763187,9.05596199973035,21.2,,,140.9697067,13.2,0,0.492804,1.30629,18,5,22.338,140.9697067,21.2,0.32,0.492804,0,0,0,57, -1, 0.4,0,0,1024,1024,1024,1024,0,0,0,0,0,0,46,3.705,3.732,3.723,3.723,3.732,3.723,0,,140.9697067,21.2,6,P-GPS,
798100,2022-10-12 10:32:16,45.4389784440022,9.05596197591241,21.2,,,140.9697067,13.2,0,0.496482,1.31033,18,5,22.338,140.9697067,21.2,0.32,0.496482,0,0,0,57, -1, 0.3,0,0,1024,1024,1024,1024,0,0,0,0,0,0,46,3.705,3.732,3.723,3.723,3.732,3.723,0,,140.9697067,21.2,6,P-GPS,
798200,2022-10-12 10:32:17,45.4389784118307,9.05596195258893,21.2,,,140.9697067,13.2,0,0.500126,1.31435,18,5,22.338,140.9697067,21.2,0.32,0.500126,0,0,0,57, -1.1, 0.3,0,0,1024,1024,1024,1024,0,0,0,0,0,0,46,3.705,3.732,3.723,3.723,3.732,3.723,0,,140.9697067,21.2,6,P-GPS,
798300,2022-10-12 10:32:17,45.4389783472515,9.0559619543318,21.2,,,140.9697067,13.2,0,0.504505,1.32153,18,5,22.338,140.9697067,21.2,0.32,0.504505,0,0,0,57.1, -1.1, 0.4,0,0,1024,1024,1024,1024,0,0,0,0,0,0,46,3.705,3.732,3.723,3.723,3.732,3.723,0,,140.9697067,21.2,6,P-GPS,
798400,2022-10-12 10:32:17,45.438978277883,9.05596195947189,21.2,,,140.9697067,13.2,0,0.509084,1.32926,18,5,22.338,140.9697067,21.2,0.32,0.509084,0,0,0,57.1, -1.1, 0.5,0,0,1024,1024,1024,1024,0,0,0,0,0,0,46,3.705,3.732,3.723,3.723,3.732,3.723,0,,140.9697067,21.2,6,P-GPS,
798500,2022-10-12 10:32:17,45.4389780238099,9.0559620262557,21.2,,,140.9697067,13.2,0,0.523713,1.35799,18,5,22.435,140.9697067,21.2,0.32,0.523713,0,0,0,57.1, -1.2, 0.6,0,0,1024,1024,1024,1024,0,0,0,0,0,0,46,3.724,3.748,3.74,3.738,3.747,3.738,0,,140.9697067,21.2,6,P-GPS,
798600,2022-10-12 10:32:17,45.4389779416468,9.0559619842063,21.2,,,140.9697067,13.2,0,0.532318,1.3677,18,5,22.435,140.9697067,21.2,0.32,0.532318,0,0,0,57.2, -1.3, 0.5,0,0,1024,1024,1024,1024,0,0,0,0,0,0,46,3.724,3.748,3.74,3.738,3.747,3.738,0,,140.9697067,21.2,6,P-GPS,
798700,2022-10-12 10:32:17,45.4389779178226,9.05596197726687,21.2,,,140.9697067,13.2,0,0.534521,1.3704,18,5,22.435,140.9697067,21.2,0.32,0.534521,0,0,0,57.2, -1.3, 0.4,0,0,1024,1024,1024,1024,0,0,0,0,0,0,46,3.724,3.748,3.74,3.738,3.747,3.738,0,,140.9697067,21.2,6,P-GPS,
798800,2022-10-12 10:32:17,45.4389779050149,9.0559619818026,21.2,,,140.9697067,13.2,0,0.535237,1.37187,18,5,22.435,140.9697067,21.2,0.32,0.535237,0,0,0,57.2, -1.3, 0.4,0,0,1024,1024,1024,1024,0,0,0,0,0,0,46,3.724,3.748,3.74,3.738,3.747,3.738,0,,140.9697067,21.2,6,P-GPS,
798900,2022-10-12 10:32:17,45.4389779223872,9.0559621113923,21.2,,,140.9697067,13.2,0,0.526573,1.38216,18,5,22.435,140.9697067,21.2,0.32,0.535237,0,0,0,57.2, -1.3, 0.4,0,0,1024,1024,1024,1024,0,0,0,0,0,0,46,3.724,3.748,3.74,3.738,3.747,3.738,0,,140.9697067,21.2,6,P-GPS,
799000,2022-10-12 10:32:17,45.4389778815556,9.05596215515634,21.2,,,140.9697067,13.2,0,0.527283,1.38784,18,5,22.435,140.9697067,21.2,0.32,0.535237,0,0,0,57.2, -1.3, 0.1,0,0,1024,1024,1024,1024,0,0,0,0,0,0,46,3.724,3.748,3.74,3.738,3.747,3.738,0,,140.9697067,21.2,6,P-GPS,
799100,2022-10-12 10:32:17,45.4389777985847,9.05596219287833,21.2,,,140.9697067,13.2,0,0.531711,1.39753,18,5,22.435,140.9697067,21.2,0.32,0.535237,0,0,0,57.2, -1.3, 0,0,0,1024,1024,1024,1024,0,0,0,0,0,0,46,3.724,3.748,3.74,3.738,3.747,3.738,0,,140.9697067,21.2,6,P-GPS,
799200,2022-10-12 10:32:17,45.4389777134399,9.05596223083,21.2,,,140.9697067,13.2,0,0.536439,1.40745,18,5,22.435,140.9697067,21.2,0.32,0.536439,0,0,0,57.2, -1.3, 0,0,0,1024,1024,1024,1024,0,0,0,0,0,0,46,3.724,3.748,3.74,3.738,3.747,3.738,0,,140.9697067,21.2,6,P-GPS,
799300,2022-10-12 10:32:18,45.4389775585928,9.0559621521666,21.2,,,140.9697067,13.2,0,0.553179,1.42573,18,5,22.435,140.9697067,21.2,0.32,0.553179,0,0,0,57.1, -1.3, 0,0,0,1024,1024,1024,1024,0,0,0,0,0,0,46,3.724,3.748,3.74,3.738,3.747,3.738,0,,140.9697067,21.2,6,P-GPS,
799400,2022-10-12 10:32:18,45.4389775241007,9.0559621205912,21.2,,,140.9697067,13.2,0,0.557666,1.43029,18,5,22.435,140.9697067,21.2,0.32,0.557666,0,0,0,57.1, -1.4, 0,0,0,1024,1024,1024,1024,0,0,0,0,0,0,46,3.724,3.748,3.74,3.738,3.747,3.738,0,,140.9697067,21.2,6,P-GPS,
799500,2022-10-12 10:32:18,45.4389775052156,9.05596210105946,21.2,,,140.9697067,13.2,0,0.560242,1.43288,18,5,22.398,140.9697067,21.2,0.32,0.560242,0,0,0,57.1, -1.5, 0,0,0,1024,1024,1024,1024,0,0,0,0,0,0,46,3.717,3.742,3.733,3.733,3.74,3.733,0,,140.9697067,21.2,6,P-GPS,
799600,2022-10-12 10:32:18,45.4389774960589,9.05596208962932,21.2,,,140.9697067,13.2,0,0.561595,1.43424,18,5,22.398,140.9697067,21.2,0.32,0.561595,0,0,0,57.1, -1.5, -0.1,0,0,1024,1024,1024,1024,0,0,0,0,0,0,46,3.717,3.742,3.733,3.733,3.74,3.733,0,,140.9697067,21.2,6,P-GPS,
799700,2022-10-12 10:32:18,45.43897750077,9.05596207285534,21.2,,,140.9697067,13.2,0,0.562102,1.43565,18,5,22.398,140.9697067,21.2,0.32,0.562102,0,0,0,57.2, -1.4, -0.1,0,0,1024,1024,1024,1024,0,0,0,0,0,0,46,3.717,3.742,3.733,3.733,3.74,3.733,0,,140.9697067,21.2,6,P-GPS,
799800,2022-10-12 10:32:18,45.4389774982166,9.05596209137142,21.2,,,140.9697067,13.2,0,0.561327,1.43712,18,5,22.398,140.9697067,21.2,0.32,0.562102,0,0,0,57.2, -1.4, -0.2,0,0,1024,1024,1024,1024,0,0,0,0,0,0,46,3.717,3.742,3.733,3.733,3.74,3.733,0,,140.9697067,21.2,6,P-GPS,
799900,2022-10-12 10:32:18,45.4389774878662,9.05596211397379,21.2,,,140.9697067,13.2,0,0.560976,1.43923,18,5,22.398,140.9697067,21.2,0.32,0.562102,0,0,0,57.2, -1.3, -0.3,0,0,1024,1024,1024,1024,0,0,0,0,0,0,46,3.717,3.742,3.733,3.733,3.74,3.733,0,,140.9697067,21.2,6,P-GPS,
800000,2022-10-12 10:32:18,45.4389774794309,9.05596213730642,21.2,,,140.9697067,13.2,0,0.560438,1.44127,18,5,22.398,140.9697067,21.2,0.32,0.562102,0,0,0,57.2, -1.3, -0.2,0,0,1024,1024,1024,1024,0,0,0,0,0,0,46,3.717,3.742,3.733,3.733,3.74,3.733,0,,140.9697067,21.2,6,P-GPS,
800100,2022-10-12 10:32:18,45.4389774658333,9.05596214825353,21.2,,,140.9697067,13.2,0,0.56098,1.44301,18,5,22.398,140.9697067,21.2,0.32,0.562102,0,0,0,57.2, -1.3, -0.1,0,0,1024,1024,1024,1024,0,0,0,0,0,0,46,3.717,3.742,3.733,3.733,3.74,3.733,0,,140.9697067,21.2,6,P-GPS,
800200,2022-10-12 10:32:19,45.4389773932096,9.05596214870604,21.2,,,140.9697067,13.2,0,0.566962,1.45109,18,5,22.398,140.9697067,21.2,0.32,0.566962,0,0,0,57.2, -1.3, 0,0,0,1024,1024,1024,1024,0,0,0,0,0,0,46,3.717,3.742,3.733,3.733,3.74,3.733,0,,140.9697067,21.2,6,P-GPS,
800300,2022-10-12 10:32:19,45.4389774191703,9.05596210816982,21.2,,,140.9697067,13.2,0,0.566926,1.45537,18,5,22.398,140.9697067,21.2,0.32,0.566962,0,0,0,57.2, -1.3, 0.1,0,0,1024,1024,1024,1024,0,0,0,0,0,0,46,3.717,3.742,3.733,3.733,3.74,3.733,0,,140.9697067,21.2,6,P-GPS,
800400,2022-10-12 10:32:19,45.4389774538578,9.05596205650716,21.2,,,140.9697067,13.2,0,0.566796,1.46095,18,5,22.398,140.9697067,21.2,0.32,0.566962,0,0,0,57.2, -1.2, 0.3,0,0,1024,1024,1024,1024,0,0,0,0,0,0,46,3.717,3.742,3.733,3.733,3.74,3.733,0,,140.9697067,21.2,6,P-GPS,
800500,2022-10-12 10:32:19,45.4389774806994,9.05596203955997,21.2,,,140.9697067,13.2,0,0.565506,1.46421,18,5,22.398,140.9697067,21.2,0.32,0.566962,0,0,0,57.1, -1.2, 0.3,0,0,1024,1024,1024,1024,0,0,0,0,0,0,46,3.717,3.742,3.733,3.733,3.74,3.733,0,,140.9697067,21.2,6,P-GPS,
800600,2022-10-12 10:32:19,45.4389775371657,9.05596192228482,21.2,,,140.9697067,13.2,0,0.567258,1.47531,18,5,22.383,140.9697067,21.2,0.32,0.567258,0,0,0,57.1, -1.1, 0.1,0,0,1024,1024,1024,1024,0,0,0,0,0,0,46,3.715,3.738,3.73,3.731,3.739,3.73,0,,140.9697067,21.2,6,P-GPS,
800700,2022-10-12 10:32:19,45.4389775503822,9.05596189751226,21.2,,,140.9697067,13.2,0,0.567552,1.47774,18,5,22.383,140.9697067,21.2,0.32,0.567552,0,0,0,57.1, -1.1, 0,0,0,1024,1024,1024,1024,0,0,0,0,0,0,46,3.715,3.738,3.73,3.731,3.739,3.73,0,,140.9697067,21.2,6,P-GPS,
800800,2022-10-12 10:32:19,45.438977566481,9.05596186978278,21.2,,,140.9697067,13.2,0,0.567791,1.48055,18,5,22.383,140.9697067,21.2,0.32,0.567791,0,0,0,57.1, -1.1, 0,0,0,1024,1024,1024,1024,0,0,0,0,0,0,46,3.715,3.738,3.73,3.731,3.739,3.73,0,,140.9697067,21.2,6,P-GPS,
800900,2022-10-12 10:32:19,45.4389776126701,9.0559618690693,21.2,,,140.9697067,13.2,0,0.564186,1.48569,18,5,22.383,140.9697067,21.2,0.32,0.567791,0,0,0,57, -1, 0,0,0,1024,1024,1024,1024,0,0,0,0,0,0,46,3.715,3.738,3.73,3.731,3.739,3.73,0,,140.9697067,21.2,6,P-GPS,
801000,2022-10-12 10:32:19,45.4389777013259,9.05596182292751,21.2,,,140.9697067,13.2,0,0.559839,1.49618,18,5,22.383,140.9697067,21.2,0.32,0.567791,0,0,0,57.1, -0.9, 0.1,0,0,1024,1024,1024,1024,0,0,0,0,0,0,46,3.715,3.738,3.73,3.731,3.739,3.73,0,,140.9697067,21.2,6,P-GPS,
801100,2022-10-12 10:32:19,45.4389777666753,9.05596180409474,21.2,,,140.9697067,13.2,0,0.555879,1.5036,18,5,22.383,140.9697067,21.2,0.32,0.567791,0,0,0,57.1, -1, 0.2,0,0,1024,1024,1024,1024,0,0,0,0,0,0,46,3.715,3.738,3.73,3.731,3.739,3.73,0,,140.9697067,21.2,6,P-GPS,
801200,2022-10-12 10:32:20,45.4389778337477,9.05596178159768,21.2,,,140.9697067,13.2,0,0.55207,1.51126,18,5,22.383,140.9697067,21.2,0.32,0.567791,0,0,0,57.1, -1.1, 0.3,0,0,1024,1024,1024,1024,0,0,0,0,0,0,46,3.715,3.738,3.73,3.731,3.739,3.73,0,,140.9697067,21.2,6,P-GPS,
801300,2022-10-12 10:32:20,45.438977894746,9.05596176037725,21.2,,,140.9697067,13.2,0,0.548721,1.51824,18,5,22.383,140.9697067,21.2,0.32,0.567791,0,0,0,57.1, -1.1, 0.4,0,0,1024,1024,1024,1024,0,0,0,0,0,0,46,3.715,3.738,3.73,3.731,3.739,3.73,0,,140.9697067,21.2,6,P-GPS,
801400,2022-10-12 10:32:20,45.4389780273013,9.05596175645351,21.2,,,140.9697067,13.2,0,0.539187,1.53299,18,5,22.383,140.9697067,21.2,0.32,0.567791,0,0,0,57, -1, 0.6,0,0,1024,1024,1024,1024,0,0,0,0,0,0,46,3.715,3.738,3.73,3.731,3.739,3.73,0,,140.9697067,21.2,6,P-GPS,
801500,2022-10-12 10:32:20,45.4389780714761,9.05596169009321,21.2,,,140.9697067,13.2,0,0.539933,1.54012,18,5,22.383,140.9697067,21.2,0.32,0.567791,0,0,0,57, -1.1, 0.7,0,0,1024,1024,1024,1024,0,0,0,0,0,0,46,3.715,3.738,3.73,3.731,3.739,3.73,0,,140.9697067,21.2,6,P-GPS,
801600,2022-10-12 10:32:20,45.4389781041964,9.05596161471943,21.2,,,140.9697067,13.2,0,0.542125,1.54704,18,5,22.374,140.9697067,21.2,0.32,0.567791,0,0,0,57, -1.2, 0.5,0,0,1024,1024,1024,1024,0,0,0,0,0,0,46,3.714,3.737,3.73,3.728,3.737,3.728,0,,140.9697067,21.2,6,P-GPS,
801700,2022-10-12 10:32:20,45.4389781275239,9.05596155260489,21.2,,,140.9697067,13.2,0,0.544244,1.55254,18,5,22.374,140.9697067,21.2,0.32,0.567791,0,0,0,57.1, -1.1, 0.3,0,0,1024,1024,1024,1024,0,0,0,0,0,0,46,3.714,3.737,3.73,3.728,3.737,3.728,0,,140.9697067,21.2,6,P-GPS,
801800,2022-10-12 10:32:20,45.4389781528967,9.0559614862568,21.2,,,140.9697067,13.2,0,0.546529,1.55843,18,5,22.374,140.9697067,21.2,0.32,0.567791,0,0,0,57.1, -1.1, 0.3,0,0,1024,1024,1024,1024,0,0,0,0,0,0,46,3.714,3.737,3.73,3.728,3.737,3.728,0,,140.9697067,21.2,6,P-GPS,
801900,2022-10-12 10:32:20,45.4389781799386,9.05596132409894,21.2,,,140.9697067,13.2,0,0.554684,1.57144,18,5,22.374,140.9697067,21.2,0.32,0.567791,0,0,0,57.1, -1.1, 0.4,0,0,1024,1024,1047,1024,0,0,3,0,0,0,46,3.714,3.737,3.73,3.728,3.737,3.728,0,,140.9697067,21.2,6,P-GPS,
802000,2022-10-12 10:32:20,45.4389782085308,9.05596125129903,21.2,,,140.9697067,13.2,0,0.55731,1.57795,18,5,22.374,140.9697067,21.2,0.32,0.567791,0,0,0,57.1, -1, 0.5,0,0,1024,1024,1148,1024,0,0,19,0,0,0,46,3.714,3.737,3.73,3.728,3.737,3.728,0,,140.9697067,21.2,6,P-GPS,
802100,2022-10-12 10:32:20,45.4389782450894,9.05596122473553,21.2,,,140.9697067,13.2,0,0.556564,1.58251,18,5,22.374,140.9697067,21.2,0.32,0.567791,0,0,0,57.1, -1, 0.7,0,0,1024,1024,1071,1024,0,0,7,0,0,0,46,3.714,3.737,3.73,3.728,3.737,3.728,0,,140.9697067,21.2,6,P-GPS,
802200,2022-10-12 10:32:21,45.4389782819541,9.05596120235216,21.2,,,140.9697067,13.2,0,0.555569,1.58697,18,5,22.374,140.9697067,21.2,0.32,0.567791,0,0,0,57.1, -1, 0.9,0,0,1024,1024,1222,1024,0,0,30,0,0,0,46,3.714,3.737,3.73,3.728,3.737,3.728,0,,140.9697067,21.2,6,P-GPS,
802300,2022-10-12 10:32:21,45.4389782588693,9.05596121819442,21.2,,,140.9697067,13.2,0,0.556073,1.58982,18,5,22.374,140.9697067,21.2,0.32,0.567791,0,0,0,57.1, -1.1, 0.9,0,0,1024,1024,1343,1024,0,0,48,0,0,0,46,3.714,3.737,3.73,3.728,3.737,3.728,0,,140.9697067,21.2,6,P-GPS,
802400,2022-10-12 10:32:21,45.4389782381994,9.0559611627469,21.2,,,140.9697067,13.2,0,0.560924,1.59472,18,5,22.374,140.9697067,21.2,0.32,0.567791,0,0,-0.1,57.2, -1, 0.8,0,0,1024,1024,1299,1024,0,0,42,0,0,0,46,3.714,3.737,3.73,3.728,3.737,3.728,0,,140.9697067,21.2,6,P-GPS,
802500,2022-10-12 10:32:21,45.4389782441547,9.05596115832791,21.2,,,140.9697067,13.2,0,0.560815,1.59546,18,5,22.374,140.9697067,21.2,0.32,0.567791,0,0,-0.3,57.2, -0.7, 0.7,0,0,1024,1024,1331,1024,0,0,47,0,0,0,46,3.714,3.737,3.73,3.728,3.737,3.728,0,,140.9697067,21.2,6,P-GPS,
802600,2022-10-12 10:32:21,45.4389782548829,9.05596115961141,21.2,,,140.9697067,13.2,0,0.560035,1.59666,18,5,22.362,140.9697067,21.2,0.32,0.567791,0,0,-0.6,57.2, -0.7, 0.5,0,0,1024,1024,1373,1024,0,0,53,0,0,0,46,3.71,3.735,3.728,3.728,3.735,3.726,0,,140.9697067,21.2,6,P-GPS,
802700,2022-10-12 10:32:21,45.4389783671787,9.05596119098612,21.3,,,141.0697067,13.2,0,0.550813,1.60939,18,5,22.362,141.0697067,21.3,0.32,0.567791,0,0,-0.7,57.3, -0.9, 0.4,0,0,1024,1024,1331,1024,0,0,47,0,0,0,46,3.71,3.735,3.728,3.728,3.735,3.726,0,,141.0697067,21.3,6,P-GPS,
802800,2022-10-12 10:32:21,45.4389783932648,9.05596115481394,21.4,,,141.1697067,13.2,0,0.551483,1.61343,18,5,22.362,141.1697067,21.4,0.32,0.567791,0,0,-1,57.3, -1, 0.3,0,0,1024,1024,1312,1024,0,0,44,0,0,0,46,3.71,3.735,3.728,3.728,3.735,3.726,0,,141.1697067,21.4,6,P-GPS,
802900,2022-10-12 10:32:21,45.4389783931947,9.05596114217814,21.5,,,141.2697067,13.2,0,0.552301,1.61442,18,5,22.362,141.2697067,21.5,0.32,0.567791,0,0,-1.1,57.2, -1.2, 0.3,0,0,1024,1024,1338,1024,0,0,48,0,0,0,46,3.71,3.735,3.728,3.728,3.735,3.726,0,,141.2697067,21.5,6,P-GPS,
803000,2022-10-12 10:32:21,45.4389783910061,9.05596113253283,21.6,,,141.3697067,13.2,0,0.553059,1.61521,18,5,22.362,141.3697067,21.6,0.32,0.567791,0,0,-1.1,57.2, -1.3, 0.4,0,0,1024,1024,1343,1024,0,0,48,0,0,0,46,3.71,3.735,3.728,3.728,3.735,3.726,0,,141.3697067,21.6,6,P-GPS,
803100,2022-10-12 10:32:21,45.4389782409043,9.05596099759473,21.7,,,141.4697067,13.2,0,0.571231,1.63495,18,5,22.362,141.4697067,21.7,0.32,0.571231,0,0,-1.1,57.2, -1.4, 0.6,0,0,1024,1024,1372,1024,0,0,53,0,0,0,46,3.71,3.735,3.728,3.728,3.735,3.726,0,,141.4697067,21.7,6,P-GPS,
803200,2022-10-12 10:32:22,45.4389781932397,9.05596090802999,21.9,,,141.6697067,13.2,0,0.579997,1.64372,18,5,22.362,141.6697067,21.9,0.32,0.579997,0,0,-1.2,57.2, -1.3, 0.7,0,0,1024,1024,1413,1024,0,0,59,0,0,0,46,3.71,3.735,3.728,3.728,3.735,3.726,0,,141.6697067,21.9,6,P-GPS,
