time(millisecond),datetime(utc),latitude,longitude,height_above_takeoff(meters),height_above_ground_at_drone_location(meters),ground_elevation_at_drone_location(meters),altitude_above_seaLevel(meters),height_sonar(meters),speed(m/s),distance(meters),mileage(meters),satellites,gpslevel,voltage(v),max_altitude(meters),max_ascent(meters),max_speed(m/s),max_distance(meters), xSpeed(m/s), ySpeed(m/s), zSpeed(m/s), compass_heading(degrees), pitch(degrees), roll(degrees),isPhoto,isVideo,rc_elevator,rc_aileron,rc_throttle,rc_rudder,rc_elevator(percent),rc_aileron(percent),rc_throttle(percent),rc_rudder(percent),gimbal_heading(degrees),gimbal_pitch(degrees),battery_percent,voltageCell1,voltageCell2,voltageCell3,voltageCell4,voltageCell5,voltageCell6,current(A),battery_temperature(c),altitude(meters),ascent(meters),flycStateRaw,flycState,message
511700,2022-10-12 10:23:26,45.4389512371644,9.05594986563511,0,Available with any HD 360 subscription,Available with any HD 360 subscription,119.7483444,0.1,0,0,0,18,5,0,119.7483444,0,0,0,0,0,0,53.1, 0.9, 1,0,0,1024,1024,1024,1024,0,0,0,0,0,0,65,3.951,3.955,3.952,3.955,3.957,3.952,0,,119.7483444,0,41,Motors_Started,"GEO: You are in a Warning Zone (Class D Airspace). Fly with caution."
511800,2022-10-12 10:23:26,45.4389512170654,9.05594986688045,0,,,119.7483444,0.1,0,0.00223725,0.00223725,18,5,0,119.7483444,0,0,0.00223725,0,0,0,53.1, 0.9, 1,0,0,1024,1024,1024,1024,0,0,0,0,0,0,65,3.951,3.955,3.952,3.955,3.957,3.952,0,,119.7483444,0,41,Motors_Started,
511900,2022-10-12 10:23:26,45.438951160244,9.05594986202727,0,,,119.7483444,0.1,0,0.00855864,0.00856746,18,5,0,119.7483444,0,0,0.00855864,0,0,0,53.1, 0.9, 1,0,0,1024,1024,1024,1024,0,0,0,0,0,0,65,3.951,3.955,3.952,3.955,3.957,3.952,0,,119.7483444,0,41,Motors_Started,"Home Point recorded. Return-to-Home Altitude:45M"
512000,2022-10-12 10:23:26,45.4389511409885,9.05594986693692,0,,,119.7483444,0.1,0,0.0114801,0.0107428,18,5,23.722,119.7483444,0,0,0.0114801,0,0,0,53.1, 0.9, 1,0,0,1024,600,1024,1405,0,-64,0,58,0,0,65,3.951,3.955,3.952,3.955,3.957,3.952,0,,119.7483444,0,41,Motors_Started,
512100,2022-10-12 10:23:26,45.438951124486,9.05594986796555,0,,,119.7483444,0.1,0,0.0133166,0.0125797,18,5,23.722,119.7483444,0,0,0.0133166,0,0,0,53.1, 0.9, 1,0,0,1024,1024,1024,1024,0,0,0,0,0,0,65,3.951,3.955,3.952,3.955,3.957,3.952,0,,119.7483444,0,41,Motors_Started,
512200,2022-10-12 10:23:26,45.4389511539729,9.0559498735116,0,,,119.7483444,0.1,0,0.0100618,0.0158873,18,5,23.722,119.7483444,0,0,0.0133166,0,0,0,53.1, 0.9, 1,0,0,1024,1024,1024,1024,0,0,0,0,0,0,65,3.951,3.955,3.952,3.955,3.957,3.952,0,,119.7483444,0,41,Motors_Started,
512300,2022-10-12 10:23:26,45.4389511922192,9.05594987603891,0,,,119.7483444,0.1,0,0.00585779,0.0201451,18,5,23.722,119.7483444,0,0,0.0133166,0,0,0,53.1, 0.9, 0.9,0,0,1024,1024,1024,1024,0,0,0,0,0,0,65,3.951,3.955,3.952,3.955,3.957,3.952,0,,119.7483444,0,41,Motors_Started,
512400,2022-10-12 10:23:26,45.4389512470206,9.05594986575262,0,,,119.7483444,0.1,0,0.000346081,0.026292,18,5,23.722,119.7483444,0,0,0.0133166,0,0,0,53.1, 0.9, 1,0,0,1024,1024,1024,1024,0,0,0,0,0,0,65,3.951,3.955,3.952,3.955,3.957,3.952,0,,119.7483444,0,41,Motors_Started,
512500,2022-10-12 10:23:27,45.4389513096114,9.05594986313984,0,,,119.7483444,0.1,0,0.00727449,0.0332554,18,5,23.722,119.7483444,0,0,0.0133166,0,0,0,53, 0.9, 1,0,0,1024,1024,1024,1024,0,0,0,0,0,0,65,3.951,3.955,3.952,3.955,3.957,3.952,0,,119.7483444,0,41,Motors_Started,
512600,2022-10-12 10:23:27,45.4389512846837,9.05594987518426,0,,,119.7483444,0.1,0,0.00458772,0.0361825,18,5,23.722,119.7483444,0,0,0.0133166,0,0,0,53.1, 0.9, 0.9,0,0,1024,1024,1024,1024,0,0,0,0,0,0,65,3.951,3.955,3.952,3.955,3.957,3.952,0,,119.7483444,0,41,Motors_Started,
512700,2022-10-12 10:23:27,45.4389512343915,9.05594989964701,0,,,119.7483444,0.1,0,0.00299632,0.0420921,18,5,23.722,119.7483444,0,0,0.0133166,0,0,0,53.1, 0.9, 0.9,0,0,1024,1024,1024,1024,0,0,0,0,0,0,65,3.951,3.955,3.952,3.955,3.957,3.952,0,,119.7483444,0,41,Motors_Started,
512800,2022-10-12 10:23:27,45.4389512477524,9.05594990855213,0,,,119.7483444,0.1,0,0.00350797,0.0437324,18,5,23.722,119.7483444,0,0,0.0133166,0,0,0,53.1, 0.9, 0.9,0,0,1024,1024,1024,1024,0,0,0,0,0,0,65,3.951,3.955,3.952,3.955,3.957,3.952,0,,119.7483444,0,41,Motors_Started,
512900,2022-10-12 10:23:27,45.438951286773,9.05594992656687,0,,,119.7483444,0.1,0,0.00680738,0.0482937,18,5,23.645,119.7483444,0,0,0.0133166,0,0,0,53.1, 0.9, 0.9,0,0,1024,1024,1024,1024,0,0,0,0,0,0,65,3.936,3.943,3.94,3.941,3.945,3.94,0,,119.7483444,0,41,Motors_Started,
513100,2022-10-12 10:23:27,45.4389513464997,9.05594994584222,0,,,119.7483444,0.1,0,0.0130508,0.0551038,18,5,23.645,119.7483444,0,0,0.0133166,0,0,0,53.2, 0.9, 0.9,0,0,1024,1024,1024,1024,0,0,0,0,0,0,65,3.936,3.943,3.94,3.941,3.945,3.94,0,,119.7483444,0,41,Motors_Started,
513200,2022-10-12 10:23:27,45.43895137893,9.05594988531488,0,,,119.7483444,0.1,0,0.015076,0.0610463,18,5,23.645,119.7483444,0,0,0.015076,0,0,0,53.3, 0.9, 0.9,0,0,1024,1024,1024,1024,0,0,0,0,0,0,65,3.936,3.943,3.94,3.941,3.945,3.94,0,,119.7483444,0,10,Assisted_Takeoff,
513300,2022-10-12 10:23:27,45.4389513931789,9.05594987588477,0,,,119.7483444,0.1,0,0.0165939,0.0627934,18,5,23.645,119.7483444,0,0,0.0165939,0,0,0,53.3, 0.9, 0.9,0,0,1024,1024,1024,1024,0,0,0,0,0,0,65,3.936,3.943,3.94,3.941,3.945,3.94,0,,119.7483444,0,10,Assisted_Takeoff,
513400,2022-10-12 10:23:27,45.438951406582,9.05594986242408,0,,,119.7483444,0.1,0,0.0180583,0.0646168,18,5,23.645,119.7483444,0,0,0.0180583,0,0,0,53.3, 0.9, 0.9,0,0,1024,1024,1024,1024,0,0,0,0,0,0,65,3.936,3.943,3.94,3.941,3.945,3.94,0,,119.7483444,0,10,Assisted_Takeoff,
513500,2022-10-12 10:23:28,45.4389514199132,9.0559498433746,0,,,119.7483444,0.1,0,0.0196059,0.0667161,18,5,23.645,119.7483444,0,0,0.0196059,0,0,0,53.4, 0.9, 0.9,0,0,1024,1024,1024,1024,0,0,0,0,0,0,65,3.936,3.943,3.94,3.941,3.945,3.94,0,,119.7483444,0,10,Assisted_Takeoff,
513600,2022-10-12 10:23:28,45.438951499396,9.0559497889061,0,,,119.7483444,0.1,0,0.0289762,0.0765238,18,5,23.645,119.7483444,0,0,0.0289762,0,0,0,53.4, 0.9, 0.9,0,0,1024,1024,1024,1024,0,0,0,0,0,0,65,3.936,3.943,3.94,3.941,3.945,3.94,0,,119.7483444,0,10,Assisted_Takeoff,
513700,2022-10-12 10:23:28,45.438951556759,9.05594977738668,0,,,119.7483444,0.1,0,0.0354078,0.082966,18,5,23.645,119.7483444,0,0,0.0354078,0,0,0,53.4, 0.9, 0.9,0,0,1024,1024,1024,1024,0,0,0,0,0,0,65,3.936,3.943,3.94,3.941,3.945,3.94,0,,119.7483444,0,10,Assisted_Takeoff,
513800,2022-10-12 10:23:28,45.4389515864081,9.05594977134768,0,,,119.7483444,0.1,0,0.0387347,0.0862966,18,5,23.645,119.7483444,0,0,0.0387347,0,0,0,53.4, 0.9, 0.9,0,0,1024,1024,1024,1024,0,0,0,0,0,0,65,3.936,3.943,3.94,3.941,3.945,3.94,0,,119.7483444,0,10,Assisted_Takeoff,
513900,2022-10-12 10:23:28,45.4389516118703,9.05594976350782,0,,,119.7483444,0.1,0,0.0416307,0.0891935,18,5,23.645,119.7483444,0,0,0.0416307,0,0,0,53.4, 0.9, 0.9,0,0,1024,1024,1024,1024,0,0,0,0,0,0,65,3.936,3.943,3.94,3.941,3.945,3.94,0,,119.7483444,0,10,Assisted_Takeoff,
514000,2022-10-12 10:23:28,45.4389516118267,9.05594976092556,0,,,119.7483444,0.1,0,0.0416643,0.0893951,18,5,23.711,119.7483444,0,0,0.0416643,0,0,0,53.4, 0.9, 1,0,0,1024,1024,1024,1024,0,0,0,0,0,0,65,3.949,3.952,3.952,3.953,3.955,3.95,0,,119.7483444,0,10,Assisted_Takeoff,
514100,2022-10-12 10:23:28,45.4389515328669,9.05594977737447,0,,,119.7483444,0.1,0,0.0328036,0.0982692,18,5,23.711,119.7483444,0,0,0.0416643,0,0,0,53.5, 0.9, 1,0,0,1024,1024,1024,1024,0,0,0,0,0,0,65,3.949,3.952,3.952,3.953,3.955,3.95,0,,119.7483444,0,10,Assisted_Takeoff,
514200,2022-10-12 10:23:28,45.4389515270917,9.05594978041457,0,,,119.7483444,0.1,0,0.0321265,0.0989538,18,5,23.711,119.7483444,0,0,0.0416643,0,0,0,53.5, 0.9, 0.9,0,0,1024,1024,1024,1024,0,0,0,0,0,0,65,3.949,3.952,3.952,3.953,3.955,3.95,0,,119.7483444,0,10,Assisted_Takeoff,
514300,2022-10-12 10:23:28,45.4389515219087,9.05594978848031,0,,,119.7483444,0.1,0,0.0314385,0.0998072,18,5,23.711,119.7483444,0,0,0.0416643,0,0,0,53.5, 0.9, 0.9,0,0,1024,1024,1024,1024,0,0,0,0,0,0,65,3.949,3.952,3.952,3.953,3.955,3.95,0,,119.7483444,0,10,Assisted_Takeoff,
514400,2022-10-12 10:23:28,45.4389515198326,9.05594979423697,0,,,119.7483444,0.1,0,0.0311301,0.100312,18,5,23.711,119.7483444,0,0,0.0416643,0,0,0,53.5, 0.9, 0.9,0,0,1024,1024,1024,1024,0,0,0,0,0,0,65,3.949,3.952,3.952,3.953,3.955,3.95,0,,119.7483444,0,10,Assisted_Takeoff,
514500,2022-10-12 10:23:29,45.438951465596,9.05594981616019,0,,,119.7483444,0.1,0,0.0249007,0.106582,18,5,23.711,119.7483444,0,0,0.0416643,0,0,0,53.6, 0.9, 0.9,0,0,1024,1024,1024,1024,0,0,0,0,0,0,65,3.949,3.952,3.952,3.953,3.955,3.95,0,,119.7483444,0,10,Assisted_Takeoff,
514600,2022-10-12 10:23:29,45.4389515113246,9.05594982143459,0,,,119.7483444,0.1,0,0.0298901,0.111684,18,5,23.711,119.7483444,0,0,0.0416643,0,0,0,53.6, 0.9, 0.9,0,0,1024,1024,1024,1024,0,0,0,0,0,0,65,3.949,3.952,3.952,3.953,3.955,3.95,0,,119.7483444,0,10,Assisted_Takeoff,
514700,2022-10-12 10:23:29,45.4389515782057,9.05594982730418,0,,,119.7483444,0.1,0,0.0372531,0.119135,18,5,23.711,119.7483444,0,0,0.0416643,0,0,0,53.6, 0.9, 0.9,0,0,1024,1024,1024,1024,0,0,0,0,0,0,65,3.949,3.952,3.952,3.953,3.955,3.95,0,,119.7483444,0,10,Assisted_Takeoff,
514800,2022-10-12 10:23:29,45.4389516175451,9.05594982804589,0,,,119.7483444,0.1,0,0.0416124,0.12351,18,5,23.711,119.7483444,0,0,0.0416643,0,0,0,53.6, 0.9, 0.9,0,0,1024,1024,1024,1024,0,0,0,0,0,0,65,3.949,3.952,3.952,3.953,3.955,3.95,0,,119.7483444,0,10,Assisted_Takeoff,
514900,2022-10-12 10:23:29,45.4389516936977,9.05594981913925,0,,,119.7483444,0.1,0,0.0501088,0.132007,17,5,23.711,119.7483444,0,0,0.0501088,0,0,0,53.6, 0.9, 0.9,0,0,1024,1024,1024,1024,0,0,0,0,0,0,65,3.949,3.952,3.952,3.953,3.955,3.95,0,,119.7483444,0,10,Assisted_Takeoff,
515000,2022-10-12 10:23:29,45.4389517161994,9.05594981433033,0,,,119.7483444,0.1,0,0.0526315,0.134538,17,5,23.699,119.7483444,0,0,0.0526315,0,0,0,53.7, 0.9, 1,0,0,1024,1024,1024,1024,0,0,0,0,0,0,65,3.946,3.952,3.948,3.95,3.953,3.95,0,,119.7483444,0,10,Assisted_Takeoff,
515100,2022-10-12 10:23:29,45.4389517359342,9.05594981275229,0,,,119.7483444,0.1,0,0.0548293,0.136736,17,5,23.699,119.7483444,0,0,0.0548293,0,0,0,53.7, 0.9, 1,0,0,1024,1024,1024,1024,0,0,0,0,0,0,65,3.946,3.952,3.948,3.95,3.953,3.95,0,,119.7483444,0,10,Assisted_Takeoff,
515200,2022-10-12 10:23:29,45.4389517429967,9.05594980962214,0,,,119.7483444,0.1,0,0.0556307,0.137558,17,5,23.699,119.7483444,0,0,0.0556307,0,0,0,53.7, 0.9, 1,0,0,1024,1024,1024,1024,0,0,0,0,0,0,65,3.946,3.952,3.948,3.95,3.953,3.95,0,,119.7483444,0,10,Assisted_Takeoff,
515300,2022-10-12 10:23:29,45.4389516607905,9.05594981375802,0,,,119.7483444,0.1,0,0.0464923,0.146706,17,5,23.699,119.7483444,0,0,0.0556307,0,0,0,53.7, 0.9, 1,0,0,1024,1024,1024,1024,0,0,0,0,0,0,65,3.946,3.952,3.948,3.95,3.953,3.95,0,,119.7483444,0,10,Assisted_Takeoff,
515400,2022-10-12 10:23:29,45.4389516558736,9.05594982074019,0,,,119.7483444,0.1,0,0.0459043,0.147478,17,5,23.699,119.7483444,0,0,0.0556307,0,0,0,53.7, 0.9, 1,0,0,1024,1024,1024,1024,0,0,0,0,0,0,65,3.946,3.952,3.948,3.95,3.953,3.95,0,,119.7483444,0,10,Assisted_Takeoff,
515500,2022-10-12 10:23:30,45.438951652342,9.0559498316934,0,,,119.7483444,0.1,0,0.0454574,0.148418,17,5,23.699,119.7483444,0,0,0.0556307,0,0,0,53.7, 0.9, 1,0,0,1024,1024,1024,1024,0,0,0,0,0,0,65,3.946,3.952,3.948,3.95,3.953,3.95,0,,119.7483444,0,10,Assisted_Takeoff,
515600,2022-10-12 10:23:30,45.4389516444769,9.05594984114641,0,,,119.7483444,0.1,0,0.0445487,0.149563,17,5,23.699,119.7483444,0,0,0.0556307,0,0,0,53.7, 0.9, 1,0,0,1024,1024,1024,1024,0,0,0,0,0,0,65,3.946,3.952,3.948,3.95,3.953,3.95,0,,119.7483444,0,10,Assisted_Takeoff,
515700,2022-10-12 10:23:30,45.4389516379792,9.0559498453586,0,,,119.7483444,0.1,0,0.0438146,0.150356,17,5,23.699,119.7483444,0,0,0.0556307,0,0,0,53.7, 0.9, 1,0,0,1024,1024,1024,1024,0,0,0,0,0,0,65,3.946,3.952,3.948,3.95,3.953,3.95,0,,119.7483444,0,10,Assisted_Takeoff,
515800,2022-10-12 10:23:30,45.4389516010265,9.05594984808737,0,,,119.7483444,0.1,0,0.0397005,0.154471,17,5,23.699,119.7483444,0,0,0.0556307,0,0,0,53.7, 0.9, 0.9,0,0,1024,1024,1024,1024,0,0,0,0,0,0,65,3.946,3.952,3.948,3.95,3.953,3.95,0,,119.7483444,0,10,Assisted_Takeoff,
515900,2022-10-12 10:23:30,45.4389515528624,9.0559498504346,0,,,119.7483444,0.1,0,0.0343413,0.15983,17,5,23.699,119.7483444,0,0,0.0556307,0,0,0,53.7, 0.9, 0.9,0,0,1024,1024,1043,1024,0,0,3,0,0,0,65,3.946,3.952,3.948,3.95,3.953,3.95,0,,119.7483444,0,10,Assisted_Takeoff,
516000,2022-10-12 10:23:30,45.4389515410779,9.05594984720067,0,,,119.7483444,0.1,0,0.0330404,0.161165,17,5,23.699,119.7483444,0,0,0.0556307,0,0,0,53.7, 0.9, 1,0,0,1024,1024,1043,1024,0,0,3,0,0,0,65,3.946,3.952,3.948,3.95,3.953,3.95,0,,119.7483444,0,10,Assisted_Takeoff,
516100,2022-10-12 10:23:30,45.4389515428297,9.055949848066,0,,,119.7483444,0.1,0,0.0332325,0.161371,17,5,23.701,119.7483444,0,0,0.0556307,0,0,0,53.7, 0.9, 1,0,0,1024,1024,1055,1024,0,0,5,0,0,0,65,3.946,3.952,3.95,3.95,3.953,3.95,0,,119.7483444,0,10,Assisted_Takeoff,
516200,2022-10-12 10:23:30,45.4389515299185,9.05594984435287,0,,,119.7483444,0.1,0,0.0318103,0.162836,17,5,23.701,119.7483444,0,0,0.0556307,0,0,0,53.7, 0.9, 1,0,0,1024,1024,1053,1024,0,0,4,0,0,0,65,3.946,3.952,3.95,3.95,3.953,3.95,0,,119.7483444,0,10,Assisted_Takeoff,
516300,2022-10-12 10:23:30,45.4389515383396,9.05594984047185,0,,,119.7483444,0.1,0,0.0327612,0.16382,17,5,23.701,119.7483444,0,0,0.0556307,0,0,0,53.7, 0.9, 1,0,0,1024,1024,1061,1024,0,0,6,0,0,0,65,3.946,3.952,3.95,3.95,3.953,3.95,0,,119.7483444,0,10,Assisted_Takeoff,
516400,2022-10-12 10:23:30,45.438951589843,9.055949827002,0,,,119.7483444,0.1,0,0.0385453,0.169643,17,5,23.701,119.7483444,0,0,0.0556307,0,0,0,53.6, 0.9, 1,0,0,1024,1024,1080,1024,0,0,8,0,0,0,65,3.946,3.952,3.95,3.95,3.953,3.95,0,,119.7483444,0,10,Assisted_Takeoff,
516500,2022-10-12 10:23:31,45.4389516558667,9.05594980558393,0,,,119.7483444,0.1,0,0.0460054,0.177173,17,5,23.701,119.7483444,0,0,0.0556307,0,0,0,53.6, 0.9, 1,0,0,1024,1024,1102,1024,0,0,12,0,0,0,65,3.946,3.952,3.95,3.95,3.953,3.95,0,,119.7483444,0,10,Assisted_Takeoff,
516600,2022-10-12 10:23:31,45.4389516307903,9.05594978025738,0,,,119.7483444,0.1,0,0.0434837,0.180591,17,5,23.701,119.7483444,0,0,0.0556307,0,0,0,53.5, 0.9, 1,0,0,1024,1024,1102,1024,0,0,12,0,0,0,65,3.946,3.952,3.95,3.95,3.953,3.95,0,,119.7483444,0,10,Assisted_Takeoff,
516700,2022-10-12 10:23:31,45.4389516074437,9.05594976351698,0,,,119.7483444,0.1,0,0.0411472,0.183498,17,5,23.701,119.7483444,0,0,0.0556307,0,0,0,53.5, 0.9, 1,0,0,1024,1024,1103,1024,0,0,12,0,0,0,65,3.946,3.952,3.95,3.95,3.953,3.95,0,,119.7483444,0,10,Assisted_Takeoff,
516800,2022-10-12 10:23:31,45.4389515964259,9.05594975587399,0,,,119.7483444,0.1,0,0.0400662,0.18486,17,5,23.701,119.7483444,0,0,0.0556307,0,0,0,53.5, 0.9, 1,0,0,1024,1024,1102,1024,0,0,12,0,0,0,65,3.946,3.952,3.95,3.95,3.953,3.95,0,,119.7483444,0,10,Assisted_Takeoff,
516900,2022-10-12 10:23:31,45.4389515888092,9.05594975155497,0,,,119.7483444,0.1,0,0.0393123,0.185772,17,5,23.701,119.7483444,0,0,0.0556307,0,0,0,53.5, 0.9, 1,0,0,1024,1024,1102,1024,0,0,12,0,0,0,65,3.946,3.952,3.95,3.95,3.953,3.95,0,,119.7483444,0,10,Assisted_Takeoff,
517000,2022-10-12 10:23:31,45.4389515441698,9.05594964655851,0,,,119.7483444,0.1,0,0.0374214,0.195351,17,5,23.701,119.7483444,0,0,0.0556307,0,0,0,53.5, 0.9, 1,0,0,1024,1024,1102,1024,0,0,12,0,0,0,65,3.946,3.952,3.95,3.95,3.953,3.95,0,,119.7483444,0,10,Assisted_Takeoff,
517100,2022-10-12 10:23:31,45.4389515538425,9.05594958587704,0,,,119.7483444,0.1,0,0.0406975,0.200207,17,5,23.7,119.7483444,0,0,0.0556307,0,0,0,53.5, 0.9, 1,0,0,1024,1024,1102,1024,0,0,12,0,0,0,65,3.946,3.952,3.95,3.95,3.953,3.949,0,,119.7483444,0,10,Assisted_Takeoff,
517200,2022-10-12 10:23:31,45.4389516052031,9.05594956303812,0,,,119.7483444,0.1,0,0.0465054,0.20619,17,5,23.7,119.7483444,0,0,0.0556307,0,0,0,53.5, 0.9, 1.1,0,0,1024,1024,1100,1024,0,0,12,0,0,0,65,3.946,3.952,3.95,3.95,3.953,3.949,0,,119.7483444,0,10,Assisted_Takeoff,
517300,2022-10-12 10:23:31,45.4389516743568,9.05594955479688,0,,,119.7483444,0.1,0,0.0535721,0.213907,17,5,23.7,119.7483444,0,0,0.0556307,0,0,0,53.4, 0.9, 1.1,0,0,1024,1024,1102,1024,0,0,12,0,0,0,65,3.946,3.952,3.95,3.95,3.953,3.949,0,,119.7483444,0,10,Assisted_Takeoff,
517400,2022-10-12 10:23:31,45.4389516741717,9.05594959145971,0,,,119.7483444,0.1,0,0.0523277,0.216768,17,5,23.7,119.7483444,0,0,0.0556307,0,0,0,53.4, 0.9, 1.1,0,0,1024,1024,1101,1024,0,0,12,0,0,0,65,3.946,3.952,3.95,3.95,3.953,3.949,0,,119.7483444,0,10,Assisted_Takeoff,
517500,2022-10-12 10:23:32,45.4389516158232,9.05594977643894,0,,,119.7483444,0.1,0,0.0418863,0.232594,17,5,23.7,119.7483444,0,0,0.0556307,0,0,0,53.5, 1, 1.2,0,0,1024,1024,1105,1024,0,0,12,0,0,0,65,3.946,3.952,3.95,3.95,3.953,3.949,0,,119.7483444,0,10,Assisted_Takeoff,
517600,2022-10-12 10:23:32,45.4389515798738,9.05594976847851,0,,,119.7483444,0.1,0,0.0380641,0.236639,17,5,23.7,119.7483444,0,0,0.0556307,0,0,0,53.7, 0.9, 1,0,0,1024,1024,1106,1024,0,0,12,0,0,0,65,3.946,3.952,3.95,3.95,3.953,3.949,0,,119.7483444,0,10,Assisted_Takeoff,
517700,2022-10-12 10:23:32,45.4389515263635,9.05594973458564,0,,,119.7483444,0.2,0,0.0329605,0.243151,17,5,23.7,119.7483444,0,0,0.0556307,0,0,-0.2,54, 0.7, 0.9,0,0,1024,1024,1115,1024,0,0,14,0,0,0,65,3.946,3.952,3.95,3.95,3.953,3.949,0,,119.7483444,0,10,Assisted_Takeoff,
517800,2022-10-12 10:23:32,45.4389514637142,9.05594970311937,0,,,119.7483444,0.2,0,0.0274459,0.250538,17,5,23.7,119.7483444,0,0,0.0556307,0,0,-0.3,54.1, 0.2, 0.8,0,0,1024,1024,1114,1024,0,0,14,0,0,0,65,3.946,3.952,3.95,3.95,3.953,3.949,0,,119.7483444,0,6,P-GPS,
517900,2022-10-12 10:23:32,45.4389513215531,9.05594962987763,0,,,119.7483444,0.2,0,0.0201842,0.267349,17,5,23.7,119.7483444,0,0,0.0556307,0,0,-0.4,54.1, -0.1, 0.4,0,0,1024,1024,1120,1024,0,0,15,0,0,0,65,3.946,3.952,3.95,3.95,3.953,3.949,0,,119.7483444,0,6,P-GPS,
518000,2022-10-12 10:23:32,45.4389512368537,9.05594960622069,0.1,,,119.8483444,0.3,0,0.0201218,0.276947,17,5,23.7,119.8483444,0.1,0,0.0556307,0,0,-0.4,54, -0.5, -0.2,0,0,1024,1024,1114,1024,0,0,14,0,0,0,65,3.946,3.952,3.95,3.95,3.953,3.949,0,,119.8483444,0.1,6,P-GPS,
518100,2022-10-12 10:23:32,45.4389511474235,9.0559495827942,0.1,,,119.8483444,0.3,0,0.0244313,0.287059,17,5,23.32,119.8483444,0.1,0,0.0556307,0,0,-0.4,54, -0.8, -0.6,0,0,1024,1024,1107,1024,0,0,13,0,0,0,65,3.871,3.895,3.885,3.888,3.895,3.886,0,,119.8483444,0.1,6,P-GPS,
518200,2022-10-12 10:23:32,45.4389510994605,9.05594955430088,0.2,,,119.9483444,0.4,0,0.0290278,0.292837,17,5,23.32,119.9483444,0.2,0,0.0556307,0,0,-0.3,54, -0.9, -0.5,0,0,1024,1024,1113,1024,0,0,13,0,0,0,65,3.871,3.895,3.885,3.888,3.895,3.886,0,,119.9483444,0.2,6,P-GPS,
518300,2022-10-12 10:23:32,45.4389511038112,9.05594953825487,0.2,,,119.9483444,0.4,0,0.0298217,0.29418,17,5,23.32,119.9483444,0.2,0,0.0556307,0,0,-0.2,54, -0.9, -0.3,0,0,1024,1024,1119,1024,0,0,14,0,0,0,65,3.871,3.895,3.885,3.888,3.895,3.886,0,,119.9483444,0.2,6,P-GPS,
518400,2022-10-12 10:23:32,45.4389510271641,9.05594947435626,0.2,,,119.9483444,0.4,0,0.0388118,0.304054,17,5,23.32,119.9483444,0.2,0,0.0556307,0,0,-0.2,54, -0.8, -0.2,0,0,1024,1024,1123,1024,0,0,15,0,0,0,65,3.871,3.895,3.885,3.888,3.895,3.886,0,,119.9483444,0.2,6,P-GPS,
518500,2022-10-12 10:23:33,45.4389509373644,9.05594940182419,0.2,,,119.9483444,0.4,0,0.0496408,0.315533,17,5,23.32,119.9483444,0.2,0,0.0556307,0,0,-0.1,54.1, -0.6, -0.2,0,0,1024,1024,1125,1024,0,0,15,0,0,0,65,3.871,3.895,3.885,3.888,3.895,3.886,0,,119.9483444,0.2,6,P-GPS,
518600,2022-10-12 10:23:33,45.4389508932656,9.0559492451933,0.3,,,120.0483444,0.4,0,0.0620775,0.328702,17,5,23.32,120.0483444,0.3,0,0.0620775,0,0,-0.1,54.1, -0.5, 0,0,0,1024,1024,1121,1024,0,0,15,0,0,0,65,3.871,3.895,3.885,3.888,3.895,3.886,0,,120.0483444,0.3,6,P-GPS,
518700,2022-10-12 10:23:33,45.4389508243829,9.05594882240545,0.3,,,120.0483444,0.5,0,0.0937219,0.36257,17,5,23.32,120.0483444,0.3,0,0.0937219,0,0,0,54.1, -0.9, -0.1,0,0,1024,1024,1119,1024,0,0,14,0,0,0,65,3.871,3.895,3.885,3.888,3.895,3.886,0,,120.0483444,0.3,6,P-GPS,
518800,2022-10-12 10:23:33,45.4389507115998,9.05594873939021,0.3,,,120.0483444,0.5,0,0.105863,0.376686,17,5,23.32,120.0483444,0.3,0,0.105863,0,0,0,54, -1.4, -0.4,0,0,1024,1024,1131,1024,0,0,16,0,0,0,65,3.871,3.895,3.885,3.888,3.895,3.886,0,,120.0483444,0.3,6,P-GPS,
518900,2022-10-12 10:23:33,45.438950582284,9.05594868455238,0.3,,,120.0483444,0.5,0,0.117841,0.39169,17,5,23.32,120.0483444,0.3,0,0.117841,0,0,0,54, -1.6, -0.6,0,0,1024,1024,1132,1024,0,0,16,0,0,0,65,3.871,3.895,3.885,3.888,3.895,3.886,0,,120.0483444,0.3,6,P-GPS,
519000,2022-10-12 10:23:33,45.4389505249009,9.05594868650434,0.3,,,120.0483444,0.5,0,0.121814,0.398073,17,5,23.32,120.0483444,0.3,0,0.121814,0,0,0,54, -1.4, -0.7,0,0,1024,1024,1134,1024,0,0,17,0,0,0,65,3.871,3.895,3.885,3.888,3.895,3.886,0,,120.0483444,0.3,6,P-GPS,
519100,2022-10-12 10:23:33,45.4389504950192,9.05594870481363,0.3,,,120.0483444,0.5,0,0.122967,0.40169,18,5,23.31,120.0483444,0.3,0,0.122967,0,0,0,54, -0.9, -0.6,0,0,1024,1024,1135,1024,0,0,17,0,0,0,65,3.871,3.893,3.883,3.886,3.893,3.884,0,,120.0483444,0.3,6,P-GPS,
519200,2022-10-12 10:23:33,45.4389505488468,9.05594896015626,0.3,,,120.0483444,0.5,0,0.104653,0.422494,18,5,23.31,120.0483444,0.3,0,0.122967,0,0,0,54, -0.7, -0.2,0,0,1024,1024,1144,1024,0,0,18,0,0,0,65,3.871,3.893,3.883,3.886,3.893,3.884,0,,120.0483444,0.3,6,P-GPS,
519300,2022-10-12 10:23:33,45.4389505983618,9.05594893282739,0.3,,,120.0483444,0.5,0,0.102158,0.428399,18,5,23.31,120.0483444,0.3,0,0.122967,0,0,-0.1,54.1, -0.7, 0,0,0,1024,1024,1150,1024,0,0,19,0,0,0,65,3.871,3.893,3.883,3.886,3.893,3.884,0,,120.0483444,0.3,6,P-GPS,
519400,2022-10-12 10:23:33,45.4389506212559,9.0559489389137,0.3,,,120.0483444,0.5,0,0.100041,0.430989,18,5,23.31,120.0483444,0.3,0,0.122967,0,0,-0.1,54.1, -0.8, 0.2,0,0,1024,1024,1150,1024,0,0,19,0,0,0,65,3.871,3.893,3.883,3.886,3.893,3.884,0,,120.0483444,0.3,6,P-GPS,
519500,2022-10-12 10:23:34,45.4389506390335,9.05594896688813,0.3,,,120.0483444,0.5,0,0.0970976,0.433934,17,5,23.31,120.0483444,0.3,0,0.122967,0,0,-0.1,54.2, -0.8, 0.1,0,0,1024,1024,1169,1024,0,0,22,0,0,0,65,3.871,3.893,3.883,3.886,3.893,3.884,0,,120.0483444,0.3,6,P-GPS,
519600,2022-10-12 10:23:34,45.4389507193535,9.05594915591014,0.4,,,120.1483444,0.6,0,0.080364,0.451177,17,5,23.31,120.1483444,0.4,0,0.122967,0,0,-0.1,54.2, -0.7, 0,0,0,1024,1024,1174,1024,0,0,23,0,0,0,65,3.871,3.893,3.883,3.886,3.893,3.884,0,,120.1483444,0.4,6,P-GPS,
519700,2022-10-12 10:23:34,45.4389507468367,9.05594919601751,0.4,,,120.1483444,0.6,0,0.0759932,0.455552,17,5,23.31,120.1483444,0.4,0,0.122967,0,0,-0.1,54.2, -0.7, 0,0,0,1024,1024,1185,1024,0,0,24,0,0,0,65,3.871,3.893,3.883,3.886,3.893,3.884,0,,120.1483444,0.4,6,P-GPS,
519800,2022-10-12 10:23:34,45.4389507643184,9.05594924104368,0.4,,,120.1483444,0.6,0,0.0721793,0.459567,17,5,23.31,120.1483444,0.4,0,0.122967,0,0,-0.2,54.1, -0.6, -0.2,0,0,1024,1024,1186,1024,0,0,25,0,0,0,65,3.871,3.893,3.883,3.886,3.893,3.884,0,,120.1483444,0.4,6,P-GPS,
519900,2022-10-12 10:23:34,45.4389507790073,9.05594929028205,0.4,,,120.1483444,0.6,0,0.0684068,0.463742,17,5,23.31,120.1483444,0.4,0,0.122967,0,0,-0.2,54.1, -0.5, -0.3,0,0,1024,1024,1174,1024,0,0,23,0,0,0,65,3.871,3.893,3.883,3.886,3.893,3.884,0,,120.1483444,0.4,6,P-GPS,
520000,2022-10-12 10:23:34,45.438950879766,9.05594932670833,0.4,,,120.1483444,0.6,0,0.0583041,0.475302,17,5,23.31,120.1483444,0.4,0,0.122967,0,0,-0.2,54.1, -0.5, -0.2,0,0,1024,1024,1189,1024,0,0,25,0,0,0,65,3.871,3.893,3.883,3.886,3.893,3.884,0,,120.1483444,0.4,6,P-GPS,
520100,2022-10-12 10:23:34,45.4389509414569,9.05594935545042,0.5,,,120.2483444,0.7,0,0.0520325,0.482519,17,5,23.31,120.2483444,0.5,0,0.122967,0,0,-0.2,54, -0.3, 0,0,0,1024,1024,1188,1024,0,0,25,0,0,0,65,3.871,3.893,3.883,3.886,3.893,3.884,0,,120.2483444,0.5,6,P-GPS,
520200,2022-10-12 10:23:34,45.4389509614617,9.05594932968281,0.5,,,120.2483444,0.7,0,0.0522122,0.485518,17,5,23.233,120.2483444,0.5,0,0.122967,0,0,-0.2,54, 0, 0.1,0,0,1024,1024,1199,1024,0,0,27,0,0,0,65,3.856,3.88,3.87,3.873,3.882,3.872,0,,120.2483444,0.5,6,P-GPS,
520300,2022-10-12 10:23:34,45.4389509646607,9.05594928514653,0.5,,,120.2483444,0.7,0,0.0548239,0.489011,17,5,23.233,120.2483444,0.5,0,0.122967,0,0,-0.2,54, 0, 0,0,0,1024,1024,1201,1024,0,0,27,0,0,0,65,3.856,3.88,3.87,3.873,3.882,3.872,0,,120.2483444,0.5,6,P-GPS,
520400,2022-10-12 10:23:34,45.4389508511689,9.05594924048969,0.5,,,120.2483444,0.7,0,0.0653949,0.502104,17,5,23.233,120.2483444,0.5,0,0.122967,0,0,-0.3,54, -0.3, -0.2,0,0,1024,1024,1218,1024,0,0,29,0,0,0,65,3.856,3.88,3.87,3.873,3.882,3.872,0,,120.2483444,0.5,6,P-GPS,
520500,2022-10-12 10:23:35,45.4389508149171,9.05594925864026,0.6,,,120.3483444,0.8,0,0.0671518,0.506377,18,5,23.233,120.3483444,0.6,0,0.122967,0,0,-0.3,54, -0.5, -0.5,0,0,1024,1024,1224,1024,0,0,30,0,0,0,65,3.856,3.88,3.87,3.873,3.882,3.872,0,,120.3483444,0.6,6,P-GPS,
520600,2022-10-12 10:23:35,45.4389508140557,9.05594924938413,0.6,,,120.3483444,0.8,0,0.0677294,0.507106,18,5,23.233,120.3483444,0.6,0,0.122967,0,0,-0.3,54, -0.5, -0.6,0,0,1024,1024,1234,1024,0,0,32,0,0,0,65,3.856,3.88,3.87,3.873,3.882,3.872,0,,120.3483444,0.6,6,P-GPS,
520700,2022-10-12 10:23:35,45.4389508251421,9.05594922424987,0.6,,,120.3483444,0.9,0,0.0682844,0.509423,18,5,23.233,120.3483444,0.6,0,0.122967,0,0,-0.3,54, -0.6, -0.4,0,0,1024,1024,1238,1024,0,0,32,0,0,0,65,3.856,3.88,3.87,3.873,3.882,3.872,0,,120.3483444,0.6,6,P-GPS,
520800,2022-10-12 10:23:35,45.4389508338597,9.0559491946394,0.7,,,120.4483444,0.9,0,0.0693493,0.511928,18,5,23.233,120.4483444,0.7,0,0.122967,0,0,-0.4,54, -0.7, 0,0,0,1024,1024,1237,1024,0,0,32,0,0,0,65,3.856,3.88,3.87,3.873,3.882,3.872,0,,120.4483444,0.7,6,P-GPS,
520900,2022-10-12 10:23:35,45.4389508855072,9.05594913737193,0.7,,,120.4483444,0.9,0,0.0693167,0.519205,18,5,23.233,120.4483444,0.7,0,0.122967,0,0,-0.4,54.1, -0.8, 0.1,0,0,1024,1024,1240,1024,0,0,33,0,0,0,64,3.856,3.88,3.87,3.873,3.882,3.872,0,,120.4483444,0.7,6,P-GPS,
521000,2022-10-12 10:23:35,45.43895088338,9.05594916580421,0.8,,,120.5483444,1,0,0.0676544,0.521436,18,5,23.233,120.5483444,0.8,0,0.122967,0,0,-0.5,54.1, -1, 0.2,0,0,1024,1024,1240,1024,0,0,33,0,0,0,64,3.856,3.88,3.87,3.873,3.882,3.872,0,,120.5483444,0.8,6,P-GPS,
521100,2022-10-12 10:23:35,45.4389508738478,9.05594922682755,0.8,,,120.5483444,1,0,0.0645541,0.526315,18,5,23.233,120.5483444,0.8,0,0.122967,0,0,-0.5,54.1, -1, 0,0,0,1024,1024,1246,1024,0,0,34,0,0,0,64,3.856,3.88,3.87,3.873,3.882,3.872,0,,120.5483444,0.8,6,P-GPS,
521200,2022-10-12 10:23:35,45.4389509398978,9.05594928396376,0.9,,,120.6483444,1.1,0,0.0565049,0.534907,18,5,23.186,120.6483444,0.9,0,0.122967,0,0,-0.5,54, -0.8, -0.1,0,0,1024,1024,1246,1024,0,0,34,0,0,0,64,3.849,3.873,3.862,3.865,3.875,3.862,0,,120.6483444,0.9,6,P-GPS,
521300,2022-10-12 10:23:35,45.4389512008247,9.05594941093839,1,,,120.7483444,1.2,0,0.0356707,0.565569,18,5,23.186,120.7483444,1,0,0.122967,0,0,-0.5,54, -0.7, -0.5,0,0,1024,1024,1242,1024,0,0,33,0,0,0,64,3.849,3.873,3.862,3.865,3.875,3.862,0,,120.7483444,1,6,P-GPS,
521400,2022-10-12 10:23:35,45.4389511928808,9.05594942794892,1,,,120.7483444,1.2,0,0.0344912,0.567163,18,5,23.186,120.7483444,1,0,0.122967,0,0,-0.5,54, -0.7, -0.8,0,0,1024,1024,1244,1024,0,0,33,0,0,0,64,3.849,3.873,3.862,3.865,3.875,3.862,0,,120.7483444,1,6,P-GPS,
521500,2022-10-12 10:23:36,45.4389511567784,9.05594942863874,1.1,,,120.8483444,1.3,0,0.035326,0.571178,18,5,23.186,120.8483444,1.1,0,0.122967,0,0,-0.6,53.9, -0.5, -0.8,0,0,1024,1024,1248,1024,0,0,34,0,0,0,64,3.849,3.873,3.862,3.865,3.875,3.862,0,,120.8483444,1.1,6,P-GPS,
521600,2022-10-12 10:23:36,45.4389511650521,9.05594946421343,1.1,,,120.8483444,1.3,0,0.0324043,0.574103,18,5,23.186,120.8483444,1.1,0,0.122967,0,0,-0.6,53.9, -0.5, -0.9,0,0,1024,1024,1253,1024,0,0,35,0,0,0,64,3.849,3.873,3.862,3.865,3.875,3.862,0,,120.8483444,1.1,6,P-GPS,
521700,2022-10-12 10:23:36,45.4389511636144,9.05594947713997,1.2,,,120.9483444,1.4,0,0.0314799,0.575124,18,5,23.186,120.9483444,1.2,0,0.122967,0,0,-0.6,53.9, -0.5, -0.8,0,0,1024,1024,1253,1024,0,0,35,0,0,0,64,3.849,3.873,3.862,3.865,3.875,3.862,0,,120.9483444,1.2,6,P-GPS,
521800,2022-10-12 10:23:36,45.438951187117,9.05594946559613,1.3,,,121.0483444,1.5,0,0.0317198,0.577888,18,5,23.186,121.0483444,1.3,0,0.122967,0,0,-0.6,53.9, -0.4, -0.4,0,0,1024,1024,1253,1024,0,0,35,0,0,0,64,3.849,3.873,3.862,3.865,3.875,3.862,0,,121.0483444,1.3,6,P-GPS,
521900,2022-10-12 10:23:36,45.4389512093683,9.05594943309969,1.3,,,121.0483444,1.5,0,0.0338363,0.581431,17,5,23.186,121.0483444,1.3,0,0.122967,0,0,-0.6,53.9, -0.4, 0,0,0,1024,1024,1253,1024,0,0,35,0,0,0,64,3.849,3.873,3.862,3.865,3.875,3.862,0,,121.0483444,1.3,6,P-GPS,
522000,2022-10-12 10:23:36,45.4389512601467,9.05594937219998,1.4,,,121.1483444,1.6,0,0.0384068,0.588812,17,5,23.186,121.1483444,1.4,0,0.122967,0,0,-0.6,53.9, -0.5, 0.2,0,0,1024,1024,1253,1024,0,0,35,0,0,0,64,3.849,3.873,3.862,3.865,3.875,3.862,0,,121.1483444,1.4,6,P-GPS,
522100,2022-10-12 10:23:36,45.4389513735649,9.05594922481149,1.5,,,121.2483444,1.7,0,0.0519003,0.60588,17,5,23.186,121.2483444,1.5,0,0.122967,0,0,-0.6,54, -0.5, 0.2,0,0,1024,1024,1260,1024,0,0,36,0,0,0,64,3.849,3.873,3.862,3.865,3.875,3.862,0,,121.2483444,1.5,6,P-GPS,
522200,2022-10-12 10:23:36,45.4389514231328,9.05594921806131,1.6,,,121.3483444,1.7,0,0.0541796,0.611418,17,5,23.166,121.3483444,1.6,0,0.122967,0,0,-0.6,54, -0.5, 0.2,0,0,1024,1024,1268,1024,0,0,37,0,0,0,64,3.846,3.87,3.86,3.861,3.87,3.859,0,,121.3483444,1.6,6,P-GPS,
522300,2022-10-12 10:23:36,45.4389514696301,9.05594922493511,1.6,,,121.3483444,1.8,0,0.0558048,0.616616,17,5,23.166,121.3483444,1.6,0,0.122967,0,0,-0.6,54, -0.5, 0.3,0,0,1024,1024,1270,1024,0,0,37,0,0,0,64,3.846,3.87,3.86,3.861,3.87,3.859,0,,121.3483444,1.6,6,P-GPS,
522400,2022-10-12 10:23:36,45.4389514602719,9.05594918194636,1.7,,,121.4483444,1.9,0,0.0583851,0.620129,17,5,23.166,121.4483444,1.7,0,0.122967,0,0,-0.7,54, -0.6, 0.3,0,0,1024,1024,1270,1024,0,0,37,0,0,0,64,3.846,3.87,3.86,3.861,3.87,3.859,0,,121.4483444,1.7,6,P-GPS,
522500,2022-10-12 10:23:37,45.4389514283886,9.05594912897807,1.8,,,121.5483444,2,0,0.0608928,0.625574,17,5,23.166,121.5483444,1.8,0,0.122967,0,0,-0.7,53.9, -0.6, 0.3,0,0,1024,1024,1273,1024,0,0,38,0,0,0,64,3.846,3.87,3.86,3.861,3.87,3.859,0,,121.5483444,1.8,6,P-GPS,
522600,2022-10-12 10:23:37,45.4389513911526,9.05594912688266,1.8,,,121.5483444,2,0,0.0597848,0.629718,17,5,23.166,121.5483444,1.8,0,0.122967,0,0,-0.7,53.9, -0.4, 0,0,0,1024,1024,1273,1024,0,0,38,0,0,0,64,3.846,3.87,3.86,3.861,3.87,3.859,0,,121.5483444,1.8,6,P-GPS,
522700,2022-10-12 10:23:37,45.4389513421035,9.05594912857364,1.9,,,121.6483444,2.1,0,0.0583998,0.635174,17,5,23.166,121.6483444,1.9,0,0.122967,0,0,-0.7,53.8, -0.5, -0.3,0,0,1024,1024,1278,1024,0,0,38,0,0,0,64,3.846,3.87,3.86,3.861,3.87,3.859,0,,121.6483444,1.9,6,P-GPS,
522800,2022-10-12 10:23:37,45.4389512870059,9.05594903990552,2,,,121.7483444,2.2,0,0.0644707,0.644416,17,5,23.166,121.7483444,2,0,0.122967,0,0,-0.7,53.8, -1, -0.6,0,0,1024,1024,1281,1024,0,0,39,0,0,0,64,3.846,3.87,3.86,3.861,3.87,3.859,0,,121.7483444,2,6,P-GPS,
522900,2022-10-12 10:23:37,45.4389512283078,9.0559489096695,2.1,,,121.8483444,2.3,0,0.074478,0.656494,18,5,23.166,121.8483444,2.1,0,0.122967,0,0,-0.7,53.8, -1.4, -0.7,0,0,1024,1024,1285,1024,0,0,40,0,0,0,64,3.846,3.87,3.86,3.861,3.87,3.859,0,,121.8483444,2.1,6,P-GPS,
523000,2022-10-12 10:23:37,45.438951184751,9.05594890399068,2.2,,,121.9483444,2.4,0,0.0751913,0.661358,18,5,23.166,121.9483444,2.2,0,0.122967,0,0,-0.7,53.8, -1.4, -0.4,0,0,1024,1024,1287,1024,0,0,40,0,0,0,64,3.846,3.87,3.86,3.861,3.87,3.859,0,,121.9483444,2.2,6,P-GPS,
523100,2022-10-12 10:23:37,45.4389511476629,9.05594890329628,2.2,,,121.9483444,2.5,0,0.0757192,0.665483,18,5,23.166,121.9483444,2.2,0,0.122967,0,0,-0.8,53.8, -1.3, -0.3,0,0,1024,1024,1289,1024,0,0,40,0,0,0,64,3.846,3.87,3.86,3.861,3.87,3.859,0,,121.9483444,2.2,6,P-GPS,
523200,2022-10-12 10:23:37,45.4389510531558,9.05594886307444,2.3,,,122.0483444,2.5,0,0.0809311,0.676452,18,5,23.145,122.0483444,2.3,0,0.122967,0,0,-0.8,53.8, -1.6, -0.4,0,0,1024,1024,1290,1024,0,0,40,0,0,0,64,3.841,3.867,3.855,3.858,3.868,3.856,0,,122.0483444,2.3,6,P-GPS,
523300,2022-10-12 10:23:37,45.4389509418909,9.0559487942204,2.4,,,122.1483444,2.6,0,0.0899816,0.689941,18,5,23.145,122.1483444,2.4,0,0.122967,0,0,-0.8,53.7, -1.6, -0.6,0,0,1024,1024,1292,1024,0,0,41,0,0,0,64,3.841,3.867,3.855,3.858,3.868,3.856,0,,122.1483444,2.4,6,P-GPS,
523400,2022-10-12 10:23:37,45.4389509089248,9.05594885822432,2.5,,,122.2483444,2.7,0,0.0868785,0.696136,18,5,23.145,122.2483444,2.5,0,0.122967,0,0,-0.8,53.7, -1.6, -0.6,0,0,1024,1024,1295,1024,0,0,41,0,0,0,64,3.841,3.867,3.855,3.858,3.868,3.856,0,,122.2483444,2.5,6,P-GPS,
523500,2022-10-12 10:23:38,45.4389509215293,9.05594881789566,2.6,,,122.3483444,2.8,0,0.0891577,0.699581,18,5,23.145,122.3483444,2.6,0,0.122967,0,0,-0.9,53.7, -1.5, -0.3,0,0,1024,1024,1294,1024,0,0,41,0,0,0,64,3.841,3.867,3.855,3.858,3.868,3.856,0,,122.3483444,2.6,6,P-GPS,
523600,2022-10-12 10:23:38,45.4389509656858,9.0559487432117,2.7,,,122.4483444,2.9,0,0.0927687,0.707202,18,5,23.145,122.4483444,2.7,0,0.122967,0,0,-0.9,53.8, -1.4, 0.1,0,0,1024,1024,1295,1024,0,0,41,0,0,0,64,3.841,3.867,3.855,3.858,3.868,3.856,0,,122.4483444,2.7,6,P-GPS,
523700,2022-10-12 10:23:38,45.4389510127114,9.05594864959121,2.8,,,122.5483444,3,0,0.0981857,0.716186,18,5,23.145,122.5483444,2.8,0,0.122967,0,0,-0.9,53.9, -1.7, 0.6,0,0,1024,1024,1294,1024,0,0,41,0,0,0,64,3.841,3.867,3.855,3.858,3.868,3.856,0,,122.5483444,2.8,6,P-GPS,
523800,2022-10-12 10:23:38,45.4389510736782,9.05594849940681,2.9,,,122.6483444,3.1,0,0.108145,0.729725,18,5,23.145,122.6483444,2.9,0,0.122967,0,0,-0.9,54, -2, 1,0,0,1024,1024,1294,1024,0,0,41,0,0,0,64,3.841,3.867,3.855,3.858,3.868,3.856,0,,122.6483444,2.9,6,P-GPS,
523900,2022-10-12 10:23:38,45.4389510489462,9.05594841167727,3,,,122.7483444,3.2,0,0.115377,0.737102,18,5,23.145,122.7483444,3,0,0.122967,0,0,-0.9,54.1, -2.2, 1.2,0,0,1024,1024,1295,1024,0,0,41,0,0,0,64,3.841,3.867,3.855,3.858,3.868,3.856,0,,122.7483444,3,6,P-GPS,
524000,2022-10-12 10:23:38,45.438951022533,9.05594833328171,3.1,,,122.8483444,3.3,0,0.12195,0.743888,18,5,23.145,122.8483444,3.1,0,0.122967,0,0,-0.9,54.1, -2.4, 0.9,0,0,1024,1024,1299,1024,0,0,42,0,0,0,64,3.841,3.867,3.855,3.858,3.868,3.856,0,,122.8483444,3.1,6,P-GPS,
524100,2022-10-12 10:23:38,45.4389509893457,9.05594827558539,3.2,,,122.9483444,3.4,0,0.127134,0.749709,18,5,23.145,122.9483444,3.2,0,0.127134,0,0,-0.9,54.2, -2.1, 0.7,0,0,1024,1024,1306,1024,0,0,43,0,0,0,64,3.841,3.867,3.855,3.858,3.868,3.856,0,,122.9483444,3.2,6,P-GPS,
524200,2022-10-12 10:23:38,45.4389509931213,9.05594829580848,3.3,,,123.0483444,3.5,0,0.125502,0.751342,18,5,23.137,123.0483444,3.3,0,0.127134,0,0,-0.9,54.1, -1.9, 0.3,0,0,1024,1024,1312,1024,0,0,44,0,0,0,64,3.841,3.865,3.853,3.855,3.867,3.856,0,,123.0483444,3.3,6,P-GPS,
524300,2022-10-12 10:23:38,45.4389511154742,9.05594843247114,3.4,,,123.1483444,3.6,0,0.112606,0.768629,18,5,23.137,123.1483444,3.4,0,0.127134,0,0,-0.9,54.1, -1.6, 0.1,0,0,1024,1024,1311,1024,0,0,43,0,0,0,64,3.841,3.865,3.853,3.855,3.867,3.856,0,,123.1483444,3.4,6,P-GPS,
524400,2022-10-12 10:23:38,45.4389510613802,9.05594855128694,3.5,,,123.2483444,3.7,0,0.10442,0.779681,18,5,23.137,123.2483444,3.5,0,0.127134,0,0,-0.9,54, -1.4, -0.3,0,0,1024,1024,1310,1024,0,0,43,0,0,0,64,3.841,3.865,3.853,3.855,3.867,3.856,0,,123.2483444,3.5,6,P-GPS,
524500,2022-10-12 10:23:39,45.4389509826766,9.05594866860253,3.6,,,123.3483444,3.8,0,0.0976966,0.792346,18,5,23.137,123.3483444,3.6,0,0.127134,0,0,-1,54, -1.3, -0.6,0,0,1024,1024,1312,1024,0,0,44,0,0,0,64,3.841,3.865,3.853,3.855,3.867,3.856,0,,123.3483444,3.6,6,P-GPS,
524600,2022-10-12 10:23:39,45.4389508961202,9.05594870985757,3.7,,,123.4483444,3.9,0,0.0980155,0.802496,18,5,23.137,123.4483444,3.7,0,0.127134,0,0,-1,54, -1.3, -0.8,0,0,1024,1024,1311,1024,0,0,43,0,0,0,64,3.841,3.865,3.853,3.855,3.867,3.856,0,,123.4483444,3.7,6,P-GPS,
524700,2022-10-12 10:23:39,45.4389507083191,9.05594877108694,3.8,,,123.5483444,4,0,0.104031,0.82392,18,5,23.137,123.5483444,3.8,0,0.127134,0,0,-1,54, -1.2, -0.8,0,0,1024,1024,1312,1024,0,0,44,0,0,0,64,3.841,3.865,3.853,3.855,3.867,3.856,0,,123.5483444,3.8,6,P-GPS,
524800,2022-10-12 10:23:39,45.4389507228377,9.05594874279048,3.9,,,123.6483444,4.1,0,0.104948,0.826655,18,5,23.137,123.6483444,3.9,0,0.127134,0,0,-1,54, -1.1, -0.4,0,0,1024,1024,1312,1024,0,0,44,0,0,0,64,3.841,3.865,3.853,3.855,3.867,3.856,0,,123.6483444,3.9,6,P-GPS,
524900,2022-10-12 10:23:39,45.4389507612584,9.0559486908493,4,,,123.7483444,4.2,0,0.106124,0.832544,18,5,23.137,123.7483444,4,0,0.127134,0,0,-1,54, -1.1, -0.1,0,0,1024,1024,1311,1024,0,0,43,0,0,0,64,3.841,3.865,3.853,3.855,3.867,3.856,0,,123.7483444,4,6,P-GPS,
525000,2022-10-12 10:23:39,45.4389507583709,9.05594864798569,4.1,,,123.8483444,4.3,0,0.109181,0.835904,18,5,23.137,123.8483444,4.1,0,0.127134,0,0,-1,54, -1.4, 0,0,0,1024,1024,1311,1024,0,0,43,0,0,0,64,3.841,3.865,3.853,3.855,3.867,3.856,0,,123.8483444,4.1,6,P-GPS,
525100,2022-10-12 10:23:39,45.4389508370964,9.05594852066921,4.2,,,123.9483444,4.4,0,0.11417,0.849146,18,5,23.137,123.9483444,4.2,0,0.127134,0,0,-1,53.9, -1.8, 0,0,0,1024,1024,1311,1024,0,0,43,0,0,0,64,3.841,3.865,3.853,3.855,3.867,3.856,0,,123.9483444,4.2,6,P-GPS,
525200,2022-10-12 10:23:39,45.4389507500206,9.05594846186795,4.3,,,124.0483444,4.5,0,0.122426,0.859861,18,5,23.137,124.0483444,4.3,0,0.127134,0,0,-1,53.9, -2.3, -0.1,0,0,1024,1024,1310,1024,0,0,43,0,0,0,64,3.841,3.865,3.853,3.855,3.867,3.856,0,,124.0483444,4.3,6,P-GPS,
525300,2022-10-12 10:23:39,45.4389506460237,9.05594840250508,4.4,,,124.1483444,4.6,0,0.132015,0.87232,18,5,23.114,124.1483444,4.4,0,0.132015,0,0,-1,53.9, -2.4, -0.1,0,0,1024,1024,1305,1024,0,0,43,0,0,0,64,3.835,3.862,3.852,3.851,3.863,3.851,0,,124.1483444,4.4,6,P-GPS,
525400,2022-10-12 10:23:39,45.4389506087471,9.05594837228262,4.5,,,124.2483444,4.7,0,0.136162,0.877089,18,5,23.114,124.2483444,4.5,0,0.136162,0,0,-1,53.8, -2.3, -0.2,0,0,1024,1024,1308,1024,0,0,43,0,0,0,64,3.835,3.862,3.852,3.851,3.863,3.851,0,,124.2483444,4.5,6,P-GPS,
525500,2022-10-12 10:23:40,45.4389505526373,9.05594836096159,4.6,,,124.3483444,4.8,0,0.14024,0.883391,18,5,23.114,124.3483444,4.6,0,0.14024,0,0,-1,53.8, -2.1, -0.1,0,0,1024,1024,1303,1024,0,0,42,0,0,0,64,3.835,3.862,3.852,3.851,3.863,3.851,0,,124.3483444,4.6,6,P-GPS,
525600,2022-10-12 10:23:40,45.4389505766458,9.05594834866688,4.7,,,124.4483444,4.9,0,0.139606,0.886228,18,5,23.114,124.4483444,4.7,0,0.14024,0,0,-1,53.8, -2, 0,0,0,1024,1024,1305,1024,0,0,43,0,0,0,64,3.835,3.862,3.852,3.851,3.863,3.851,0,,124.4483444,4.7,6,P-GPS,
525700,2022-10-12 10:23:40,45.4389506074233,9.05594834194112,4.8,,,124.5483444,5,0,0.138267,0.889691,18,5,23.114,124.5483444,4.8,0,0.14024,0,0,-1,53.8, -1.8, 0.1,0,0,1024,1024,1300,1024,0,0,42,0,0,0,64,3.835,3.862,3.852,3.851,3.863,3.851,0,,124.5483444,4.8,6,P-GPS,
525800,2022-10-12 10:23:40,45.4389505632875,9.05594834490186,4.9,,,124.6483444,5.1,0,0.140649,0.894604,18,5,23.114,124.6483444,4.9,0,0.140649,0,0,-0.9,53.8, -1.9, -0.1,0,0,1024,1024,1304,1024,0,0,42,0,0,0,64,3.835,3.862,3.852,3.851,3.863,3.851,0,,124.6483444,4.9,6,P-GPS,
525900,2022-10-12 10:23:40,45.4389504999893,9.05594835604585,5,,,124.7483444,5.2,0,0.143848,0.901697,18,5,23.114,124.7483444,5,0,0.143848,0,0,-0.9,53.8, -1.8, -0.3,0,0,1024,1024,1304,1024,0,0,42,0,0,0,64,3.835,3.862,3.852,3.851,3.863,3.851,0,,124.7483444,5,6,P-GPS,
526000,2022-10-12 10:23:40,45.4389504676394,9.05594841771932,5.1,,,124.8483444,5.3,0,0.142097,0.907705,18,5,23.114,124.8483444,5.1,0,0.143848,0,0,-0.9,53.8, -1.5, -0.4,0,0,1024,1024,1304,1024,0,0,42,0,0,0,64,3.835,3.862,3.852,3.851,3.863,3.851,0,,124.8483444,5.1,6,P-GPS,
526100,2022-10-12 10:23:40,45.4389504505421,9.05594849428503,5.2,,,124.9483444,5.4,0,0.138603,0.913975,18,5,23.114,124.9483444,5.2,0,0.143848,0,0,-0.9,53.8, -1.4, -0.4,0,0,1024,1024,1306,1024,0,0,43,0,0,0,64,3.835,3.862,3.852,3.851,3.863,3.851,0,,124.9483444,5.2,6,P-GPS,
526200,2022-10-12 10:23:40,45.4389504270638,9.05594849606605,5.3,,,125.0483444,5.5,0,0.140174,0.916589,18,5,23.114,125.0483444,5.3,0,0.143848,0,0,-0.9,53.8, -1.3, -0.4,0,0,1024,1024,1308,1024,0,0,43,0,0,0,64,3.835,3.862,3.852,3.851,3.863,3.851,0,,125.0483444,5.3,6,P-GPS,
526300,2022-10-12 10:23:40,45.4389503986072,9.05594847050905,5.4,,,125.1483444,5.6,0,0.143748,0.92033,18,5,23.104,125.1483444,5.4,0,0.143848,0,0,-0.9,53.8, -1.4, -0.3,0,0,1024,1024,1310,1024,0,0,43,0,0,0,64,3.835,3.86,3.848,3.85,3.86,3.851,0,,125.1483444,5.4,6,P-GPS,
526400,2022-10-12 10:23:40,45.43895041114,9.05594822379377,5.5,,,125.2483444,5.7,0,0.157988,0.939631,18,5,23.104,125.2483444,5.5,0,0.157988,0,0,-1,53.8, -1.6, -0.1,0,0,1024,1024,1310,1024,0,0,43,0,0,0,64,3.835,3.86,3.848,3.85,3.86,3.851,0,,125.2483444,5.5,6,P-GPS,
526500,2022-10-12 10:23:41,45.4389504280759,9.05594815609503,5.6,,,125.3483444,5.8,0,0.161229,0.94524,18,5,23.104,125.3483444,5.6,0,0.161229,0,0,-1,53.7, -1.8, 0,0,0,1024,1024,1311,1024,0,0,43,0,0,0,64,3.835,3.86,3.848,3.85,3.86,3.851,0,,125.3483444,5.6,6,P-GPS,
526600,2022-10-12 10:23:41,45.4389504177557,9.05594816075744,5.7,,,125.4483444,5.9,0,0.161578,0.946444,18,5,23.104,125.4483444,5.7,0,0.161578,0,0,-1,53.7, -1.7, 0,0,0,1024,1024,1312,1024,0,0,44,0,0,0,64,3.835,3.86,3.848,3.85,3.86,3.851,0,,125.4483444,5.7,6,P-GPS,
526700,2022-10-12 10:23:41,45.438950405491,9.05594818411983,5.8,,,125.5483444,6,0,0.160869,0.94872,18,5,23.104,125.5483444,5.8,0,0.161578,0,0,-1,53.7, -1.5, 0.1,0,0,1024,1024,1311,1024,0,0,43,0,0,0,64,3.835,3.86,3.848,3.85,3.86,3.851,0,,125.5483444,5.8,6,P-GPS,
526800,2022-10-12 10:23:41,45.4389504914638,9.05594811337031,5.9,,,125.6483444,6.1,0,0.160202,0.95976,18,5,23.104,125.6483444,5.9,0,0.161578,0,0,-1,53.8, -1.4, 0.3,0,0,1024,1024,1312,1024,0,0,44,0,0,0,64,3.835,3.86,3.848,3.85,3.86,3.851,0,,125.6483444,5.9,6,P-GPS,
526900,2022-10-12 10:23:41,45.4389505473021,9.05594805105584,6,,,125.7483444,6.2,0,0.161293,0.967647,18,5,23.104,125.7483444,6,0,0.161578,0,0,-1,53.8, -1.3, 0.5,0,0,1024,1024,1313,1024,0,0,44,0,0,0,64,3.835,3.86,3.848,3.85,3.86,3.851,0,,125.7483444,6,6,P-GPS,
527000,2022-10-12 10:23:41,45.438950532024,9.05594797643599,6.1,,,125.8483444,6.3,0,0.167221,0.973713,18,5,23.104,125.8483444,6.1,0,0.167221,0,0,-1,53.9, -1.5, 0.6,0,0,1024,1024,1313,1024,0,0,44,0,0,0,64,3.835,3.86,3.848,3.85,3.86,3.851,0,,125.8483444,6.1,6,P-GPS,
527100,2022-10-12 10:23:41,45.4389504954063,9.05594789687749,6.2,,,125.9483444,6.4,0,0.174618,0.981137,18,5,23.104,125.9483444,6.2,0,0.174618,0,0,-1,53.9, -1.7, 0.7,0,0,1024,1024,1312,1024,0,0,44,0,0,0,64,3.835,3.86,3.848,3.85,3.86,3.851,0,,125.9483444,6.2,6,P-GPS,
527200,2022-10-12 10:23:41,45.4389505147373,9.05594774752332,6.3,,,126.0483444,6.5,0,0.183988,0.992988,18,5,23.104,126.0483444,6.3,0,0.183988,0,0,-1,53.9, -1.9, 0.7,0,0,1024,1024,1311,1024,0,0,43,0,0,0,64,3.835,3.86,3.848,3.85,3.86,3.851,0,,126.0483444,6.3,6,P-GPS,
527300,2022-10-12 10:23:41,45.4389505316178,9.05594768163613,6.4,,,126.1483444,6.6,0,0.187816,0.998461,18,5,23.068,126.1483444,6.4,0,0.187816,0,0,-1,53.9, -2, 0.5,0,0,1024,1024,1311,1024,0,0,43,0,0,0,64,3.829,3.855,3.842,3.845,3.855,3.842,0,,126.1483444,6.4,6,P-GPS,
527400,2022-10-12 10:23:41,45.4389505193291,9.05594767779479,6.5,,,126.2483444,6.8,0,0.188668,0.99986,18,5,23.068,126.2483444,6.5,0,0.188668,0,0,-1,53.9, -2, 0.5,0,0,1024,1024,1311,1024,0,0,43,0,0,0,64,3.829,3.855,3.842,3.845,3.855,3.842,0,,126.2483444,6.5,6,P-GPS,
527500,2022-10-12 10:23:42,45.4389504981869,9.05594770104272,6.6,,,126.3483444,6.9,0,0.188055,1.00283,18,5,23.068,126.3483444,6.6,0,0.188668,0,0,-1,53.9, -1.9, 0.4,0,0,1024,1024,1313,1024,0,0,44,0,0,0,64,3.829,3.855,3.842,3.845,3.855,3.842,0,,126.3483444,6.6,6,P-GPS,
527600,2022-10-12 10:23:42,45.4389504396843,9.05594771195931,6.7,,,126.4483444,7,0,0.190262,1.00939,18,5,23.068,126.4483444,6.7,0,0.190262,0,0,-1,53.9, -1.9, 0.3,0,0,1024,1024,1313,1024,0,0,44,0,0,0,64,3.829,3.855,3.842,3.845,3.855,3.842,0,,126.4483444,6.7,6,P-GPS,
527700,2022-10-12 10:23:42,45.4389502499635,9.05594782955419,6.8,,,126.5483444,7.1,0,0.193449,1.0324,18,5,23.068,126.5483444,6.8,0,0.193449,0,0,-1,53.8, -1.8, 0.4,0,0,1024,1024,1312,1024,0,0,44,0,0,0,64,3.829,3.855,3.842,3.845,3.855,3.842,0,,126.5483444,6.8,6,P-GPS,
527800,2022-10-12 10:23:42,45.4389502574447,9.055947909044,7,,,126.7483444,7.2,0,0.187906,1.03866,18,5,23.068,126.7483444,7,0,0.193449,0,0,-1,53.8, -1.6, 0.4,0,0,1024,1024,1311,1024,0,0,43,0,0,0,64,3.829,3.855,3.842,3.845,3.855,3.842,0,,126.7483444,7,6,P-GPS,
527900,2022-10-12 10:23:42,45.438950287153,9.05594800837232,7.1,,,126.8483444,7.3,0,0.179694,1.04708,18,5,23.068,126.8483444,7.1,0,0.193449,0,0,-1,53.7, -1.4, 0.4,0,0,1024,1024,1307,1024,0,0,43,0,0,0,64,3.829,3.855,3.842,3.845,3.855,3.842,0,,126.8483444,7.1,6,P-GPS,
528000,2022-10-12 10:23:42,45.4389503077698,9.05594807522099,7.2,,,126.9483444,7.4,0,0.174138,1.05278,18,5,23.068,126.9483444,7.2,0,0.193449,0,0,-1,53.7, -1.3, 0.3,0,0,1024,1024,1308,1024,0,0,43,0,0,0,64,3.829,3.855,3.842,3.845,3.855,3.842,0,,126.9483444,7.2,6,P-GPS,
528100,2022-10-12 10:23:42,45.4389504524317,9.05594822998691,7.3,,,127.0483444,7.5,0,0.154942,1.07289,18,5,23.068,127.0483444,7.3,0,0.193449,0,0,-1,53.6, -1.4, 0.1,0,0,1024,1024,1308,1024,0,0,43,0,0,0,64,3.829,3.855,3.842,3.845,3.855,3.842,0,,127.0483444,7.3,6,P-GPS,
528200,2022-10-12 10:23:42,45.4389504566905,9.05594823474547,7.4,,,127.1483444,7.6,0,0.154367,1.0735,18,5,23.068,127.1483444,7.4,0,0.193449,0,0,-1,53.6, -1.7, 0.1,0,0,1024,1024,1306,1024,0,0,43,0,0,0,64,3.829,3.855,3.842,3.845,3.855,3.842,0,,127.1483444,7.4,6,P-GPS,
528300,2022-10-12 10:23:42,45.4389504629447,9.05594823266837,7.5,,,127.2483444,7.7,0,0.154108,1.07421,18,5,23.068,127.2483444,7.5,0,0.193449,0,0,-1,53.6, -1.7, 0,0,0,1024,1024,1308,1024,0,0,43,0,0,0,64,3.829,3.855,3.842,3.845,3.855,3.842,0,,127.2483444,7.5,6,P-GPS,
528400,2022-10-12 10:23:42,45.4389504693304,9.05594828831353,7.6,,,127.3483444,7.8,0,0.150133,1.07861,18,5,23.071,127.3483444,7.6,0,0.193449,0,0,-1,53.7, -1.6, 0,0,0,1024,1024,1308,1024,0,0,43,0,0,0,64,3.829,3.855,3.843,3.845,3.855,3.844,0,,127.3483444,7.6,6,P-GPS,
528500,2022-10-12 10:23:42,45.4389505219442,9.05594844765334,7.7,,,127.4483444,7.9,0,0.136613,1.09235,18,5,23.071,127.4483444,7.7,0,0.193449,0,0,-1,53.7, -1.4, 0,0,0,1024,1024,1311,1024,0,0,43,0,0,0,64,3.829,3.855,3.843,3.845,3.855,3.844,0,,127.4483444,7.7,6,P-GPS,
528600,2022-10-12 10:23:43,45.4389505825501,9.05594853781709,7.8,,,127.5483444,8,0,0.126967,1.10209,18,5,23.071,127.5483444,7.8,0,0.193449,0,0,-1,53.7, -0.9, 0.2,0,0,1024,1024,1305,1024,0,0,43,0,0,0,64,3.829,3.855,3.843,3.845,3.855,3.844,0,,127.5483444,7.8,6,P-GPS,
528700,2022-10-12 10:23:43,45.4389506546131,9.05594861947711,7.9,,,127.6483444,8.1,0,0.117164,1.11233,18,5,23.071,127.6483444,7.9,0,0.193449,0,0,-1,53.8, -0.8, 0.3,0,0,1024,1024,1306,1024,0,0,43,0,0,0,64,3.829,3.855,3.843,3.845,3.855,3.844,0,,127.6483444,7.9,6,P-GPS,
528800,2022-10-12 10:23:43,45.438950655493,9.05594856999456,8,,,127.7483444,8.2,0,0.12033,1.1162,18,5,23.071,127.7483444,8,0,0.193449,0,0,-1,53.8, -1.1, 0.6,0,0,1024,1024,1310,1024,0,0,43,0,0,0,64,3.829,3.855,3.843,3.845,3.855,3.844,0,,127.7483444,8,6,P-GPS,
528900,2022-10-12 10:23:43,45.4389505949091,9.05594839967711,8.1,,,127.8483444,8.3,0,0.135155,1.1311,18,5,23.071,127.8483444,8.1,0,0.193449,0,0,-1,53.8, -1.1, 0.8,0,0,1024,1024,1311,1024,0,0,43,0,0,0,64,3.829,3.855,3.843,3.845,3.855,3.844,0,,127.8483444,8.1,6,P-GPS,
529000,2022-10-12 10:23:43,45.4389506009036,9.05594837830025,8.2,,,127.9483444,8.4,0,0.136217,1.13289,18,5,23.071,127.9483444,8.2,0,0.193449,0,0,-1,53.8, -1.1, 0.9,0,0,1024,1024,1312,1024,0,0,44,0,0,0,64,3.829,3.855,3.843,3.845,3.855,3.844,0,,127.9483444,8.2,6,P-GPS,
529100,2022-10-12 10:23:43,45.4389506116001,9.05594838013316,8.3,,,128.0483444,8.5,0,0.135474,1.13409,18,5,23.071,128.0483444,8.3,0,0.193449,0,0,-1,53.8, -1.2, 0.8,0,0,1024,1024,1312,1024,0,0,44,0,0,0,64,3.829,3.855,3.843,3.845,3.855,3.844,0,,128.0483444,8.3,6,P-GPS,
529200,2022-10-12 10:23:43,45.4389505937253,9.05594838859875,8.4,,,128.1483444,8.6,0,0.135957,1.13618,18,5,23.071,128.1483444,8.4,0,0.193449,0,0,-1,53.8, -1.2, 0.6,0,0,1024,1024,1313,1024,0,0,44,0,0,0,64,3.829,3.855,3.843,3.845,3.855,3.844,0,,128.1483444,8.4,6,P-GPS,
529300,2022-10-12 10:23:43,45.4389505622395,9.05594838571431,8.5,,,128.2483444,8.7,0,0.13804,1.13969,18,5,23.071,128.2483444,8.5,0,0.193449,0,0,-1,53.8, -1.2, 0.6,0,0,1024,1024,1314,1024,0,0,44,0,0,0,64,3.829,3.855,3.843,3.845,3.855,3.844,0,,128.2483444,8.5,6,P-GPS,
529400,2022-10-12 10:23:43,45.438950584308,9.05594839934899,8.6,,,128.3483444,8.8,0,0.13581,1.14237,18,5,23.081,128.3483444,8.6,0,0.193449,0,0,-1,53.8, -1.5, 0.8,0,0,1024,1024,1313,1024,0,0,44,0,0,0,64,3.832,3.857,3.843,3.846,3.857,3.846,0,,128.3483444,8.6,6,P-GPS,
529500,2022-10-12 10:23:43,45.4389506181472,9.0559484163931,8.7,,,128.4483444,8.9,0,0.132681,1.14636,18,5,23.081,128.4483444,8.7,0,0.193449,0,0,-1,53.8, -1.7, 0.9,0,0,1024,1024,1316,1024,0,0,44,0,0,0,64,3.832,3.857,3.843,3.846,3.857,3.846,0,,128.4483444,8.7,6,P-GPS,
529600,2022-10-12 10:23:44,45.4389506031923,9.05594843007203,8.8,,,128.5483444,9,0,0.132659,1.14834,18,5,23.081,128.5483444,8.8,0,0.193449,0,0,-1,53.8, -1.8, 0.7,0,0,1024,1024,1319,1024,0,0,45,0,0,0,64,3.832,3.857,3.843,3.846,3.857,3.846,0,,128.5483444,8.8,6,P-GPS,
529700,2022-10-12 10:23:44,45.4389505734948,9.05594842563244,8.9,,,128.6483444,9.2,0,0.134751,1.15166,18,5,23.081,128.6483444,8.9,0,0.193449,0,0,-1,53.8, -1.9, 0.6,0,0,1024,1024,1319,1024,0,0,45,0,0,0,64,3.832,3.857,3.843,3.846,3.857,3.846,0,,128.6483444,8.9,6,P-GPS,
529800,2022-10-12 10:23:44,45.4389505746564,9.05594837418879,9,,,128.7483444,9.3,0,0.138043,1.15567,18,5,23.081,128.7483444,9,0,0.193449,0,0,-1,53.8, -2, 0.7,0,0,1024,1024,1320,1024,0,0,45,0,0,0,64,3.832,3.857,3.843,3.846,3.857,3.846,0,,128.7483444,9,6,P-GPS,
530000,2022-10-12 10:23:44,45.4389504870848,9.05594815902678,9.2,,,128.9483444,9.5,0,0.157435,1.17508,18,5,23.081,128.9483444,9.2,0,0.193449,0,0,-1,53.8, -2.4, 1.1,0,0,1024,1024,1320,1024,0,0,45,0,0,0,64,3.832,3.857,3.843,3.846,3.857,3.846,0,,128.9483444,9.2,6,P-GPS,
530100,2022-10-12 10:23:44,45.4389504091781,9.055948035982,9.4,,,129.1483444,9.6,0,0.170195,1.18801,18,5,23.081,129.1483444,9.4,0,0.193449,0,0,-1.1,53.9, -2.6, 1.1,0,0,1024,1024,1320,1024,0,0,45,0,0,0,64,3.832,3.857,3.843,3.846,3.857,3.846,0,,129.1483444,9.4,6,P-GPS,
530200,2022-10-12 10:23:44,45.4389503645872,9.05594790521183,9.5,,,129.2483444,9.7,0,0.181458,1.19936,18,5,23.081,129.2483444,9.5,0,0.193449,0,0,-1,53.8, -2.7, 0.9,0,0,1024,1024,1320,1024,0,0,45,0,0,0,64,3.832,3.857,3.843,3.846,3.857,3.846,0,,129.2483444,9.5,6,P-GPS,
530300,2022-10-12 10:23:44,45.4389503386428,9.05594788673771,9.6,,,129.3483444,9.8,0,0.184234,1.20258,18,5,23.081,129.3483444,9.6,0,0.193449,0,0,-1,53.8, -2.7, 0.6,0,0,1024,1024,1320,1024,0,0,45,0,0,0,64,3.832,3.857,3.843,3.846,3.857,3.846,0,,129.3483444,9.6,6,P-GPS,
530400,2022-10-12 10:23:44,45.4389503045761,9.05594790885171,9.7,,,129.4483444,9.9,0,0.184906,1.20675,18,5,23.072,129.4483444,9.7,0,0.193449,0,0,-1,53.8, -2.4, 0.3,0,0,1024,1024,1320,1024,0,0,45,0,0,0,64,3.83,3.855,3.843,3.845,3.855,3.844,0,,129.4483444,9.7,6,P-GPS,
530500,2022-10-12 10:23:45,45.4389502788482,9.0559479380608,9.8,,,129.5483444,10,0,0.184679,1.2104,18,5,23.072,129.5483444,9.8,0,0.193449,0,0,-1,53.8, -2.2, 0.1,0,0,1024,1024,1320,1024,0,0,45,0,0,0,64,3.83,3.855,3.843,3.845,3.855,3.844,0,,129.5483444,9.8,6,P-GPS,
530600,2022-10-12 10:23:45,45.4389502343225,9.05594802387196,9.9,,,129.6483444,10.1,0,0.182281,1.21873,18,5,23.072,129.6483444,9.9,0,0.193449,0,0,-1,53.8, -2.2, 0.1,0,0,1024,1024,1320,1024,0,0,45,0,0,0,64,3.83,3.855,3.843,3.845,3.855,3.844,0,,129.6483444,9.9,6,P-GPS,
530700,2022-10-12 10:23:45,45.4389502316602,9.05594802308751,10,,,129.7483444,10.2,0,0.182511,1.21903,18,5,23.072,129.7483444,10,0,0.193449,0,0,-1,53.8, -2.1, 0.3,0,0,1024,1024,1320,1024,0,0,45,0,0,0,64,3.83,3.855,3.843,3.845,3.855,3.844,0,,129.7483444,10,6,P-GPS,
530800,2022-10-12 10:23:45,45.4389502004217,9.05594799009966,10.1,,,129.8483444,10.3,0,0.186684,1.22336,18,5,23.072,129.8483444,10.1,0,0.193449,0,0,-1,53.8, -2.1, 0.7,0,0,1024,1024,1317,1024,0,0,44,0,0,0,64,3.83,3.855,3.843,3.845,3.855,3.844,0,,129.8483444,10.1,6,P-GPS,
530900,2022-10-12 10:23:45,45.4389501627239,9.05594794768169,10.2,,,129.9483444,10.4,0,0.191887,1.2287,18,5,23.072,129.9483444,10.2,0,0.193449,0,0,-1,53.8, -2.1, 1.1,0,0,1024,1024,1314,1024,0,0,44,0,0,0,64,3.83,3.855,3.843,3.845,3.855,3.844,0,,129.9483444,10.2,6,P-GPS,
531000,2022-10-12 10:23:45,45.4389502153148,9.05594788096884,10.3,,,130.0483444,10.5,0,0.192436,1.23653,18,5,23.072,130.0483444,10.3,0,0.193449,0,0,-1,53.7, -2.1, 1.3,0,0,1024,1024,1313,1024,0,0,44,0,0,0,64,3.83,3.855,3.843,3.845,3.855,3.844,0,,130.0483444,10.3,6,P-GPS,
531100,2022-10-12 10:23:45,45.4389503396801,9.05594771747484,10.4,,,130.1483444,10.6,0,0.195368,1.25534,18,5,23.072,130.1483444,10.4,0,0.195368,0,0,-1,53.7, -2.1, 1.4,0,0,1024,1024,1311,1024,0,0,43,0,0,0,64,3.83,3.855,3.843,3.845,3.855,3.844,0,,130.1483444,10.4,6,P-GPS,
531200,2022-10-12 10:23:45,45.4389503498545,9.05594770262382,10.5,,,130.2483444,10.7,0,0.195785,1.25696,18,5,23.072,130.2483444,10.5,0,0.195785,0,0,-1,53.7, -1.9, 1.4,0,0,1024,1024,1311,1024,0,0,43,0,0,0,64,3.83,3.855,3.843,3.845,3.855,3.844,0,,130.2483444,10.5,6,P-GPS,
531300,2022-10-12 10:23:45,45.4389503358259,9.05594770423697,10.6,,,130.3483444,10.8,0,0.196475,1.25853,18,5,23.072,130.3483444,10.6,0,0.196475,0,0,-1,53.7, -1.9, 1.5,0,0,1024,1024,1312,1024,0,0,44,0,0,0,64,3.83,3.855,3.843,3.845,3.855,3.844,0,,130.3483444,10.6,6,P-GPS,
531400,2022-10-12 10:23:45,45.4389502754969,9.05594765674758,10.8,,,130.5483444,11,0,0.203139,1.26619,18,5,23.049,130.5483444,10.8,0,0.203139,0,0,-1,53.7, -2.2, 1.5,0,0,1024,1024,1310,1024,0,0,43,0,0,0,64,3.825,3.852,3.838,3.841,3.852,3.841,0,,130.5483444,10.8,6,P-GPS,
531500,2022-10-12 10:23:46,45.4389500474215,9.05594753489321,10.9,,,130.6483444,11.1,0,0.225252,1.29328,18,5,23.049,130.6483444,10.9,0,0.225252,0,0,-1,53.7, -2.3, 1.4,0,0,1024,1024,1311,1024,0,0,43,0,0,0,64,3.825,3.852,3.838,3.841,3.852,3.841,0,,130.6483444,10.9,6,P-GPS,
531600,2022-10-12 10:23:46,45.438950045899,9.05594758852537,11,,,130.7483444,11.2,0,0.221992,1.29747,18,5,23.049,130.7483444,11,0,0.225252,0,0,-1,53.8, -2.1, 1.1,0,0,1024,1024,1308,1024,0,0,43,0,0,0,64,3.825,3.852,3.838,3.841,3.852,3.841,0,,130.7483444,11,6,P-GPS,
531700,2022-10-12 10:23:46,45.4389500719917,9.05594768059987,11.1,,,130.8483444,11.3,0,0.214513,1.30522,18,5,23.049,130.8483444,11.1,0,0.225252,0,0,-1,53.8, -1.8, 1,0,0,1024,1024,1304,1024,0,0,42,0,0,0,64,3.825,3.852,3.838,3.841,3.852,3.841,0,,130.8483444,11.1,6,P-GPS,
531800,2022-10-12 10:23:46,45.4389501284028,9.05594775408579,11.2,,,130.9483444,11.4,0,0.206152,1.31372,18,5,23.049,130.9483444,11.2,0,0.225252,0,0,-1,53.8, -1.6, 1,0,0,1024,1024,1305,1024,0,0,43,0,0,0,64,3.825,3.852,3.838,3.841,3.852,3.841,0,,130.9483444,11.2,6,P-GPS,
531900,2022-10-12 10:23:46,45.4389503284494,9.05594793514584,11.3,,,131.0483444,11.5,0,0.181716,1.34007,18,5,23.049,131.0483444,11.3,0,0.225252,0,0,-1,53.8, -1.6, 1,0,0,1024,1024,1305,1024,0,0,43,0,0,0,64,3.825,3.852,3.838,3.841,3.852,3.841,0,,131.0483444,11.3,6,P-GPS,
532000,2022-10-12 10:23:46,45.4389502664875,9.05594796751256,11.4,,,131.1483444,11.6,0,0.183624,1.34741,18,5,23.049,131.1483444,11.4,0,0.225252,0,0,-1,53.8, -1.8, 0.9,0,0,1024,1024,1310,1024,0,0,43,0,0,0,64,3.825,3.852,3.838,3.841,3.852,3.841,0,,131.1483444,11.4,6,P-GPS,
532100,2022-10-12 10:23:46,45.4389501686421,9.05594799496962,11.5,,,131.2483444,11.6,0,0.188608,1.3585,18,5,23.049,131.2483444,11.5,0,0.225252,0,0,-0.9,53.8, -1.9, 0.8,0,0,1024,1024,1308,1024,0,0,43,0,0,0,64,3.825,3.852,3.838,3.841,3.852,3.841,0,,131.2483444,11.5,6,P-GPS,
532200,2022-10-12 10:23:46,45.4389501144422,9.05594800040426,11.6,,,131.3483444,11.6,0,0.192165,1.36454,18,5,23.049,131.3483444,11.6,0,0.225252,0,0,-0.9,53.8, -2, 0.8,0,0,1024,1024,1308,1024,0,0,43,0,0,0,64,3.825,3.852,3.838,3.841,3.852,3.841,0,,131.3483444,11.6,6,P-GPS,
532300,2022-10-12 10:23:46,45.4389499623428,9.05594800822123,11.6,,,131.3483444,11.6,0,0.203191,1.38147,18,5,23.049,131.3483444,11.6,0,0.225252,0,0,-0.9,53.8, -1.9, 0.8,0,0,1024,1024,1308,1024,0,0,43,0,0,0,64,3.825,3.852,3.838,3.841,3.852,3.841,0,,131.3483444,11.6,6,P-GPS,
532400,2022-10-12 10:23:46,45.4389499708037,9.05594813963545,11.7,,,131.4483444,11.6,0,0.195333,1.39176,18,5,23.025,131.4483444,11.7,0,0.225252,0,0,-0.9,53.8, -1.2, 1,0,0,1024,1024,1308,1024,0,0,43,0,0,0,64,3.822,3.847,3.835,3.836,3.848,3.837,0,,131.4483444,11.7,6,P-GPS,
532500,2022-10-12 10:23:47,45.4389499780175,9.05594830637406,11.8,,,131.5483444,11.6,0,0.186002,1.4048,19,5,23.025,131.5483444,11.8,0,0.225252,0,0,-0.9,53.8, -0.9, 1.1,0,0,1024,1024,1302,1024,0,0,42,0,0,0,64,3.822,3.847,3.835,3.836,3.848,3.837,0,,131.5483444,11.8,6,P-GPS,
532600,2022-10-12 10:23:47,45.4389499819955,9.0559483338647,11.9,,,131.6483444,11.6,0,0.18427,1.40699,19,5,23.025,131.6483444,11.9,0,0.225252,0,0,-1,53.8, -0.9, 1,0,0,1024,1024,1306,1024,0,0,43,0,0,0,64,3.822,3.847,3.835,3.836,3.848,3.837,0,,131.6483444,11.9,6,P-GPS,
532700,2022-10-12 10:23:47,45.4389499738211,9.05594830319202,12,,,131.7483444,11.6,0,0.186517,1.40955,19,5,23.025,131.7483444,12,0,0.225252,0,0,-1,53.8, -1.3, 0.7,0,0,1024,1024,1310,1024,0,0,43,0,0,0,64,3.822,3.847,3.835,3.836,3.848,3.837,0,,131.7483444,12,6,P-GPS,
532800,2022-10-12 10:23:47,45.4389499621393,9.05594819555837,12.1,,,131.8483444,11.6,0,0.193064,1.41805,19,5,23.025,131.8483444,12.1,0,0.225252,0,0,-0.9,53.8, -1.8, 0.4,0,0,1024,1024,1312,1024,0,0,44,0,0,0,64,3.822,3.847,3.835,3.836,3.848,3.837,0,,131.8483444,12.1,6,P-GPS,
532900,2022-10-12 10:23:47,45.4389498929796,9.05594810074137,12.2,,,131.9483444,11.6,0,0.203732,1.42872,19,5,23.025,131.9483444,12.2,0,0.225252,0,0,-0.9,53.8, -2.2, 0.4,0,0,1024,1024,1313,1024,0,0,44,0,0,0,64,3.822,3.847,3.835,3.836,3.848,3.837,0,,131.9483444,12.2,6,P-GPS,
533000,2022-10-12 10:23:47,45.4389498509488,9.05594808718758,12.3,,,132.0483444,11.6,0,0.207907,1.43351,19,5,23.025,132.0483444,12.3,0,0.225252,0,0,-0.9,53.9, -2.2, 0.6,0,0,1024,1024,1317,1024,0,0,44,0,0,0,64,3.822,3.847,3.835,3.836,3.848,3.837,0,,132.0483444,12.3,6,P-GPS,
533100,2022-10-12 10:23:47,45.4389498272848,9.05594811021727,12.4,,,132.1483444,11.6,0,0.208693,1.4367,19,5,23.025,132.1483444,12.4,0,0.225252,0,0,-1,53.9, -2.2, 0.9,0,0,1024,1024,1319,1024,0,0,45,0,0,0,64,3.822,3.847,3.835,3.836,3.848,3.837,0,,132.1483444,12.4,6,P-GPS,
533200,2022-10-12 10:23:47,45.4389497006234,9.0559480927672,12.5,,,132.2483444,11.6,0,0.220374,1.45085,19,5,23.025,132.2483444,12.5,0,0.225252,0,0,-1,53.9, -2.2, 1,0,0,1024,1024,1319,1024,0,0,45,0,0,0,64,3.822,3.847,3.835,3.836,3.848,3.837,0,,132.2483444,12.5,6,P-GPS,
533300,2022-10-12 10:23:47,45.4389496506831,9.05594810168453,12.6,,,132.3483444,11.6,0,0.224299,1.45645,19,5,23.025,132.3483444,12.6,0,0.225252,0,0,-1,53.9, -2.2, 0.8,0,0,1024,1024,1319,1024,0,0,45,0,0,0,64,3.822,3.847,3.835,3.836,3.848,3.837,0,,132.3483444,12.6,6,P-GPS,
533400,2022-10-12 10:23:47,45.4389496376737,9.05594810061775,12.8,,,132.5483444,11.6,0,0.225495,1.4579,19,5,23.025,132.5483444,12.8,0,0.225495,0,0,-1,53.9, -2.1, 0.4,0,0,1024,1024,1320,1024,0,0,45,0,0,0,64,3.822,3.847,3.835,3.836,3.848,3.837,0,,132.5483444,12.8,6,P-GPS,
533500,2022-10-12 10:23:48,45.4389496342885,9.05594810010038,12.9,,,132.6483444,11.6,0,0.225818,1.45827,18,5,23.025,132.6483444,12.9,0,0.225818,0,0,-1,53.9, -2, 0,0,0,1024,1024,1320,1024,0,0,45,0,0,0,64,3.822,3.847,3.835,3.836,3.848,3.837,0,,132.6483444,12.9,6,P-GPS,
533600,2022-10-12 10:23:48,45.4389496383505,9.05594823585956,13,,,132.7483444,11.6,0,0.219154,1.46888,18,5,23.025,132.7483444,13,0,0.225818,0,0,-1,53.9, -1.8, 0,0,0,1024,1024,1322,1024,0,0,45,0,0,0,64,3.822,3.847,3.835,3.836,3.848,3.837,0,,132.7483444,13,6,P-GPS,
533700,2022-10-12 10:23:48,45.4389495960128,9.05594831799879,13.1,,,132.8483444,11.6,0,0.21942,1.47683,18,5,23.025,132.8483444,13.1,0,0.225818,0,0,-1.1,53.9, -1.9, 0,0,0,1024,1024,1321,1024,0,0,45,0,0,0,64,3.822,3.847,3.835,3.836,3.848,3.837,0,,132.8483444,13.1,6,P-GPS,
