time(millisecond),datetime(utc),latitude,longitude,height_above_takeoff(meters),height_above_ground_at_drone_location(meters),ground_elevation_at_drone_location(meters),altitude_above_seaLevel(meters),height_sonar(meters),speed(m/s),distance(meters),mileage(meters),satellites,gpslevel,voltage(v),max_altitude(meters),max_ascent(meters),max_speed(m/s),max_distance(meters), xSpeed(m/s), ySpeed(m/s), zSpeed(m/s), compass_heading(degrees), pitch(degrees), roll(degrees),isPhoto,isVideo,rc_elevator,rc_aileron,rc_throttle,rc_rudder,rc_elevator(percent),rc_aileron(percent),rc_throttle(percent),rc_rudder(percent),gimbal_heading(degrees),gimbal_pitch(degrees),battery_percent,voltageCell1,voltageCell2,voltageCell3,voltageCell4,voltageCell5,voltageCell6,current(A),battery_temperature(c),altitude(meters),ascent(meters),flycStateRaw,flycState,message
204900,2022-10-12 09:38:54,45.4389447009014,9.05591319678022,0,Available with any HD 360 subscription,Available with any HD 360 subscription,119.722023,0.1,0,0,0,15,5,0,119.722023,0,0,0,0,0,0,57.8, -0.3, 0.1,0,0,1024,1024,1024,1024,0,0,0,0,0,0,60,3.938,3.943,3.943,3.946,3.945,3.946,0,,119.722023,0,41,Motors_Started,"GEO: You are in a Warning Zone (Class D Airspace). Fly with caution."
205000,2022-10-12 09:38:54,45.4389446491661,9.05591314944801,0,,,119.722023,0.1,0,0.00683673,0.00683673,15,5,0,119.722023,0,0,0.00683673,0,0,0,57.9, -0.3, 0.2,0,0,1024,1024,1024,1024,0,0,0,0,0,0,60,3.938,3.943,3.943,3.946,3.945,3.946,0,,119.722023,0,41,Motors_Started,
205100,2022-10-12 09:38:54,45.4389446112685,9.05591311626022,0,,,119.722023,0.1,0,0.0117827,0.0117832,15,5,0,119.722023,0,0,0.0117827,0,0,0,57.8, -0.3, 0.2,0,0,364,364,364,1681,-100,-100,-100,100,0,0,60,3.938,3.943,3.943,3.946,3.945,3.946,0,,119.722023,0,41,Motors_Started,
205200,2022-10-12 09:38:54,45.4389446461942,9.05591317607944,0,,,119.722023,0.1,0,0.00629455,0.0178555,15,5,0,119.722023,0,0,0.0117827,0,0,0,57.8, -0.4, 0.2,0,0,1024,1024,1024,1024,0,0,0,0,0,0,60,3.938,3.943,3.943,3.946,3.945,3.946,0,,119.722023,0,41,Motors_Started,"Setting new Return-To-Home altitude to 45m (148 ft). Data Recorder File Index is 159. Setting new Maximum Flight Altitude to 100m (328 ft)"
205300,2022-10-12 09:38:55,45.4389446420986,9.05591318888389,0,,,119.722023,0.1,0,0.010635,0.0189535,15,5,0,119.722023,0,0,0.0117827,0,0,0,57.8, -0.4, 0.2,0,0,1024,1024,1024,1024,0,0,0,0,0,0,60,3.938,3.943,3.943,3.946,3.945,3.946,0,,119.722023,0,41,Motors_Started,
205400,2022-10-12 09:38:55,45.4389446092924,9.05591318508376,0,,,119.722023,0.1,0,0.014251,0.0226138,15,5,23.661,119.722023,0,0,0.014251,0,0,0,57.8, -0.4, 0.2,0,0,1024,1024,1024,1024,0,0,0,0,0,0,60,3.938,3.943,3.943,3.946,3.945,3.946,0,,119.722023,0,41,Motors_Started,
205500,2022-10-12 09:38:55,45.4389445716029,9.05591317972695,0,,,119.722023,0.1,0,0.0184413,0.0268259,15,5,23.661,119.722023,0,0,0.0184413,0,0,0,57.8, -0.4, 0.2,0,0,1024,1024,1024,1024,0,0,0,0,0,0,60,3.938,3.943,3.943,3.946,3.945,3.946,0,,119.722023,0,41,Motors_Started,
205600,2022-10-12 09:38:55,45.438944468842,9.0559132182563,0,,,119.722023,0.1,0,0.0295441,0.0386424,15,5,23.661,119.722023,0,0,0.0295441,0,0,0,57.9, -0.4, 0.2,0,0,1024,1024,1024,1024,0,0,0,0,0,0,60,3.938,3.943,3.943,3.946,3.945,3.946,0,,119.722023,0,41,Motors_Started,
205700,2022-10-12 09:38:55,45.4389444172801,9.05591321601895,0,,,119.722023,0.1,0,0.0352803,0.044379,15,5,23.661,119.722023,0,0,0.0352803,0,0,0,57.9, -0.4, 0.2,0,0,1024,1024,1024,1024,0,0,0,0,0,0,60,3.938,3.943,3.943,3.946,3.945,3.946,0,,119.722023,0,41,Motors_Started,
205800,2022-10-12 09:38:55,45.4389443597598,9.05591321076592,0,,,119.722023,0.1,0,0.0416842,0.0507888,15,5,23.661,119.722023,0,0,0.0416842,0,0,0,57.9, -0.4, 0.2,0,0,1024,1024,1024,1024,0,0,0,0,0,0,60,3.938,3.943,3.943,3.946,3.945,3.946,0,,119.722023,0,41,Motors_Started,
205900,2022-10-12 09:38:55,45.4389443032532,9.05591320547016,0,,,119.722023,0.1,0,0.0479772,0.0570862,15,5,23.661,119.722023,0,0,0.0479772,0,0,0,57.9, -0.4, 0.2,0,0,1024,1024,1024,1024,0,0,0,0,0,0,60,3.938,3.943,3.943,3.946,3.945,3.946,0,,119.722023,0,41,Motors_Started,
206000,2022-10-12 09:38:55,45.4389442463412,9.05591320478644,0,,,119.722023,0.1,0,0.054305,0.0634154,15,5,23.661,119.722023,0,0,0.054305,0,0,0,57.9, -0.4, 0.2,0,0,1024,1024,1024,1024,0,0,0,0,0,0,60,3.938,3.943,3.943,3.946,3.945,3.946,0,,119.722023,0,41,Motors_Started,
206100,2022-10-12 09:38:55,45.4389441456817,9.05591322128419,0,,,119.722023,0.1,0,0.0654784,0.0746831,15,5,23.661,119.722023,0,0,0.0654784,0,0,0,57.9, -0.4, 0.2,0,0,1024,1024,1024,1024,0,0,0,0,0,0,60,3.938,3.943,3.943,3.946,3.945,3.946,0,,119.722023,0,41,Motors_Started,
206200,2022-10-12 09:38:55,45.4389441438611,9.05591322288666,0,,,119.722023,0.1,0,0.0656805,0.0749211,15,5,23.661,119.722023,0,0,0.0656805,0,0,0,57.9, -0.4, 0.2,0,0,1024,1024,1024,1024,0,0,0,0,0,0,60,3.938,3.943,3.943,3.946,3.945,3.946,0,,119.722023,0,41,Motors_Started,
206300,2022-10-12 09:38:56,45.4389441342224,9.05591322686687,0,,,119.722023,0.1,0,0.0667527,0.0760371,15,5,23.661,119.722023,0,0,0.0667527,0,0,0,57.9, -0.4, 0.2,0,0,1024,1024,1024,1024,0,0,0,0,0,0,60,3.938,3.943,3.943,3.946,3.945,3.946,0,,119.722023,0,41,Motors_Started,
206400,2022-10-12 09:38:56,45.4389440960468,9.0559132243365,0,,,119.722023,0.1,0,0.0709977,0.080287,15,5,23.642,119.722023,0,0,0.0709977,0,0,0,57.9, -0.4, 0.2,0,0,1024,1024,1098,1024,0,0,11,0,0,0,60,3.933,3.941,3.94,3.943,3.942,3.943,0,,119.722023,0,10,Assisted_Takeoff,
206500,2022-10-12 09:38:56,45.4389441200798,9.05591324462828,0,,,119.722023,0.1,0,0.0683438,0.0833935,15,5,23.642,119.722023,0,0,0.0709977,0,0,0,57.9, -0.4, 0.2,0,0,1024,1024,1152,1024,0,0,19,0,0,0,60,3.933,3.941,3.94,3.943,3.942,3.943,0,,119.722023,0,10,Assisted_Takeoff,
206600,2022-10-12 09:38:56,45.4389440620412,9.05591324311433,0,,,119.722023,0.1,0,0.074794,0.0898488,15,5,23.642,119.722023,0,0,0.074794,0,0,0,57.9, -0.4, 0.2,0,0,1024,1024,1166,1024,0,0,22,0,0,0,60,3.933,3.941,3.94,3.943,3.942,3.943,0,,119.722023,0,10,Assisted_Takeoff,
206700,2022-10-12 09:38:56,45.4389440066847,9.05591325988374,0,,,119.722023,0.1,0,0.0809834,0.0961423,15,5,23.642,119.722023,0,0,0.0809834,0,0,0,57.9, -0.4, 0.2,0,0,1024,1024,1155,1024,0,0,20,0,0,0,60,3.933,3.941,3.94,3.943,3.942,3.943,0,,119.722023,0,10,Assisted_Takeoff,
206800,2022-10-12 09:38:56,45.4389439400512,9.05591332329248,0,,,119.722023,0.1,0,0.0886836,0.105052,15,5,23.642,119.722023,0,0,0.0886836,0,0,0,57.9, -0.4, 0.2,0,0,1024,1024,1164,1024,0,0,21,0,0,0,60,3.933,3.941,3.94,3.943,3.942,3.943,0,,119.722023,0,10,Assisted_Takeoff,
206900,2022-10-12 09:38:56,45.4389438318496,9.05591345911123,0,,,119.722023,0.1,0,0.102039,0.121087,15,5,23.642,119.722023,0,0,0.102039,0,0,0,57.9, -0.4, 0.2,0,0,1024,1024,1193,1024,0,0,26,0,0,0,60,3.933,3.941,3.94,3.943,3.942,3.943,0,,119.722023,0,10,Assisted_Takeoff,
207000,2022-10-12 09:38:56,45.4389438198981,9.05591344484473,0,,,119.722023,0.1,0,0.103155,0.12282,15,5,23.642,119.722023,0,0,0.103155,0,0,0,57.9, -0.4, 0.2,0,0,1024,1024,1203,1024,0,0,27,0,0,0,60,3.933,3.941,3.94,3.943,3.942,3.943,0,,119.722023,0,10,Assisted_Takeoff,
207100,2022-10-12 09:38:56,45.4389438076664,9.05591345420617,0,,,119.722023,0.1,0,0.104619,0.124364,15,5,23.642,119.722023,0,0,0.104619,0,0,0,57.9, -0.5, 0.2,0,0,1024,1024,1202,1024,0,0,27,0,0,0,60,3.933,3.941,3.94,3.943,3.942,3.943,0,,119.722023,0,10,Assisted_Takeoff,
207200,2022-10-12 09:38:56,45.4389437748671,9.05591352695499,0,,,119.722023,0.1,0,0.1093,0.131112,15,5,23.642,119.722023,0,0,0.1093,0,0,0,57.9, -0.5, 0.2,0,0,1024,1024,1197,1024,0,0,26,0,0,0,60,3.933,3.941,3.94,3.943,3.942,3.943,0,,119.722023,0,10,Assisted_Takeoff,
207300,2022-10-12 09:38:57,45.4389438806529,9.05591354340085,0,,,119.722023,0.1,0,0.0981648,0.142946,15,5,23.642,119.722023,0,0,0.1093,0,0,0,58, -0.7, 0.3,0,0,1024,1024,1195,1024,0,0,26,0,0,0,60,3.933,3.941,3.94,3.943,3.942,3.943,0,,119.722023,0,10,Assisted_Takeoff,
207400,2022-10-12 09:38:57,45.438943891802,9.05591359375485,0,,,119.722023,0.1,0,0.0980491,0.147066,15,5,23.646,119.722023,0,0,0.1093,0,0,0,58.1, -1.2, 0.5,0,0,1024,1024,1190,1024,0,0,25,0,0,0,60,3.937,3.941,3.94,3.943,3.942,3.943,0,,119.722023,0,10,Assisted_Takeoff,
207500,2022-10-12 09:38:57,45.438943900802,9.05591365933989,0,,,119.722023,0.1,0,0.0987342,0.15228,15,5,23.646,119.722023,0,0,0.1093,0,0,-0.1,58.2, -2.3, 0.8,0,0,1024,1024,1178,1024,0,0,23,0,0,0,60,3.937,3.941,3.94,3.943,3.942,3.943,0,,119.722023,0,10,Assisted_Takeoff,
207600,2022-10-12 09:38:57,45.4389438925841,9.05591376705906,0,,,119.722023,0.2,0.1,0.102763,0.160735,15,5,23.646,119.722023,0,0.1,0.1093,0,0.1,-0.2,58.4, -3.1, 1,0,0,1024,1024,1184,1024,0,0,24,0,0,0,60,3.937,3.941,3.94,3.943,3.942,3.943,0,,119.722023,0,6,P-GPS,
207700,2022-10-12 09:38:57,45.438943909649,9.05591394679144,0,,,119.722023,0.2,0.1,0.107673,0.174887,15,5,23.646,119.722023,0,0.1,0.1093,0,0.1,-0.4,58.5, -2.2, 0.5,0,0,1024,1024,1161,1024,0,0,21,0,0,0,60,3.937,3.941,3.94,3.943,3.942,3.943,0,,119.722023,0,6,P-GPS,
207800,2022-10-12 09:38:57,45.438943977345,9.05591409320172,0.1,,,119.822023,0.2,0.2,0.108111,0.188569,15,5,23.646,119.822023,0.1,0.2,0.1093,0,0.2,-0.5,58.5, -0.1, 0,0,0,1024,1024,1101,1024,0,0,12,0,0,0,60,3.937,3.941,3.94,3.943,3.942,3.943,0,,119.822023,0.1,6,P-GPS,
207900,2022-10-12 09:38:57,45.4389440444796,9.05591435030106,0.1,,,119.822023,0.3,0.22,0.116662,0.209975,15,5,23.646,119.822023,0.1,0.22,0.116662,0.1,0.2,-0.5,58.5, 1.4, -0.4,0,0,1024,1024,1066,1024,0,0,6,0,0,0,60,3.937,3.941,3.94,3.943,3.942,3.943,0,,119.822023,0.1,6,P-GPS,
208000,2022-10-12 09:38:57,45.4389440862798,9.05591460632294,0.2,,,119.922023,0.4,0.14,0.129724,0.230486,15,5,23.646,119.922023,0.2,0.22,0.129724,0.1,0.1,-0.5,58.5, 2.3, -0.3,0,0,1024,1024,1056,1024,0,0,5,0,0,0,60,3.937,3.941,3.94,3.943,3.942,3.943,0,,119.922023,0.2,6,P-GPS,
208100,2022-10-12 09:38:57,45.4389441355707,9.05591479803565,0.2,,,119.922023,0.4,0.1,0.139709,0.246418,15,5,23.646,119.922023,0.2,0.22,0.139709,0,0.1,-0.4,58.5, 2.6, 0,0,0,1024,1024,1056,1024,0,0,5,0,0,0,60,3.937,3.941,3.94,3.943,3.942,3.943,0,,119.922023,0.2,6,P-GPS,
208200,2022-10-12 09:38:58,45.4389442369845,9.05591487066848,0.2,,,119.922023,0.4,0,0.139885,0.25904,15,5,23.646,119.922023,0.2,0.22,0.139885,0,0,-0.2,58.4, 2.5, 0.2,0,0,1024,1024,1062,1024,0,0,6,0,0,0,60,3.937,3.941,3.94,3.943,3.942,3.943,0,,119.922023,0.2,6,P-GPS,
208300,2022-10-12 09:38:58,45.438944288147,9.05591495634689,0.3,,,120.022023,0.5,0,0.143991,0.267818,15,5,23.646,120.022023,0.3,0.22,0.143991,0,0,-0.1,58.4, 2.1, 0.5,0,0,1024,1024,1067,1024,0,0,7,0,0,0,60,3.937,3.941,3.94,3.943,3.942,3.943,0,,120.022023,0.3,6,P-GPS,
208400,2022-10-12 09:38:58,45.4389442727097,9.05591503775513,0.3,,,120.022023,0.5,0,0.150546,0.274398,15,5,22.912,120.022023,0.3,0.22,0.150546,0,0,0,58.4, 1.5, 0.5,0,0,1024,1024,1067,1024,0,0,7,0,0,0,60,3.807,3.826,3.813,3.821,3.825,3.82,0,,120.022023,0.3,6,P-GPS,
208500,2022-10-12 09:38:58,45.4389442426617,9.05591507350992,0.3,,,120.022023,0.5,0,0.154324,0.278752,15,5,22.912,120.022023,0.3,0.22,0.154324,0,0,0,58.4, 1.2, 0.5,0,0,1024,1024,1031,1024,0,0,1,0,0,0,60,3.807,3.826,3.813,3.821,3.825,3.82,0,,120.022023,0.3,6,P-GPS,
208600,2022-10-12 09:38:58,45.438944102392,9.05591481102324,0.3,,,120.022023,0.5,0,0.142386,0.304497,15,5,22.912,120.022023,0.3,0.22,0.154324,0,0,0,58.4, 0.9, 0.2,0,0,1024,1024,1024,1024,0,0,0,0,0,0,60,3.807,3.826,3.813,3.821,3.825,3.82,0,,120.022023,0.3,6,P-GPS,
208700,2022-10-12 09:38:58,45.438944049297,9.05591471982014,0.3,,,120.022023,0.5,0,0.13938,0.313744,15,5,22.912,120.022023,0.3,0.22,0.154324,0,0,0,58.4, 0.5, -0.1,0,0,1024,1024,1024,1024,0,0,0,0,0,0,60,3.807,3.826,3.813,3.821,3.825,3.82,0,,120.022023,0.3,6,P-GPS,
208800,2022-10-12 09:38:58,45.4389440082341,9.05591465157653,0.3,,,120.022023,0.5,0,0.137583,0.320759,15,5,22.912,120.022023,0.3,0.22,0.154324,0,0,0,58.4, 0.2, -0.3,0,0,1024,1024,1024,1024,0,0,0,0,0,0,60,3.807,3.826,3.813,3.821,3.825,3.82,0,,120.022023,0.3,6,P-GPS,
208900,2022-10-12 09:38:58,45.4389439702283,9.05591460219621,0.3,,,120.022023,0.5,0,0.137062,0.326478,15,5,22.912,120.022023,0.3,0.22,0.154324,0,0,0,58.4, 0.3, -0.6,0,0,1024,1024,1024,1024,0,0,0,0,0,0,60,3.807,3.826,3.813,3.821,3.825,3.82,0,,120.022023,0.3,6,P-GPS,
209000,2022-10-12 09:38:58,45.4389439444647,9.05591464857,0.3,,,120.022023,0.5,0,0.141678,0.331094,15,5,22.912,120.022023,0.3,0.22,0.154324,0,0,0,58.4, 0.2, -0.6,0,0,1024,1024,1024,1024,0,0,0,0,0,0,60,3.807,3.826,3.813,3.821,3.825,3.82,0,,120.022023,0.3,6,P-GPS,
209100,2022-10-12 09:38:58,45.4389439290348,9.05591464385113,0.3,,,120.022023,0.5,0,0.142462,0.332849,15,5,22.912,120.022023,0.3,0.22,0.154324,0,0,0,58.5, 0.3, -0.7,0,0,1024,1024,1024,1024,0,0,0,0,0,0,60,3.807,3.826,3.813,3.821,3.825,3.82,0,,120.022023,0.3,6,P-GPS,
209200,2022-10-12 09:38:59,45.4389439551334,9.05591460241598,0.3,,,120.022023,0.5,0,0.138123,0.337193,15,5,22.912,120.022023,0.3,0.22,0.154324,0,0,0,58.4, 0.3, -0.6,0,0,1024,1024,1024,1024,0,0,0,0,0,0,60,3.807,3.826,3.813,3.821,3.825,3.82,0,,120.022023,0.3,6,P-GPS,
209300,2022-10-12 09:38:59,45.4389439978935,9.05591453556118,0.3,,,120.022023,0.5,0,0.131078,0.344252,15,5,22.912,120.022023,0.3,0.22,0.154324,0,0,0,58.4, 0.2, 0.2,0,0,1024,1024,1024,1024,0,0,0,0,0,0,60,3.807,3.826,3.813,3.821,3.825,3.82,0,,120.022023,0.3,6,P-GPS,
209400,2022-10-12 09:38:59,45.4389440280185,9.05591441961908,0.3,,,120.022023,0.5,0,0.121959,0.353899,15,5,23.059,120.022023,0.3,0.22,0.154324,0,0,0,58.4, 0.1, 1,0,0,1024,1024,1024,1024,0,0,0,0,0,0,60,3.833,3.846,3.84,3.846,3.848,3.846,0,,120.022023,0.3,6,P-GPS,
209500,2022-10-12 09:38:59,45.4389440812768,9.05591429427281,0.3,,,120.022023,0.5,0,0.110677,0.365334,15,5,23.059,120.022023,0.3,0.22,0.154324,0,0,0,58.4, 0.2, 1.3,0,0,1024,1024,1024,1024,0,0,0,0,0,0,60,3.833,3.846,3.84,3.846,3.848,3.846,0,,120.022023,0.3,6,P-GPS,
209600,2022-10-12 09:38:59,45.438944114186,9.05591427485095,0.3,,,120.022023,0.5,0,0.107146,0.369295,15,5,23.059,120.022023,0.3,0.22,0.154324,0,0,0,58.4, 0.2, 1.3,0,0,1024,1024,1063,1024,0,0,6,0,0,0,60,3.833,3.846,3.84,3.846,3.848,3.846,0,,120.022023,0.3,6,P-GPS,
209700,2022-10-12 09:38:59,45.4389441277672,9.05591425645161,0.3,,,120.022023,0.5,0,0.105076,0.371379,15,5,23.059,120.022023,0.3,0.22,0.154324,0,0,0,58.4, 0.1, 1.2,0,0,1024,1024,1661,997,0,0,97,-4,0,0,60,3.833,3.846,3.84,3.846,3.848,3.846,0,,120.022023,0.3,6,P-GPS,
209800,2022-10-12 09:38:59,45.4389441171656,9.05591421200993,0.3,,,120.022023,0.5,0,0.103222,0.375041,15,5,23.059,120.022023,0.3,0.22,0.154324,0,0,0,58.4, 0.1, 0.9,0,0,1024,1024,1684,1024,0,0,100,0,0,0,60,3.833,3.846,3.84,3.846,3.848,3.846,0,,120.022023,0.3,6,P-GPS,
209900,2022-10-12 09:38:59,45.4389441132834,9.05591418578752,0.3,,,120.022023,0.5,0,0.101995,0.377132,15,5,23.059,120.022023,0.3,0.22,0.154324,0,0,-0.1,58.4, 0, 0.5,0,0,1024,1024,1684,1003,0,0,100,-3,0,0,60,3.833,3.846,3.84,3.846,3.848,3.846,0,,120.022023,0.3,6,P-GPS,
210000,2022-10-12 09:38:59,45.4389441184753,9.05591420917128,0.3,,,120.022023,0.5,0,0.10296,0.379046,15,5,23.059,120.022023,0.3,0.22,0.154324,0,0,-0.5,58.5, -0.2, 0,0,0,1024,1024,1684,952,0,0,100,-11,0,0,60,3.833,3.846,3.84,3.846,3.848,3.846,0,,120.022023,0.3,6,P-GPS,
210100,2022-10-12 09:38:59,45.4389441266603,9.05591424078103,0.4,,,120.122023,0.6,0,0.104221,0.381675,15,5,23.059,120.122023,0.4,0.22,0.154324,0,0,-0.8,58.5, -0.2, -0.4,0,0,1024,1024,1684,927,0,0,100,-15,0,0,60,3.833,3.846,3.84,3.846,3.848,3.846,0,,120.122023,0.4,6,P-GPS,
210200,2022-10-12 09:38:59,45.4389441368311,9.05591426334983,0.5,,,120.222023,0.7,0,0.104847,0.383768,15,5,23.059,120.222023,0.5,0.22,0.154324,0,0,-1.2,58.5, -0.1, 0,0,0,1024,1024,1684,965,0,0,100,-9,0,0,60,3.833,3.846,3.84,3.846,3.848,3.846,0,,120.222023,0.5,6,P-GPS,
210300,2022-10-12 09:39:00,45.4389441910828,9.05591429387906,0.7,,,120.422023,0.9,0,0.103051,0.390255,15,5,23.059,120.422023,0.7,0.22,0.154324,0,0,-1.6,58.5, 0, 0.6,0,0,1024,1024,1684,970,0,0,100,-8,0,0,60,3.833,3.846,3.84,3.846,3.848,3.846,0,,120.422023,0.7,6,P-GPS,
210400,2022-10-12 09:39:00,45.4389442924856,9.05591429210262,0.8,,,120.522023,1.1,0,0.0967501,0.401532,15,5,23.059,120.522023,0.8,0.22,0.154324,0,0,-2,58.4, 0, 1.2,0,0,1024,1024,1684,958,0,0,100,-10,0,0,60,3.833,3.846,3.84,3.846,3.848,3.846,0,,120.522023,0.8,6,P-GPS,
210500,2022-10-12 09:39:00,45.4389443644127,9.0559143108255,1,,,120.722023,1.3,0,0.0942543,0.409663,15,5,22.987,120.722023,1,0.22,0.154324,0,0,-2.4,58.3, 0.2, 1.4,0,0,1024,1024,1684,969,0,0,100,-8,0,0,60,3.818,3.836,3.826,3.836,3.838,3.833,0,,120.722023,1,6,P-GPS,
210600,2022-10-12 09:39:00,45.4389443493484,9.05591433520127,1.3,,,121.022023,1.5,0,0.0966993,0.412198,15,5,22.987,121.022023,1.3,0.22,0.154324,0,0,-2.8,58.2, 0.7, 1.1,0,0,1024,1024,1684,966,0,0,100,-9,0,0,60,3.818,3.836,3.826,3.836,3.838,3.833,0,,121.022023,1.3,6,P-GPS,
210700,2022-10-12 09:39:00,45.4389443446259,9.05591437853801,1.6,,,121.322023,1.8,0,0.0999689,0.41562,15,5,22.987,121.322023,1.6,0.22,0.154324,0,0,-3.2,57.9, 1.2, 0.7,0,0,1024,1024,1684,1001,0,0,100,-3,0,0,60,3.818,3.836,3.826,3.836,3.838,3.833,0,,121.322023,1.6,6,P-GPS,
210800,2022-10-12 09:39:00,45.4389443287396,9.05591452029961,1.9,,,121.622023,2.2,0,0.110749,0.426822,15,5,22.987,121.622023,1.9,0.22,0.154324,0,0,-3.7,57.8, 1.3, 0.2,0,0,1024,1024,1684,1017,0,0,100,-1,0,0,60,3.818,3.836,3.826,3.836,3.838,3.833,0,,121.622023,1.9,6,P-GPS,
210900,2022-10-12 09:39:00,45.4389442870384,9.05591460887773,2.3,,,122.022023,2.6,0,0.118959,0.435145,15,5,22.987,122.022023,2.3,0.22,0.154324,0,0,-4,57.8, 0.8, -0.9,0,0,1024,1024,1684,918,0,0,100,-16,0,0,60,3.818,3.836,3.826,3.836,3.838,3.833,0,,122.022023,2.3,6,P-GPS,
211000,2022-10-12 09:39:00,45.4389442187488,9.05591456647805,2.7,,,122.422023,3,0,0.119418,0.443429,15,5,22.987,122.422023,2.7,0.22,0.154324,0,0,-4.4,57.8, 0.4, -2,0,0,1024,1024,1684,942,0,0,100,-12,0,0,60,3.818,3.836,3.826,3.836,3.838,3.833,0,,122.422023,2.7,6,P-GPS,
211100,2022-10-12 09:39:00,45.4389441986774,9.05591448211518,3.2,,,122.922023,3.5,0,0.11483,0.45038,15,5,22.987,122.922023,3.2,0.22,0.154324,0,0,-4.6,57.7, 0.5, -1.8,0,0,1024,1024,1684,946,0,0,100,-12,0,0,60,3.818,3.836,3.826,3.836,3.838,3.833,0,,122.922023,3.2,6,P-GPS,
211200,2022-10-12 09:39:00,45.4389441499776,9.05591419783194,3.7,,,123.422023,3.9,0.1,0.0999887,0.473214,15,5,22.987,123.422023,3.7,0.22,0.154324,0,-0.1,-4.8,57.6, 0.5, -0.4,0,0,1024,1024,1684,928,0,0,100,-15,0,0,60,3.818,3.836,3.826,3.836,3.838,3.833,0,,123.422023,3.7,6,P-GPS,
211300,2022-10-12 09:39:01,45.4389442064137,9.05591402940533,4.2,,,123.922023,4.4,0.1,0.0860053,0.487778,15,5,22.987,123.922023,4.2,0.22,0.154324,0,-0.1,-4.9,57.5, 0.3, 1.3,0,0,1024,1024,1684,935,0,0,100,-13,0,0,60,3.818,3.836,3.826,3.836,3.838,3.833,0,,123.922023,4.2,6,P-GPS,
211400,2022-10-12 09:39:01,45.4389442605705,9.05591383316299,4.7,,,124.422023,4.9,0.1,0.0709643,0.504232,15,5,22.987,124.422023,4.7,0.22,0.154324,0,-0.1,-4.9,57.2, 0, 2.6,0,0,1024,1024,1684,934,0,0,100,-14,0,0,60,3.818,3.836,3.826,3.836,3.838,3.833,0,,124.422023,4.7,6,P-GPS,
211500,2022-10-12 09:39:01,45.4389443003819,9.05591367627107,5.2,,,124.922023,5.4,0,0.0597927,0.51725,15,5,22.987,124.922023,5.2,0.22,0.154324,0,0,-5,57, -0.2, 2.8,0,0,1024,1024,1684,935,0,0,100,-13,0,0,60,3.818,3.836,3.826,3.836,3.838,3.833,0,,124.922023,5.2,6,P-GPS,
211600,2022-10-12 09:39:01,45.438944377264,9.05591344862349,5.7,,,125.422023,5.9,0,0.0434156,0.536964,15,5,22.27,125.422023,5.7,0.22,0.154324,0,0,-5,56.9, -0.3, 2.4,0,0,1024,1024,1684,954,0,0,100,-11,0,0,60,3.692,3.721,3.703,3.718,3.724,3.712,0,,125.422023,5.7,6,P-GPS,
211700,2022-10-12 09:39:01,45.4389443970028,9.05591337489488,6.2,,,125.922023,6.4,0,0.0393303,0.543122,15,5,22.27,125.922023,6.2,0.22,0.154324,0,0,-5,56.7, -0.5, 1.6,0,0,1024,1024,1684,965,0,0,100,-9,0,0,60,3.692,3.721,3.703,3.718,3.724,3.712,0,,125.922023,6.2,6,P-GPS,
211800,2022-10-12 09:39:01,45.4389444061489,9.05591335529598,6.7,,,126.422023,6.9,0,0.03792,0.544958,15,5,22.27,126.422023,6.7,0.22,0.154324,0,0,-5,56.5, -0.5, 1,0,0,1024,1024,1684,965,0,0,100,-9,0,0,60,3.692,3.721,3.703,3.718,3.724,3.712,0,,126.422023,6.7,6,P-GPS,
211900,2022-10-12 09:39:01,45.43894441308,9.05591335597664,7.2,,,126.922023,7.4,0,0.037193,0.545731,15,5,22.27,126.922023,7.2,0.22,0.154324,0,0,-5,56.4, -0.7, 0.5,0,0,1024,1024,1684,955,0,0,100,-10,0,0,60,3.692,3.721,3.703,3.718,3.724,3.712,0,,126.922023,7.2,6,P-GPS,
212000,2022-10-12 09:39:01,45.4389444273936,9.05591353429275,7.8,,,127.522023,7.9,0,0.0418566,0.559736,15,5,22.27,127.522023,7.8,0.22,0.154324,0,0,-5.1,56.2, -0.4, 0.3,0,0,1024,1024,1684,957,0,0,100,-10,0,0,60,3.692,3.721,3.703,3.718,3.724,3.712,0,,127.522023,7.8,6,P-GPS,
212100,2022-10-12 09:39:01,45.4389444416836,9.05591361677234,8.3,,,128.022023,8.5,0,0.0447092,0.566365,15,5,22.27,128.022023,8.3,0.22,0.154324,0,0,-5.1,56.1, -0.1, 0.1,0,0,1024,1024,1684,970,0,0,100,-8,0,0,60,3.692,3.721,3.703,3.718,3.724,3.712,0,,128.022023,8.3,6,P-GPS,
212200,2022-10-12 09:39:02,45.4389444915372,9.05591376799612,8.8,,,128.522023,9,0,0.0503082,0.579402,15,5,22.27,128.522023,8.8,0.22,0.154324,0,0,-5,56, 0.5, 0.1,0,0,1024,1024,1684,981,0,0,100,-7,0,0,60,3.692,3.721,3.703,3.718,3.724,3.712,0,,128.522023,8.8,6,P-GPS,
212300,2022-10-12 09:39:02,45.438944550344,9.05591391199812,9.3,,,129.022023,9.5,0,0.0574482,0.592403,15,5,22.27,129.022023,9.3,0.22,0.154324,0,0,-5,56, 1, 0,0,0,1024,1024,1684,969,0,0,100,-8,0,0,60,3.692,3.721,3.703,3.718,3.724,3.712,0,,129.022023,9.3,6,P-GPS,
212400,2022-10-12 09:39:02,45.4389446224515,9.05591430022787,9.9,,,129.622023,10,0,0.0848875,0.62374,15,5,22.27,129.622023,9.9,0.22,0.154324,0,0,-5,56.1, 1.4, -0.3,0,0,1024,1024,1684,988,0,0,100,-5,0,0,60,3.692,3.721,3.703,3.718,3.724,3.712,0,,129.622023,9.9,6,P-GPS,
212500,2022-10-12 09:39:02,45.4389446934313,9.05591438648928,10.4,,,130.122023,10.5,0,0.0908141,0.634114,15,5,22.584,130.122023,10.4,0.22,0.154324,0,0,-5,56, 1.6, -0.2,0,0,1024,1024,1684,983,0,0,100,-6,0,0,60,3.748,3.771,3.758,3.77,3.772,3.765,0,,130.122023,10.4,6,P-GPS,
212600,2022-10-12 09:39:02,45.4389448057955,9.05591438186808,10.9,,,130.622023,11,0,0.0906861,0.646615,15,5,22.584,130.622023,10.9,0.22,0.154324,0,0,-5,56, 1.5, 0.9,0,0,1024,1024,1684,992,0,0,100,-5,0,0,60,3.748,3.771,3.758,3.77,3.772,3.765,0,,130.622023,10.9,6,P-GPS,
212700,2022-10-12 09:39:02,45.4389448959075,9.05591433995983,11.4,,,131.122023,11.5,0,0.0889,0.657156,15,5,22.584,131.122023,11.4,0.22,0.154324,0,0,-5,55.9, 0.9, 1.8,0,0,1024,1024,1684,1009,0,0,100,-2,0,0,60,3.748,3.771,3.758,3.77,3.772,3.765,0,,131.122023,11.4,6,P-GPS,
212800,2022-10-12 09:39:02,45.4389449544456,9.05591428989274,11.9,,,131.622023,12,0,0.0866848,0.664748,15,5,22.584,131.622023,11.9,0.22,0.154324,0,0,-5,55.8, 0.4, 2,0,0,1024,1024,1684,1002,0,0,100,-3,0,0,60,3.748,3.771,3.758,3.77,3.772,3.765,0,,131.622023,11.9,6,P-GPS,
212900,2022-10-12 09:39:02,45.4389450667191,9.05591424644002,12.4,,,132.122023,12.5,0,0.0879121,0.677685,15,5,22.584,132.122023,12.4,0.22,0.154324,0,0,-5,55.8, 0.1, 1.8,0,0,1024,1024,1684,1015,0,0,100,-1,0,0,60,3.748,3.771,3.758,3.77,3.772,3.765,0,,132.122023,12.4,6,P-GPS,
213000,2022-10-12 09:39:02,45.4389450585622,9.05591419285667,12.9,,,132.622023,13,0,0.0837421,0.681964,15,5,22.584,132.622023,12.9,0.22,0.154324,0,0,-5,55.8, 0, 1.2,0,0,1024,1024,1684,1024,0,0,100,0,0,0,60,3.748,3.771,3.758,3.77,3.772,3.765,0,,132.622023,12.9,6,P-GPS,
213100,2022-10-12 09:39:02,45.4389450430965,9.05591413031784,13.4,,,133.122023,13.5,0,0.078599,0.687138,15,5,22.584,133.122023,13.4,0.22,0.154324,0,0,-5,55.8, -0.1, 0.8,0,0,1024,1024,1684,1024,0,0,100,0,0,0,60,3.748,3.771,3.758,3.77,3.772,3.765,0,,133.122023,13.4,6,P-GPS,
213200,2022-10-12 09:39:03,45.4389450246621,9.05591402928629,13.9,,,133.622023,14,0,0.0706297,0.695284,15,5,22.584,133.622023,13.9,0.22,0.154324,0,0,-4.9,55.8, 0, 1,0,0,1024,1024,1684,1024,0,0,100,0,0,0,60,3.748,3.771,3.758,3.77,3.772,3.765,0,,133.622023,13.9,6,P-GPS,
213300,2022-10-12 09:39:03,45.4389449172617,9.05591385012469,14.4,,,134.122023,14.5,0,0.0529072,0.713671,15,5,22.584,134.122023,14.4,0.22,0.154324,0,0,-4.9,55.9, 0.3, 1.4,0,0,1024,1024,1684,1024,0,0,100,0,0,0,60,3.748,3.771,3.758,3.77,3.772,3.765,0,,134.122023,14.4,6,P-GPS,
213400,2022-10-12 09:39:03,45.4389449180283,9.05591381811509,14.9,,,134.622023,15,0,0.0506446,0.71617,15,5,22.584,134.622023,14.9,0.22,0.154324,0,0,-4.9,55.9, 0.6, 1.7,0,0,1024,1024,1684,1024,0,0,100,0,0,0,60,3.748,3.771,3.758,3.77,3.772,3.765,0,,134.622023,14.9,6,P-GPS,
213500,2022-10-12 09:39:03,45.4389448840467,9.0559137606492,15.4,,,135.122023,15.1,0,0.0450481,0.722034,15,5,22.584,135.122023,15.4,0.22,0.154324,0,0,-5,55.8, 0.2, 1.7,0,0,1024,1024,1684,1024,0,0,100,0,0,0,60,3.748,3.771,3.758,3.77,3.772,3.765,0,,135.122023,15.4,6,P-GPS,
213600,2022-10-12 09:39:03,45.4389448059238,9.05591366504772,15.9,,,135.622023,15.1,0.1,0.0353107,0.733485,15,5,22.538,135.622023,15.9,0.22,0.154324,-0.1,0,-5,55.9, -0.6, 1.2,0,0,1024,1024,1684,1024,0,0,100,0,0,0,60,3.743,3.763,3.753,3.76,3.764,3.755,0,,135.622023,15.9,6,P-GPS,
213700,2022-10-12 09:39:03,45.4389447186091,9.0559136303765,16.4,,,136.122023,15.1,0.1,0.031749,0.743565,15,5,22.538,136.122023,16.4,0.22,0.154324,-0.1,0,-5,55.8, -1.1, 0.7,0,0,1024,1024,1684,1024,0,0,100,0,0,0,60,3.743,3.763,3.753,3.76,3.764,3.755,0,,136.122023,16.4,6,P-GPS,
213800,2022-10-12 09:39:03,45.4389446338579,9.05591353949694,16.9,,,136.622023,15.1,0,0.0270332,0.755359,15,5,22.538,136.622023,16.9,0.22,0.154324,0,0,-5,55.8, -1.5, 0.5,0,0,1024,1024,1684,1024,0,0,100,0,0,0,60,3.743,3.763,3.753,3.76,3.764,3.755,0,,136.622023,16.9,6,P-GPS,
213900,2022-10-12 09:39:03,45.4389445626566,9.05591346202619,17.4,,,137.122023,15.1,0,0.0266405,0.765321,15,5,22.538,137.122023,17.4,0.22,0.154324,0,0,-5,55.8, -1.6, 0.5,0,0,1024,1024,1684,1024,0,0,100,0,0,0,60,3.743,3.763,3.753,3.76,3.764,3.755,0,,137.122023,17.4,6,P-GPS,
214000,2022-10-12 09:39:03,45.4389444726269,9.05591336925115,17.9,,,137.622023,15.1,0,0.0312442,0.777676,15,5,22.538,137.622023,17.9,0.22,0.154324,0,0,-5,55.8, -1.4, 0.5,0,0,1024,1024,1684,1024,0,0,100,0,0,0,60,3.743,3.763,3.753,3.76,3.764,3.755,0,,137.622023,17.9,6,P-GPS,
214100,2022-10-12 09:39:03,45.438944386974,9.05591328137507,18.4,,,138.122023,15.1,0,0.0389022,0.789413,15,5,22.538,138.122023,18.4,0.22,0.154324,0,0,-4.9,55.8, -1, 0.6,0,0,1024,1024,1684,1024,0,0,100,0,0,0,60,3.743,3.763,3.753,3.76,3.764,3.755,0,,138.122023,18.4,6,P-GPS,
214200,2022-10-12 09:39:03,45.4389442624009,9.05591317817333,18.9,,,138.622023,15.1,0,0.0526204,0.805436,15,5,22.538,138.622023,18.9,0.22,0.154324,0,0,-4.9,55.7, -0.9, 0.5,0,0,1024,1024,1684,1024,0,0,100,0,0,0,60,3.743,3.763,3.753,3.76,3.764,3.755,0,,138.622023,18.9,6,P-GPS,
214300,2022-10-12 09:39:04,45.4389441549496,9.05591307786212,19.4,,,139.122023,15.1,0,0.0654501,0.819721,15,5,22.538,139.122023,19.4,0.22,0.154324,0,0,-4.9,55.8, -1, 0.1,0,0,1024,1024,1684,1024,0,0,100,0,0,0,60,3.743,3.763,3.753,3.76,3.764,3.755,0,,139.122023,19.4,6,P-GPS,
214400,2022-10-12 09:39:04,45.4389441008287,9.05591301374525,19.9,,,139.622023,15.1,0,0.0723528,0.827548,15,5,22.538,139.622023,19.9,0.22,0.154324,0,0,-4.9,55.8, -1.3, 0.2,0,0,1024,1024,1684,1024,0,0,100,0,0,0,60,3.743,3.763,3.753,3.76,3.764,3.755,0,,139.622023,19.9,6,P-GPS,
214500,2022-10-12 09:39:04,45.4389440719226,9.05591293384791,20.4,,,140.122023,15.1,0,0.0770833,0.834562,15,5,22.538,140.122023,20.4,0.22,0.154324,0,0,-4.9,55.8, -1.8, 0.4,0,0,1024,1024,1684,1024,0,0,100,0,0,0,60,3.743,3.763,3.753,3.76,3.764,3.755,0,,140.122023,20.4,6,P-GPS,
214600,2022-10-12 09:39:04,45.4389441150295,9.05591282295434,20.8,,,140.522023,15.1,0,0.0756655,0.844454,15,5,22.538,140.522023,20.8,0.22,0.154324,0,0,-4.9,55.7, -1.8, 0.9,0,0,1024,1024,1684,1024,0,0,100,0,0,0,60,3.743,3.763,3.753,3.76,3.764,3.755,0,,140.522023,20.8,6,P-GPS,
214700,2022-10-12 09:39:04,45.4389441695323,9.05591270915191,21.3,,,141.022023,15.1,0,0.0745771,0.855205,15,5,22.538,141.022023,21.3,0.22,0.154324,0,0,-5,55.7, -1.6, 1.8,0,0,1024,1024,1684,1024,0,0,100,0,0,0,60,3.743,3.763,3.753,3.76,3.764,3.755,0,,141.022023,21.3,6,P-GPS,
214800,2022-10-12 09:39:04,45.4389442409201,9.05591262426099,21.8,,,141.522023,15.1,0,0.0721352,0.865545,15,5,22.538,141.522023,21.8,0.22,0.154324,0,0,-5,55.7, -1.4, 2.7,0,0,1024,1024,1684,1024,0,0,100,0,0,0,60,3.743,3.763,3.753,3.76,3.764,3.755,0,,141.522023,21.8,6,P-GPS,
214900,2022-10-12 09:39:04,45.4389443080905,9.0559125756285,22.3,,,142.022023,15.1,0,0.0693465,0.873923,15,5,22.538,142.022023,22.3,0.22,0.154324,0,0,-5,55.8, -1.2, 2.9,0,0,1024,1024,1684,1024,0,0,100,0,0,0,60,3.743,3.763,3.753,3.76,3.764,3.755,0,,142.022023,22.3,6,P-GPS,
215000,2022-10-12 09:39:04,45.4389444371639,9.05591270337083,22.8,,,142.522023,15.1,0,0.0523863,0.891398,15,5,22.538,142.522023,22.8,0.22,0.154324,0,0,-5,55.8, -0.7, 2.7,0,0,1024,1024,1684,1024,0,0,100,0,0,0,60,3.743,3.763,3.753,3.76,3.764,3.755,0,,142.522023,22.8,6,P-GPS,
215100,2022-10-12 09:39:04,45.438944493486,9.05591275041613,23.3,,,143.022023,15.1,0,0.0456566,0.898658,15,5,22.538,143.022023,23.3,0.22,0.154324,0,0,-5,55.8, -0.2, 2.5,0,0,1024,1024,1684,1024,0,0,100,0,0,0,60,3.743,3.763,3.753,3.76,3.764,3.755,0,,143.022023,23.3,6,P-GPS,
215200,2022-10-12 09:39:04,45.4389445155201,9.05591276797608,23.8,,,143.522023,15.1,0,0.0431251,0.901466,15,5,22.538,143.522023,23.8,0.22,0.154324,0,0,-4.9,55.8, 0, 2.4,0,0,1024,1024,1684,1024,0,0,100,0,0,0,60,3.743,3.763,3.753,3.76,3.764,3.755,0,,143.522023,23.8,6,P-GPS,
215300,2022-10-12 09:39:05,45.4389445293651,9.05591278183664,24.3,,,144.022023,15.1,0,0.0413684,0.903347,15,5,22.538,144.022023,24.3,0.22,0.154324,0,0,-4.9,55.8, 0, 2.3,0,0,1024,1024,1684,1024,0,0,100,0,0,0,60,3.743,3.763,3.753,3.76,3.764,3.755,0,,144.022023,24.3,6,P-GPS,
215400,2022-10-12 09:39:05,45.4389445039419,9.05591281488402,24.8,,,144.522023,15.1,0,0.0409509,0.907174,15,5,22.538,144.522023,24.8,0.22,0.154324,0,0,-4.9,55.9, 0.1, 2.4,0,0,1024,1024,1684,1024,0,0,100,0,0,0,60,3.743,3.763,3.753,3.76,3.764,3.755,0,,144.522023,24.8,6,P-GPS,
215500,2022-10-12 09:39:05,45.4389445021388,9.05591283133904,25.3,,,145.022023,15.1,0,0.0400867,0.908473,15,5,22.538,145.022023,25.3,0.22,0.154324,0,0,-4.9,55.8, 0.2, 2.3,0,0,1024,1024,1684,1024,0,0,100,0,0,0,60,3.743,3.763,3.753,3.76,3.764,3.755,0,,145.022023,25.3,6,P-GPS,
215600,2022-10-12 09:39:05,45.4389444919545,9.05591288175409,25.8,,,145.522023,15.1,0,0.0379617,0.912567,15,5,22.397,145.522023,25.8,0.22,0.154324,0,0,-4.9,55.8, 0, 2.1,0,0,1024,1024,1684,1024,0,0,100,0,0,0,60,3.717,3.741,3.726,3.738,3.742,3.733,0,,145.522023,25.8,6,P-GPS,
215700,2022-10-12 09:39:05,45.4389444719515,9.05591291499988,26.3,,,146.022023,15.1,0,0.0378702,0.915984,15,5,22.397,146.022023,26.3,0.22,0.154324,0,0,-4.9,55.7, -0.4, 1.5,0,0,1024,1024,1684,1024,0,0,100,0,0,0,60,3.717,3.741,3.726,3.738,3.742,3.733,0,,146.022023,26.3,6,P-GPS,
215900,2022-10-12 09:39:05,45.4389445117266,9.05591290991778,27.3,,,147.022023,15.1,0,0.034853,0.920425,15,5,22.397,147.022023,27.3,0.22,0.154324,0,0,-4.9,55.6, -0.7, 1.6,0,0,1024,1024,1684,1024,0,0,100,0,0,0,60,3.717,3.741,3.726,3.738,3.742,3.733,0,,147.022023,27.3,6,P-GPS,
216000,2022-10-12 09:39:05,45.4389445011275,9.05591286262219,27.8,,,147.522023,15.1,0,0.0383288,0.924299,15,5,22.397,147.522023,27.8,0.22,0.154324,0,0,-4.9,55.6, -0.8, 2.1,0,0,1024,1024,1684,1024,0,0,100,0,0,0,60,3.717,3.741,3.726,3.738,3.742,3.733,0,,147.522023,27.8,6,P-GPS,
216100,2022-10-12 09:39:05,45.4389444858621,9.05591283206244,28.3,,,148.022023,15.1,0,0.0412347,0.927226,15,5,22.397,148.022023,28.3,0.22,0.154324,0,0,-4.9,55.7, -0.6, 2.3,0,0,1024,1024,1684,1024,0,0,100,0,0,0,60,3.717,3.741,3.726,3.738,3.742,3.733,0,,148.022023,28.3,6,P-GPS,
216200,2022-10-12 09:39:05,45.4389444326294,9.05591282383951,28.8,,,148.522023,15.1,0,0.0458514,0.933181,15,5,22.397,148.522023,28.8,0.22,0.154324,0,0,-4.9,55.7, -0.4, 2.1,0,0,1024,1024,1684,1025,0,0,100,0,0,0,60,3.717,3.741,3.726,3.738,3.742,3.733,0,,148.522023,28.8,6,P-GPS,
216300,2022-10-12 09:39:06,45.4389443036176,9.05591276488714,29.3,,,149.022023,15.1,0,0.0598322,0.948247,15,5,22.397,149.022023,29.3,0.22,0.154324,0,0,-4.9,55.8, -0.4, 1.8,0,0,1024,1024,1684,1025,0,0,100,0,0,0,60,3.717,3.741,3.726,3.738,3.742,3.733,0,,149.022023,29.3,6,P-GPS,
216400,2022-10-12 09:39:06,45.4389442901874,9.05591278553909,29.7,,,149.422023,15.1,0,0.0601028,0.950444,15,5,22.397,149.422023,29.7,0.22,0.154324,0,0,-4.9,55.7, -0.6, 1.5,0,0,1024,1024,1684,1024,0,0,100,0,0,0,60,3.717,3.741,3.726,3.738,3.742,3.733,0,,149.422023,29.7,6,P-GPS,
216500,2022-10-12 09:39:06,45.4389442768167,9.05591280017188,30.2,,,149.922023,15.1,0,0.0607012,0.952319,15,5,22.397,149.922023,30.2,0.22,0.154324,0,0,-5,55.8, -0.6, 1.6,0,0,1024,1024,1684,1026,0,0,100,0,0,0,60,3.717,3.741,3.726,3.738,3.742,3.733,0,,149.922023,30.2,6,P-GPS,
216600,2022-10-12 09:39:06,45.4389442684697,9.05591278159856,30.7,,,150.422023,15.1,0,0.0622734,0.95404,15,5,22.342,150.422023,30.7,0.22,0.154324,0,0,-5,55.7, -0.7, 1.9,0,0,1024,1024,1684,1025,0,0,100,0,0,0,60,3.708,3.731,3.716,3.728,3.734,3.725,0,,150.422023,30.7,6,P-GPS,
216700,2022-10-12 09:39:06,45.4389443013191,9.0559127832468,31.2,,,150.922023,15.1,0,0.0591931,0.957695,15,5,22.342,150.922023,31.2,0.22,0.154324,0,0,-5,55.7, -0.8, 2.1,0,0,1024,1024,1684,1025,0,0,100,0,0,0,60,3.708,3.731,3.716,3.728,3.734,3.725,0,,150.922023,31.2,6,P-GPS,
216800,2022-10-12 09:39:06,45.4389442437707,9.05591282180362,31.8,,,151.522023,15.1,0,0.0629555,0.964767,15,5,22.342,151.522023,31.8,0.22,0.154324,0,0,-5,55.8, -0.6, 1.9,0,0,1024,1024,1684,1028,0,0,100,1,0,0,60,3.708,3.731,3.716,3.728,3.734,3.725,0,,151.522023,31.8,6,P-GPS,
216900,2022-10-12 09:39:06,45.4389441967265,9.05591288199522,32.3,,,152.022023,15.1,0,0.0654897,0.971798,15,5,22.342,152.022023,32.3,0.22,0.154324,0,0,-5,55.8, -0.3, 1.5,0,0,1024,1024,1684,1027,0,0,100,0,0,0,60,3.708,3.731,3.716,3.728,3.734,3.725,0,,152.022023,32.3,6,P-GPS,
217000,2022-10-12 09:39:06,45.4389441822045,9.05591298956482,32.8,,,152.522023,15.1,0,0.0640856,0.980345,15,5,22.342,152.522023,32.8,0.22,0.154324,0,0,-5,55.8, -0.1, 1.2,0,0,1024,1024,1684,1034,0,0,100,2,0,0,60,3.708,3.731,3.716,3.728,3.734,3.725,0,,152.522023,32.8,6,P-GPS,
217100,2022-10-12 09:39:06,45.4389441535292,9.05591316299723,33.3,,,153.022023,15.1,0,0.0647811,0.994249,15,5,22.342,153.022023,33.3,0.22,0.154324,0,0,-5,55.9, 0, 1.1,0,0,1024,1024,1684,1040,0,0,100,2,0,0,60,3.708,3.731,3.716,3.728,3.734,3.725,0,,153.022023,33.3,6,P-GPS,
217200,2022-10-12 09:39:07,45.4389441111705,9.05591318364307,33.8,,,153.522023,15.1,0,0.0693878,0.999227,15,5,22.342,153.522023,33.8,0.22,0.154324,0,0,-5,55.9, -0.3, 1.2,0,0,1024,1024,1684,1034,0,0,100,2,0,0,59,3.708,3.731,3.716,3.728,3.734,3.725,0,,153.522023,33.8,6,P-GPS,
217300,2022-10-12 09:39:07,45.4389440779088,9.05591317285009,34.3,,,154.022023,15.1,0,0.0731243,1.00302,15,5,22.342,154.022023,34.3,0.22,0.154324,0,0,-5,55.9, -0.6, 1.4,0,0,1024,1024,1684,1029,0,0,100,1,0,0,59,3.708,3.731,3.716,3.728,3.734,3.725,0,,154.022023,34.3,6,P-GPS,
217400,2022-10-12 09:39:07,45.438944079332,9.05591311625411,34.8,,,154.522023,15.1,0,0.0733411,1.00744,15,5,22.342,154.522023,34.8,0.22,0.154324,0,0,-5,55.9, -0.6, 1.8,0,0,1024,1024,1684,1025,0,0,100,0,0,0,59,3.708,3.731,3.716,3.728,3.734,3.725,0,,154.522023,34.8,6,P-GPS,
217500,2022-10-12 09:39:07,45.4389441510939,9.05591285173765,35.3,,,155.022023,15.1,0,0.0710861,1.02957,15,5,22.342,155.022023,35.3,0.22,0.154324,0,0,-5,55.9, -0.6, 1.8,0,0,1024,1024,1684,1024,0,0,100,0,0,0,59,3.708,3.731,3.716,3.728,3.734,3.725,0,,155.022023,35.3,6,P-GPS,
217600,2022-10-12 09:39:07,45.438944162129,9.0559127738701,35.8,,,155.522023,15.1,0,0.0727016,1.03577,15,5,22.387,155.522023,35.8,0.22,0.154324,0,0,-5,55.9, -0.6, 1.8,0,0,1024,1024,1684,1026,0,0,100,0,0,0,59,3.717,3.74,3.725,3.736,3.739,3.73,0,,155.522023,35.8,6,P-GPS,
217700,2022-10-12 09:39:07,45.4389441736535,9.05591269518758,36.3,,,156.022023,15.1,0,0.0747872,1.04204,15,5,22.387,156.022023,36.3,0.22,0.154324,0,0,-4.9,55.8, -0.6, 2.2,0,0,1024,1024,1684,1024,0,0,100,0,0,0,59,3.717,3.74,3.725,3.736,3.739,3.73,0,,156.022023,36.3,6,P-GPS,
217800,2022-10-12 09:39:07,45.4389441799084,9.05591263237099,36.8,,,156.522023,15.1,0,0.077042,1.04699,15,5,22.387,156.522023,36.8,0.22,0.154324,0,0,-4.9,55.8, -0.9, 2.6,0,0,1024,1024,1684,1024,0,0,100,0,0,0,59,3.717,3.74,3.725,3.736,3.739,3.73,0,,156.522023,36.8,6,P-GPS,
217900,2022-10-12 09:39:07,45.4389441579867,9.05591258432454,37.3,,,157.022023,15.1,0,0.0812551,1.05146,15,5,22.387,157.022023,37.3,0.22,0.154324,0,0,-4.9,55.8, -1.3, 2.5,0,0,1024,1024,1684,1024,0,0,100,0,0,0,59,3.717,3.74,3.725,3.736,3.739,3.73,0,,157.022023,37.3,6,P-GPS,
218000,2022-10-12 09:39:07,45.4389440331225,9.05591264965929,37.8,,,157.522023,15.1,0,0.0899587,1.06625,15,5,22.387,157.522023,37.8,0.22,0.154324,0,0,-4.9,55.8, -1.5, 1.9,0,0,1024,1024,1642,1024,0,0,94,0,0,0,59,3.717,3.74,3.725,3.736,3.739,3.73,0,,157.522023,37.8,6,P-GPS,
218100,2022-10-12 09:39:07,45.4389439605049,9.05591268486771,38.3,,,158.022023,15.1,0,0.0958057,1.07478,15,5,22.387,158.022023,38.3,0.22,0.154324,0,0,-4.9,55.8, -1.3, 1.4,0,0,1024,1024,1552,1024,0,0,80,0,0,0,59,3.717,3.74,3.725,3.736,3.739,3.73,0,,158.022023,38.3,6,P-GPS,
218200,2022-10-12 09:39:08,45.4389439204065,9.05591273822824,38.8,,,158.522023,15.1,0,0.0981487,1.08089,15,5,22.387,158.522023,38.8,0.22,0.154324,0,0,-4.9,55.8, -1, 1.3,0,0,1024,1024,1491,1024,0,0,71,0,0,0,59,3.717,3.74,3.725,3.736,3.739,3.73,0,,158.522023,38.8,6,P-GPS,
218300,2022-10-12 09:39:08,45.4389438994578,9.05591276708786,39.3,,,159.022023,15.1,0,0.0994722,1.08413,15,5,22.387,159.022023,39.3,0.22,0.154324,0,0,-4.6,55.8, -0.6, 1.7,0,0,1024,1024,1423,1024,0,0,60,0,0,0,59,3.717,3.74,3.725,3.736,3.739,3.73,0,,159.022023,39.3,6,P-GPS,
218400,2022-10-12 09:39:08,45.4389439489266,9.05591277575338,39.7,,,159.422023,15.1,0,0.0941038,1.08967,15,5,22.387,159.422023,39.7,0.22,0.154324,0,0,-4.2,55.8, -0.4, 2.5,0,0,1024,1024,1340,1024,0,0,48,0,0,0,59,3.717,3.74,3.725,3.736,3.739,3.73,0,,159.422023,39.7,6,P-GPS,
218500,2022-10-12 09:39:08,45.4389439436012,9.05591273060357,40.1,,,159.822023,15.1,0,0.0960118,1.09324,15,5,22.912,159.822023,40.1,0.22,0.154324,0,0,-3.8,55.8, -0.7, 2.9,0,0,1024,1024,1207,1024,0,0,28,0,0,0,59,3.81,3.821,3.816,3.821,3.824,3.82,0,,159.822023,40.1,6,P-GPS,
218700,2022-10-12 09:39:08,45.4389438682258,9.05591267373898,40.8,,,160.522023,15.1,0,0.105472,1.10272,15,5,22.912,160.522023,40.8,0.22,0.154324,0,0,-2.9,55.7, -1.1, 2.4,0,0,1024,1024,1137,1024,0,0,17,0,0,0,59,3.81,3.821,3.816,3.821,3.824,3.82,0,,160.522023,40.8,6,P-GPS,
218800,2022-10-12 09:39:08,45.4389438851242,9.05591262315606,41.1,,,160.822023,15.1,0,0.105454,1.1071,15,5,22.912,160.822023,41.1,0.22,0.154324,0,0,-2.4,55.7, -1.2, 2.2,0,0,1024,1024,1088,1024,0,0,10,0,0,0,59,3.81,3.821,3.816,3.821,3.824,3.82,0,,160.822023,41.1,6,P-GPS,
218900,2022-10-12 09:39:08,45.4389438723556,9.05591259486417,41.3,,,161.022023,15.1,0,0.107716,1.10972,15,5,22.912,161.022023,41.3,0.22,0.154324,0,0,-2,55.7, -1.3, 2.2,0,0,1024,1024,1024,1024,0,0,0,0,0,0,59,3.81,3.821,3.816,3.821,3.824,3.82,0,,161.022023,41.3,6,P-GPS,
219000,2022-10-12 09:39:08,45.4389438662998,9.05591258265187,41.5,,,161.222023,15.1,0,0.108751,1.11089,15,5,22.912,161.222023,41.5,0.22,0.154324,0,0,-1.5,55.7, -1.2, 2.2,0,0,1024,1024,1024,1024,0,0,0,0,0,0,59,3.81,3.821,3.816,3.821,3.824,3.82,0,,161.222023,41.5,6,P-GPS,
219100,2022-10-12 09:39:08,45.4389438531835,9.05591256433189,41.6,,,161.322023,15.1,0,0.110705,1.11293,15,5,22.912,161.322023,41.6,0.22,0.154324,0,0,-1,55.7, -1.2, 2.3,0,0,1024,1024,1024,1024,0,0,0,0,0,0,59,3.81,3.821,3.816,3.821,3.824,3.82,0,,161.322023,41.6,6,P-GPS,
219200,2022-10-12 09:39:08,45.4389437958826,9.05591252530197,41.7,,,161.422023,15.1,0,0.117763,1.11999,15,5,22.912,161.422023,41.7,0.22,0.154324,0,0,-0.7,55.7, -1.2, 2.5,0,0,1024,1024,1024,1024,0,0,0,0,0,0,59,3.81,3.821,3.816,3.821,3.824,3.82,0,,161.422023,41.7,6,P-GPS,
219300,2022-10-12 09:39:09,45.4389437600454,9.05591250764434,41.7,,,161.422023,15.1,0,0.121935,1.12421,15,5,22.912,161.422023,41.7,0.22,0.154324,0,0,-0.4,55.7, -1.1, 2.6,0,0,1024,1024,1024,1024,0,0,0,0,0,0,59,3.81,3.821,3.816,3.821,3.824,3.82,0,,161.422023,41.7,6,P-GPS,
219400,2022-10-12 09:39:09,45.4389437563863,9.05591253255121,41.7,,,161.422023,15.1,0,0.121421,1.1262,15,5,22.912,161.422023,41.7,0.22,0.154324,0,0,-0.2,55.7, -0.9, 2.4,0,0,1024,1024,1024,1024,0,0,0,0,0,0,59,3.81,3.821,3.816,3.821,3.824,3.82,0,,161.422023,41.7,6,P-GPS,
219500,2022-10-12 09:39:09,45.438943742148,9.05591257894331,41.8,,,161.522023,15.1,0,0.121294,1.13015,15,5,22.912,161.522023,41.8,0.22,0.154324,0,0,-0.1,55.8, -0.7, 2.1,0,0,1024,1024,1024,1024,0,0,0,0,0,0,59,3.81,3.821,3.816,3.821,3.824,3.82,0,,161.522023,41.8,6,P-GPS,
219600,2022-10-12 09:39:09,45.438943697856,9.05591268401307,41.8,,,161.522023,15.1,0,0.122741,1.13971,15,5,22.912,161.522023,41.8,0.22,0.154324,0,0,0,55.8, -0.4, 1.9,0,0,1024,1024,1024,1024,0,0,0,0,0,0,59,3.81,3.821,3.816,3.821,3.824,3.82,0,,161.522023,41.8,6,P-GPS,
219700,2022-10-12 09:39:09,45.4389436607889,9.05591291405671,41.8,,,161.522023,15.1,0,0.121828,1.15813,15,5,22.676,161.522023,41.8,0.22,0.154324,0,0,0,55.8, -0.2, 1.9,0,0,1024,1024,1024,1024,0,0,0,0,0,0,59,3.768,3.786,3.775,3.783,3.784,3.78,0,,161.522023,41.8,6,P-GPS,
219800,2022-10-12 09:39:09,45.4389435981378,9.05591286852842,41.8,,,161.522023,15.1,0,0.129379,1.16595,15,5,22.676,161.522023,41.8,0.22,0.154324,0,0,0,55.8, 0, 2.2,0,0,1024,1024,1024,1024,0,0,0,0,0,0,59,3.768,3.786,3.775,3.783,3.784,3.78,0,,161.522023,41.8,6,P-GPS,
219900,2022-10-12 09:39:09,45.4389435390688,9.05591281445975,41.8,,,161.522023,15.1,0,0.136726,1.17376,15,5,22.676,161.522023,41.8,0.22,0.154324,0,0,0,55.8, -0.1, 2.4,0,0,1024,1024,1024,1024,0,0,0,0,0,0,59,3.768,3.786,3.775,3.783,3.784,3.78,0,,161.522023,41.8,6,P-GPS,
220000,2022-10-12 09:39:09,45.4389435004715,9.05591277408376,41.8,,,161.522023,15.1,0,0.141651,1.17908,15,5,22.676,161.522023,41.8,0.22,0.154324,0,0,0,55.8, -0.1, 2.2,0,0,1024,1024,1024,1024,0,0,0,0,0,0,59,3.768,3.786,3.775,3.783,3.784,3.78,0,,161.522023,41.8,6,P-GPS,
220100,2022-10-12 09:39:09,45.4389434374576,9.05591254766626,41.8,,,161.522023,15.1,0,0.153592,1.19809,15,5,22.676,161.522023,41.8,0.22,0.154324,0,0,0,55.8, -0.2, 2,0,0,1024,1024,1024,1024,0,0,0,0,0,0,59,3.768,3.786,3.775,3.783,3.784,3.78,0,,161.522023,41.8,6,P-GPS,
220300,2022-10-12 09:39:10,45.4389432463959,9.05591244835927,41.8,,,161.522023,15.1,0,0.176208,1.2207,15,5,22.676,161.522023,41.8,0.22,0.176208,0,0,0,55.8, -0.3, 1.9,0,0,1024,1024,1024,1024,0,0,0,0,0,0,59,3.768,3.786,3.775,3.783,3.784,3.78,0,,161.522023,41.8,6,P-GPS,
220400,2022-10-12 09:39:10,45.4389431330418,9.05591238160214,41.8,,,161.522023,15.1,0,0.189837,1.23434,15,5,22.676,161.522023,41.8,0.22,0.189837,0,0,0,55.7, -0.7, 1.9,0,0,1024,1024,1024,1024,0,0,0,0,0,0,59,3.768,3.786,3.775,3.783,3.784,3.78,0,,161.522023,41.8,6,P-GPS,
220500,2022-10-12 09:39:10,45.4389429901397,9.05591228107117,41.8,,,161.522023,15.1,0,0.20747,1.25206,15,5,22.676,161.522023,41.8,0.22,0.20747,0,0,0,55.7, -1.1, 1.9,0,0,1024,1024,1024,1024,0,0,0,0,0,0,59,3.768,3.786,3.775,3.783,3.784,3.78,0,,161.522023,41.8,6,P-GPS,
220600,2022-10-12 09:39:10,45.4389428910224,9.05591218986196,41.8,,,161.522023,15.1,0,0.220317,1.26518,15,5,22.676,161.522023,41.8,0.22,0.220317,0,0,0,55.8, -1.4, 1.9,0,0,1024,1024,1024,1024,0,0,0,0,0,0,59,3.768,3.786,3.775,3.783,3.784,3.78,0,,161.522023,41.8,6,P-GPS,
220700,2022-10-12 09:39:10,45.4389427991224,9.05591211733596,41.8,,,161.522023,15.1,0,0.231904,1.27687,15,5,22.652,161.522023,41.8,0.22,0.231904,0,0,0,55.8, -1.6, 1.6,0,0,1024,1024,1024,1024,0,0,0,0,0,0,59,3.765,3.781,3.771,3.778,3.782,3.775,0,,161.522023,41.8,6,P-GPS,
220800,2022-10-12 09:39:10,45.4389427391102,9.05591209242909,41.8,,,161.522023,15.1,0,0.238823,1.28382,15,5,22.652,161.522023,41.8,0.22,0.238823,0,0,0,55.8, -1.7, 1.5,0,0,1024,1024,1024,1024,0,0,0,0,0,0,59,3.765,3.781,3.771,3.778,3.782,3.775,0,,161.522023,41.8,6,P-GPS,
221000,2022-10-12 09:39:10,45.4389426892926,9.05591211432028,41.8,,,161.522023,15.1,0,0.243366,1.28962,15,5,22.652,161.522023,41.8,0.22,0.243366,0,0,0,55.9, -1.7, 1.4,0,0,1024,1024,1024,1024,0,0,0,0,0,0,59,3.765,3.781,3.771,3.778,3.782,3.775,0,,161.522023,41.8,6,P-GPS,
221100,2022-10-12 09:39:10,45.4389426314462,9.0559121123668,41.8,,,161.522023,15.1,0,0.249441,1.29605,15,5,22.652,161.522023,41.8,0.22,0.249441,0,0,0,55.9, -1.7, 1.2,0,0,1024,1024,1024,1024,0,0,0,0,0,0,59,3.765,3.781,3.771,3.778,3.782,3.775,0,,161.522023,41.8,6,P-GPS,
221200,2022-10-12 09:39:10,45.4389425806982,9.05591211411577,41.8,,,161.522023,15.1,0,0.254693,1.30169,15,5,22.652,161.522023,41.8,0.22,0.254693,0,0,0,55.9, -1.6, 1.1,0,0,1024,1024,1024,1024,0,0,0,0,0,0,59,3.765,3.781,3.771,3.778,3.782,3.775,0,,161.522023,41.8,6,P-GPS,
221300,2022-10-12 09:39:11,45.4389425483152,9.05591211688727,41.8,,,161.522023,15.1,0,0.25801,1.3053,15,5,22.652,161.522023,41.8,0.22,0.25801,0,0,0,55.9, -1.5, 1.3,0,0,1024,1024,1024,1024,0,0,0,0,0,0,59,3.765,3.781,3.771,3.778,3.782,3.775,0,,161.522023,41.8,6,P-GPS,
221400,2022-10-12 09:39:11,45.4389424793742,9.05591211631649,41.8,,,161.522023,15.1,0,0.265261,1.31297,15,5,22.652,161.522023,41.8,0.22,0.265261,0,0,0,55.9, -1.3, 1.6,0,0,1024,1024,1024,1024,0,0,0,0,0,0,59,3.765,3.781,3.771,3.778,3.782,3.775,0,,161.522023,41.8,6,P-GPS,
221600,2022-10-12 09:39:11,45.4389424971572,9.05591216652398,41.8,,,161.522023,15.1,0,0.262133,1.31736,15,5,22.652,161.522023,41.8,0.22,0.265261,0,0,0,56, -0.9, 1.8,0,0,1024,1024,1024,1024,0,0,0,0,0,0,59,3.765,3.781,3.771,3.778,3.782,3.775,0,,161.522023,41.8,6,P-GPS,
221700,2022-10-12 09:39:11,45.4389425191542,9.05591219145222,41.8,,,161.522023,15.1,0,0.259201,1.32048,15,5,22.652,161.522023,41.8,0.22,0.265261,0,0,0,56, -0.8, 2,0,0,1024,1024,1024,1024,0,0,0,0,0,0,59,3.765,3.781,3.771,3.778,3.782,3.775,0,,161.522023,41.8,6,P-GPS,
221800,2022-10-12 09:39:11,45.438942540805,9.05591222345877,41.8,,,161.522023,15.1,0,0.256141,1.32395,15,5,22.652,161.522023,41.8,0.22,0.265261,0,0,0,56, -0.6, 2.1,0,0,1024,1024,1024,1024,0,0,0,0,0,0,59,3.765,3.781,3.771,3.778,3.782,3.775,0,,161.522023,41.8,6,P-GPS,
221900,2022-10-12 09:39:11,45.4389425441211,9.05591221745487,41.8,,,161.522023,15.1,0,0.255934,1.32455,15,5,22.652,161.522023,41.8,0.22,0.265261,0,0,0,56, -0.8, 2,0,0,1024,1024,1024,1024,0,0,0,0,0,0,59,3.765,3.781,3.771,3.778,3.782,3.775,0,,161.522023,41.8,6,P-GPS,
222000,2022-10-12 09:39:11,45.4389425560472,9.0559121813979,41.8,,,161.522023,15.1,0,0.255553,1.32766,15,5,22.652,161.522023,41.8,0.22,0.265261,0,0,0,56.1, -1.1, 1.9,0,0,1024,1024,1024,1024,0,0,0,0,0,0,59,3.765,3.781,3.771,3.778,3.782,3.775,0,,161.522023,41.8,6,P-GPS,
222200,2022-10-12 09:39:12,45.438942558932,9.05591204160503,41.8,,,161.522023,15.1,0,0.258933,1.33857,15,5,22.652,161.522023,41.8,0.22,0.265261,0,0,0,56, -1.2, 2.1,0,0,1024,1024,1024,1024,0,0,0,0,0,0,59,3.765,3.781,3.771,3.778,3.782,3.775,0,,161.522023,41.8,6,P-GPS,
222300,2022-10-12 09:39:12,45.4389425432059,9.05591198046721,41.8,,,161.522023,15.1,0,0.262295,1.34365,15,5,22.652,161.522023,41.8,0.22,0.265261,0,0,0,56, -1.5, 2.1,0,0,1024,1024,1024,1024,0,0,0,0,0,0,59,3.765,3.781,3.771,3.778,3.782,3.775,0,,161.522023,41.8,6,P-GPS,
222400,2022-10-12 09:39:12,45.4389425185635,9.05591191666777,41.8,,,161.522023,15.1,0,0.266707,1.34934,15,5,22.652,161.522023,41.8,0.22,0.266707,0,0,0,55.9, -1.6, 2.1,0,0,1024,1024,1024,1024,0,0,0,0,0,0,59,3.765,3.781,3.771,3.778,3.782,3.775,0,,161.522023,41.8,6,P-GPS,
222500,2022-10-12 09:39:12,45.4389424818284,9.05591186547744,41.8,,,161.522023,15.1,0,0.272018,1.35505,15,5,22.652,161.522023,41.8,0.22,0.272018,0,0,0,55.8, -1.8, 2,0,0,1024,1024,1024,1024,0,0,0,0,0,0,59,3.765,3.781,3.771,3.778,3.782,3.775,0,,161.522023,41.8,6,P-GPS,
222600,2022-10-12 09:39:12,45.4389423048626,9.05591189605551,41.8,,,161.522023,15.1,0,0.28938,1.37487,15,5,22.652,161.522023,41.8,0.22,0.28938,0,0,0,55.8, -2, 1.9,0,0,1024,1024,1024,1024,0,0,0,0,0,0,59,3.765,3.781,3.771,3.778,3.782,3.775,0,,161.522023,41.8,6,P-GPS,
222700,2022-10-12 09:39:12,45.4389422474268,9.05591186624357,41.8,,,161.522023,15.1,0,0.296176,1.38167,15,5,22.652,161.522023,41.8,0.22,0.296176,0,0,0,55.7, -2.3, 1.8,0,0,1024,1024,1024,1024,0,0,0,0,0,0,59,3.765,3.781,3.771,3.778,3.782,3.775,0,,161.522023,41.8,6,P-GPS,
222800,2022-10-12 09:39:12,45.4389422354339,9.05591181492809,41.8,,,161.522023,15.1,0,0.298872,1.38589,15,5,22.63,161.522023,41.8,0.22,0.298872,0,0,0,55.7, -2.4, 1.7,0,0,1024,1024,1024,1024,0,0,0,0,0,0,59,3.76,3.776,3.766,3.776,3.779,3.773,0,,161.522023,41.8,6,P-GPS,
222900,2022-10-12 09:39:12,45.4389422333932,9.05591178571746,41.8,,,161.522023,15.1,0,0.299929,1.38818,15,5,22.63,161.522023,41.8,0.22,0.299929,0,0,0,55.7, -2.4, 1.7,0,0,1024,1024,1024,1024,0,0,0,0,0,0,59,3.76,3.776,3.766,3.776,3.779,3.773,0,,161.522023,41.8,6,P-GPS,
223000,2022-10-12 09:39:12,45.4389422300197,9.05591180564601,41.8,,,161.522023,15.1,0,0.299699,1.38978,15,5,22.63,161.522023,41.8,0.22,0.299929,0,0,0,55.7, -2.3, 1.8,0,0,1024,1024,1024,1024,0,0,0,0,0,0,59,3.76,3.776,3.766,3.776,3.779,3.773,0,,161.522023,41.8,6,P-GPS,
223100,2022-10-12 09:39:12,45.4389422583237,9.05591189388226,41.8,,,161.522023,15.1,0,0.294278,1.39735,15,5,22.63,161.522023,41.8,0.22,0.299929,0,0,0,55.8, -2, 2.2,0,0,1024,1024,1024,1024,0,0,0,0,0,0,59,3.76,3.776,3.766,3.776,3.779,3.773,0,,161.522023,41.8,6,P-GPS,
223200,2022-10-12 09:39:12,45.4389423155509,9.0559118892519,41.8,,,161.522023,15.1,0,0.288462,1.40373,15,5,22.63,161.522023,41.8,0.22,0.299929,0,0,0,55.8, -1.7, 2.5,0,0,1024,1024,1024,1024,0,0,0,0,0,0,59,3.76,3.776,3.766,3.776,3.779,3.773,0,,161.522023,41.8,6,P-GPS,
223300,2022-10-12 09:39:13,45.4389423754931,9.05591189457208,41.8,,,161.522023,15.1,0,0.282103,1.4104,15,5,22.63,161.522023,41.8,0.22,0.299929,0,0,0,55.8, -1.3, 2.6,0,0,1024,1024,1024,1024,0,0,0,0,0,0,59,3.76,3.776,3.766,3.776,3.779,3.773,0,,161.522023,41.8,6,P-GPS,
223400,2022-10-12 09:39:13,45.4389424646129,9.05591192247938,41.8,,,161.522023,15.1,0,0.272091,1.42055,15,5,22.63,161.522023,41.8,0.22,0.299929,0,0,0,55.9, -1.2, 2.6,0,0,1024,1024,1024,1024,0,0,0,0,0,0,59,3.76,3.776,3.766,3.776,3.779,3.773,0,,161.522023,41.8,6,P-GPS,
223600,2022-10-12 09:39:13,45.4389427444134,9.05591199416599,41.8,,,161.522023,15.1,0,0.241222,1.45217,15,5,22.63,161.522023,41.8,0.22,0.299929,0,0,0,55.9, -1.3, 2.8,0,0,1024,1024,1024,1024,0,0,0,0,0,0,59,3.76,3.776,3.766,3.776,3.779,3.773,0,,161.522023,41.8,6,P-GPS,
223700,2022-10-12 09:39:13,45.438942772453,9.05591202603213,41.8,,,161.522023,15.1,0,0.237374,1.45615,15,5,22.63,161.522023,41.8,0.22,0.299929,0,0,0,55.9, -1.3, 2.5,0,0,1024,1024,1024,1024,0,0,0,0,0,0,59,3.76,3.776,3.766,3.776,3.779,3.773,0,,161.522023,41.8,6,P-GPS,
223800,2022-10-12 09:39:13,45.4389427305969,9.05591208193219,41.8,,,161.522023,15.1,0,0.240006,1.46253,15,5,22.648,161.522023,41.8,0.22,0.299929,0,0,0,55.9, -1.4, 2.4,0,0,1024,1024,1024,1024,0,0,0,0,0,0,59,3.762,3.78,3.77,3.778,3.782,3.776,0,,161.522023,41.8,6,P-GPS,
223900,2022-10-12 09:39:13,45.4389426576485,9.05591220503806,41.8,,,161.522023,15.1,0,0.244262,1.47511,15,5,22.648,161.522023,41.8,0.22,0.299929,0,0,0,55.9, -1.5, 2.4,0,0,1024,1024,1024,1024,0,0,0,0,0,0,59,3.762,3.78,3.77,3.778,3.782,3.776,0,,161.522023,41.8,6,P-GPS,
224000,2022-10-12 09:39:13,45.4389426406174,9.05591221390808,41.8,,,161.522023,15.1,0,0.245831,1.47712,15,5,22.648,161.522023,41.8,0.22,0.299929,0,0,0,56, -1.5, 2.5,0,0,1024,1024,1024,1024,0,0,0,0,0,0,59,3.762,3.78,3.77,3.778,3.782,3.776,0,,161.522023,41.8,6,P-GPS,
224100,2022-10-12 09:39:13,45.4389426283149,9.05591223105903,41.8,,,161.522023,15.1,0,0.246704,1.47904,15,5,22.648,161.522023,41.8,0.22,0.299929,0,0,0,55.9, -1.6, 2.6,0,0,1024,1024,1024,1024,0,0,0,0,0,0,59,3.762,3.78,3.77,3.778,3.782,3.776,0,,161.522023,41.8,6,P-GPS,
224200,2022-10-12 09:39:14,45.4389426340393,9.05591229155892,41.8,,,161.522023,15.1,0,0.244654,1.4838,15,5,22.648,161.522023,41.8,0.22,0.299929,0,0,0,55.9, -1.6, 2.3,0,0,1024,1024,1024,1024,0,0,0,0,0,0,59,3.762,3.78,3.77,3.778,3.782,3.776,0,,161.522023,41.8,6,P-GPS,
224400,2022-10-12 09:39:14,45.438942749849,9.05591248109532,41.8,,,161.522023,15.1,0,0.228191,1.50341,15,5,22.648,161.522023,41.8,0.22,0.299929,0,0,0,55.8, -1.2, 1.9,0,0,1024,1024,1024,1024,0,0,0,0,0,0,59,3.762,3.78,3.77,3.778,3.782,3.776,0,,161.522023,41.8,6,P-GPS,
224500,2022-10-12 09:39:14,45.4389428408582,9.05591257958429,41.8,,,161.522023,15.1,0,0.216505,1.51612,15,5,22.648,161.522023,41.8,0.22,0.299929,0,0,0,55.8, -1.1, 2,0,0,1024,1024,1024,1024,0,0,0,0,0,0,59,3.762,3.78,3.77,3.778,3.782,3.776,0,,161.522023,41.8,6,P-GPS,
224600,2022-10-12 09:39:14,45.4389428482361,9.055912612592,41.8,,,161.522023,15.1,0,0.215121,1.51882,15,5,22.648,161.522023,41.8,0.22,0.299929,0,0,0,55.8, -1.1, 2.2,0,0,1024,1024,1024,1024,0,0,0,0,0,0,59,3.762,3.78,3.77,3.778,3.782,3.776,0,,161.522023,41.8,6,P-GPS,
224700,2022-10-12 09:39:14,45.4389428464957,9.05591263134846,41.8,,,161.522023,15.1,0,0.21499,1.5203,15,5,22.648,161.522023,41.8,0.22,0.299929,0,0,0,55.8, -1.2, 2.3,0,0,1024,1024,1024,1024,0,0,0,0,0,0,59,3.762,3.78,3.77,3.778,3.782,3.776,0,,161.522023,41.8,6,P-GPS,
224800,2022-10-12 09:39:14,45.4389428211962,9.0559126146981,41.8,,,161.522023,15.1,0,0.218018,1.5234,15,5,22.645,161.522023,41.8,0.22,0.299929,0,0,0,55.8, -1.2, 2.3,0,0,1024,1024,1024,1024,0,0,0,0,0,0,59,3.763,3.781,3.768,3.778,3.78,3.775,0,,161.522023,41.8,6,P-GPS,
224900,2022-10-12 09:39:14,45.4389427959337,9.05591264494957,41.8,,,161.522023,15.1,0,0.220264,1.52707,15,5,22.645,161.522023,41.8,0.22,0.299929,0,0,0,55.7, -1.3, 2.3,0,0,1024,1024,1024,1024,0,0,0,0,0,0,59,3.763,3.781,3.768,3.778,3.78,3.775,0,,161.522023,41.8,6,P-GPS,
225000,2022-10-12 09:39:14,45.4389427256102,9.05591266220124,41.7,,,161.422023,15.1,0,0.227661,1.535,15,5,22.645,161.522023,41.8,0.22,0.299929,0,0,0,55.8, -1.2, 2.1,0,0,1024,1024,1024,1024,0,0,0,0,0,0,59,3.763,3.781,3.768,3.778,3.78,3.775,0,,161.422023,41.7,6,P-GPS,
225100,2022-10-12 09:39:14,45.4389426561695,9.05591266111156,41.7,,,161.422023,15.1,0,0.235259,1.54272,15,5,22.645,161.522023,41.8,0.22,0.299929,0,0,0,55.8, -1.5, 1.9,0,0,1024,1024,1024,1024,0,0,0,0,0,0,59,3.763,3.781,3.768,3.778,3.78,3.775,0,,161.422023,41.7,6,P-GPS,
225200,2022-10-12 09:39:14,45.4389425360748,9.05591255390214,41.7,,,161.422023,15.1,0,0.250007,1.55848,15,5,22.645,161.522023,41.8,0.22,0.299929,0,0,0,55.8, -1.6, 1.8,0,0,1024,1024,1024,1024,0,0,0,0,0,0,58,3.763,3.781,3.768,3.778,3.78,3.775,0,,161.422023,41.7,6,P-GPS,
225300,2022-10-12 09:39:15,45.4389425026275,9.05591251852583,41.7,,,161.422023,15.1,0,0.254229,1.56312,15,5,22.645,161.522023,41.8,0.22,0.299929,0,0,0,55.8, -1.6, 2,0,0,1024,1024,1024,1024,0,0,0,0,0,0,58,3.763,3.781,3.768,3.778,3.78,3.775,0,,161.422023,41.7,6,P-GPS,
225400,2022-10-12 09:39:15,45.4389424934869,9.05591252046405,41.7,,,161.422023,15.1,0,0.255189,1.56414,15,5,22.645,161.522023,41.8,0.22,0.299929,0,0,0,55.8, -1.6, 1.9,0,0,1024,1024,1024,1024,0,0,0,0,0,0,58,3.763,3.781,3.768,3.778,3.78,3.775,0,,161.422023,41.7,6,P-GPS,
225500,2022-10-12 09:39:15,45.4389424790294,9.05591252624818,41.7,,,161.422023,15.1,0,0.256663,1.56581,15,5,22.645,161.522023,41.8,0.22,0.299929,0,0,0,55.8, -1.8, 1.9,0,0,1024,1024,1024,1024,0,0,0,0,0,0,58,3.763,3.781,3.768,3.778,3.78,3.775,0,,161.422023,41.7,6,P-GPS,
225600,2022-10-12 09:39:15,45.4389424655886,9.05591264713808,41.7,,,161.422023,15.1,0,0.2563,1.57536,15,5,22.645,161.522023,41.8,0.22,0.299929,0,0,0,55.9, -1.9, 1.9,0,0,1024,1024,1024,1024,0,0,0,0,0,0,58,3.763,3.781,3.768,3.778,3.78,3.775,0,,161.422023,41.7,6,P-GPS,
225700,2022-10-12 09:39:15,45.4389424380449,9.05591265990285,41.7,,,161.422023,15.1,0,0.259145,1.57858,15,5,22.645,161.522023,41.8,0.22,0.299929,0,0,0,55.8, -2, 2.3,0,0,1024,1024,1024,1024,0,0,0,0,0,0,58,3.763,3.781,3.768,3.778,3.78,3.775,0,,161.422023,41.7,6,P-GPS,
225800,2022-10-12 09:39:15,45.4389424155903,9.05591265039184,41.7,,,161.422023,15.1,0,0.261732,1.58119,15,5,22.653,161.522023,41.8,0.22,0.299929,0,0,0,55.8, -2, 2.7,0,0,1024,1024,1024,1024,0,0,0,0,0,0,58,3.763,3.78,3.77,3.78,3.782,3.778,0,,161.422023,41.7,6,P-GPS,
225900,2022-10-12 09:39:15,45.4389424028947,9.05591266483233,41.7,,,161.422023,15.1,0,0.262934,1.583,15,5,22.653,161.522023,41.8,0.22,0.299929,0,0,0,55.7, -2, 2.7,0,0,1024,1024,1024,1024,0,0,0,0,0,0,58,3.763,3.78,3.77,3.78,3.782,3.778,0,,161.422023,41.7,6,P-GPS,
226000,2022-10-12 09:39:15,45.4389424599707,9.05591281072983,41.7,,,161.422023,15.1,0,0.254988,1.59603,15,5,22.653,161.522023,41.8,0.22,0.299929,0,0,0,55.7, -2, 2.2,0,0,1024,1024,1024,1024,0,0,0,0,0,0,58,3.763,3.78,3.77,3.78,3.782,3.778,0,,161.422023,41.7,6,P-GPS,
226100,2022-10-12 09:39:16,45.4389424788421,9.05591289766885,41.7,,,161.422023,15.1,0,0.252131,1.60313,15,5,22.653,161.522023,41.8,0.22,0.299929,0,0,0,55.7, -1.8, 1.6,0,0,1024,1024,1024,1024,0,0,0,0,0,0,58,3.763,3.78,3.77,3.78,3.782,3.778,0,,161.422023,41.7,6,P-GPS,
226300,2022-10-12 09:39:16,45.4389424772576,9.05591306050362,41.7,,,161.422023,15.1,0,0.251341,1.61584,15,5,22.653,161.522023,41.8,0.22,0.299929,0,0,0,55.7, -0.9, 1.7,0,0,1024,1024,1024,1024,0,0,0,0,0,0,58,3.763,3.78,3.77,3.78,3.782,3.778,0,,161.422023,41.7,6,P-GPS,
226400,2022-10-12 09:39:16,45.4389424637835,9.05591320015303,41.7,,,161.422023,15.1,0,0.252522,1.62684,15,5,22.653,161.522023,41.8,0.22,0.299929,0,0,0,55.7, -0.6, 2,0,0,1024,1024,1024,1024,0,0,0,0,0,0,58,3.763,3.78,3.77,3.78,3.782,3.778,0,,161.422023,41.7,6,P-GPS,
226600,2022-10-12 09:39:16,45.4389423448209,9.05591347100915,41.7,,,161.422023,15.1,0,0.266442,1.65177,15,5,22.653,161.522023,41.8,0.22,0.299929,0,0,0,55.7, -0.6, 2,0,0,1024,1024,1024,1024,0,0,0,0,0,0,58,3.763,3.78,3.77,3.78,3.782,3.778,0,,161.422023,41.7,6,P-GPS,
226700,2022-10-12 09:39:16,45.4389423562072,9.05591347797148,41.7,,,161.422023,15.1,0,0.265219,1.65315,15,5,22.627,161.522023,41.8,0.22,0.299929,0,0,0,55.8, -0.8, 2.1,0,0,1024,1024,1024,1024,0,0,0,0,0,0,58,3.76,3.776,3.768,3.776,3.777,3.77,0,,161.422023,41.7,6,P-GPS,
226900,2022-10-12 09:39:16,45.4389423901949,9.05591343081324,41.7,,,161.422023,15.1,0,0.261197,1.65842,15,5,22.627,161.522023,41.8,0.22,0.299929,0,0,0,55.8, -1.2, 2.6,0,0,1024,1024,1024,1024,0,0,0,0,0,0,58,3.76,3.776,3.768,3.776,3.777,3.77,0,,161.422023,41.7,6,P-GPS,
227000,2022-10-12 09:39:16,45.4389423777933,9.0559133579698,41.7,,,161.422023,15.1,0,0.262286,1.66427,15,5,22.627,161.522023,41.8,0.22,0.299929,0,0,0,55.8, -1.6, 2.7,0,0,1024,1024,1024,1024,0,0,0,0,0,0,58,3.76,3.776,3.768,3.776,3.777,3.77,0,,161.422023,41.7,6,P-GPS,
227100,2022-10-12 09:39:17,45.4389423619762,9.05591327353368,41.7,,,161.422023,15.1,0,0.263865,1.67109,15,5,22.627,161.522023,41.8,0.22,0.299929,0,0,0,55.8, -1.8, 2.7,0,0,1024,1024,1024,1024,0,0,0,0,0,0,58,3.76,3.776,3.768,3.776,3.777,3.77,0,,161.422023,41.7,6,P-GPS,
227300,2022-10-12 09:39:17,45.4389422887025,9.05591300709426,41.7,,,161.422023,15.1,0,0.272512,1.69342,15,5,22.627,161.522023,41.8,0.22,0.299929,0,0,0,55.8, -2.1, 2.5,0,0,1024,1024,1024,1024,0,0,0,0,0,0,58,3.76,3.776,3.768,3.776,3.777,3.77,0,,161.422023,41.7,6,P-GPS,
227400,2022-10-12 09:39:17,45.4389422737088,9.05591291194757,41.7,,,161.422023,15.1,0,0.274735,1.70103,15,5,22.627,161.522023,41.8,0.22,0.299929,0,0,0,55.8, -2.2, 2.5,0,0,1024,1024,1024,1024,0,0,0,0,0,0,58,3.76,3.776,3.768,3.776,3.777,3.77,0,,161.422023,41.7,6,P-GPS,
227500,2022-10-12 09:39:17,45.4389422651974,9.05591283006317,41.7,,,161.422023,15.1,0,0.276315,1.70749,15,5,22.627,161.522023,41.8,0.22,0.299929,0,0,0,55.8, -2.3, 2.7,0,0,1024,1024,1024,1024,0,0,0,0,0,0,58,3.76,3.776,3.768,3.776,3.777,3.77,0,,161.422023,41.7,6,P-GPS,
227600,2022-10-12 09:39:17,45.4389422670898,9.05591278263024,41.7,,,161.422023,15.1,0,0.276543,1.7112,15,5,22.627,161.522023,41.8,0.22,0.299929,0,0,0,55.8, -2.3, 2.8,0,0,1024,1024,1024,1024,0,0,0,0,0,0,58,3.76,3.776,3.768,3.776,3.777,3.77,0,,161.422023,41.7,6,P-GPS,
227700,2022-10-12 09:39:17,45.4389422120969,9.05591279408251,41.7,,,161.422023,15.1,0,0.282504,1.71738,15,5,22.627,161.522023,41.8,0.22,0.299929,0,0,0,55.8, -2.2, 2.6,0,0,1024,1024,1024,1024,0,0,0,0,0,0,58,3.76,3.776,3.768,3.776,3.777,3.77,0,,161.422023,41.7,6,P-GPS,
227800,2022-10-12 09:39:17,45.4389421701188,9.05591278894852,41.7,,,161.422023,15.1,0,0.287187,1.72206,15,5,22.609,161.522023,41.8,0.22,0.299929,0,0,0,55.8, -2, 2.3,0,0,1024,1024,1024,1024,0,0,0,0,0,0,58,3.758,3.775,3.763,3.771,3.774,3.768,0,,161.422023,41.7,6,P-GPS,
