time(millisecond),datetime(utc),latitude,longitude,height_above_takeoff(meters),height_above_ground_at_drone_location(meters),ground_elevation_at_drone_location(meters),altitude_above_seaLevel(meters),height_sonar(meters),speed(m/s),distance(meters),mileage(meters),satellites,gpslevel,voltage(v),max_altitude(meters),max_ascent(meters),max_speed(m/s),max_distance(meters), xSpeed(m/s), ySpeed(m/s), zSpeed(m/s), compass_heading(degrees), pitch(degrees), roll(degrees),isPhoto,isVideo,rc_elevator,rc_aileron,rc_throttle,rc_rudder,rc_elevator(percent),rc_aileron(percent),rc_throttle(percent),rc_rudder(percent),gimbal_heading(degrees),gimbal_pitch(degrees),battery_percent,voltageCell1,voltageCell2,voltageCell3,voltageCell4,voltageCell5,voltageCell6,current(A),battery_temperature(c),altitude(meters),ascent(meters),flycStateRaw,flycState,message
0,2022-10-12 10:56:35,45.4388836385058,9.05584829144203,0,Available with any HD 360 subscription,Available with any HD 360 subscription,119.8984985,0.1,0,0,0,18,5,0,119.8984985,0,0,0,0,0,0,64.8, 5.8, 1.2,0,0,1024,1024,1024,1024,0,0,0,0,0,0,95,4.237,4.24,4.239,4.241,4.226,4.24,0,,119.8984985,0,41,Motors_Started,
100,2022-10-12 10:56:35,45.4388836371688,9.05584831573304,0,,,119.8984985,0.1,0,0.00190125,0.00190125,18,5,0,119.8984985,0,0,0.00190125,0,0,0,64.8, 5.8, 1.2,0,0,1024,1024,1024,1024,0,0,0,0,0,0,95,4.237,4.24,4.239,4.241,4.226,4.24,0,,119.8984985,0,41,Motors_Started,
200,2022-10-12 10:56:35,45.4388836586153,9.05584831345296,0,,,119.8984985,0.1,0,0.00281973,0.00429286,18,5,0,119.8984985,0,0,0.00281973,0,0,0,64.8, 5.8, 1.2,0,0,776,387,973,1684,-38,-97,-8,100,0,0,95,4.237,4.24,4.239,4.241,4.226,4.24,0,,119.8984985,0,41,Motors_Started,
300,2022-10-12 10:56:36,45.4388836190719,9.0558483581227,0,,,119.8984985,0.1,0,0.00563408,0.00990418,18,5,0,119.8984985,0,0,0.00563408,0,0,0,64.8, 5.8, 1.2,0,0,1024,710,1024,1024,0,-48,0,0,0,0,95,4.237,4.24,4.239,4.241,4.226,4.24,0,,119.8984985,0,41,Motors_Started,"Setting new Return-To-Home altitude to 45m (148 ft). Data Recorder File Index is 164. Setting new Maximum Flight Altitude to 100m (328 ft)"
400,2022-10-12 10:56:36,45.4388835762147,9.05584840377985,0,,,119.8984985,0.1,0,0.0111724,0.0158546,17,5,0,119.8984985,0,0,0.0111724,0,0,0,64.8, 5.8, 1.2,0,0,1024,1024,1024,1024,0,0,0,0,0,0,95,4.237,4.24,4.239,4.241,4.226,4.24,0,,119.8984985,0,41,Motors_Started,
500,2022-10-12 10:56:36,45.4388835074755,9.05584841010728,0,,,119.8984985,0.1,0,0.0172645,0.0235147,17,5,0,119.8984985,0,0,0.0172645,0,0,0,64.8, 5.8, 1.2,0,0,1024,1024,1024,1024,0,0,0,0,0,0,95,4.237,4.24,4.239,4.241,4.226,4.24,0,,119.8984985,0,41,Motors_Started,
600,2022-10-12 10:56:36,45.4388833861044,9.05584843067295,0,,,119.8984985,0.1,0,0.0300978,0.037107,18,5,0,119.8984985,0,0,0.0300978,0,0,0,64.8, 5.8, 1.2,0,0,1024,1024,1024,1024,0,0,0,0,0,0,95,4.237,4.24,4.239,4.241,4.226,4.24,0,,119.8984985,0,41,Motors_Started,
700,2022-10-12 10:56:36,45.4388833545769,9.05584842949171,0,,,119.8984985,0.1,0,0.0333616,0.0406142,18,5,0,119.8984985,0,0,0.0333616,0,0,0,64.8, 5.8, 1.2,0,0,1024,1024,1024,1024,0,0,0,0,0,0,95,4.237,4.24,4.239,4.241,4.226,4.24,0,,119.8984985,0,41,Motors_Started,
800,2022-10-12 10:56:36,45.4388833207891,9.05584842554432,0,,,119.8984985,0.1,0,0.036849,0.0443842,18,5,0,119.8984985,0,0,0.036849,0,0,0,64.8, 5.8, 1.2,0,0,1024,1024,1024,1024,0,0,0,0,0,0,95,4.237,4.24,4.239,4.241,4.226,4.24,0,,119.8984985,0,41,Motors_Started,
900,2022-10-12 10:56:36,45.4388832510019,9.05584841720312,0,,,119.8984985,0.1,0,0.044196,0.0521723,18,5,0,119.8984985,0,0,0.044196,0,0,0,64.8, 5.8, 1.2,0,0,1024,1024,1024,1024,0,0,0,0,0,0,95,4.237,4.24,4.239,4.241,4.226,4.24,0,,119.8984985,0,41,Motors_Started,
1000,2022-10-12 10:56:36,45.4388832134885,9.0558483440302,0,,,119.8984985,0.1,0,0.0474423,0.0592436,17,5,0,119.8984985,0,0,0.0474423,0,0,0,64.8, 5.8, 1.2,0,0,1024,1024,1024,1024,0,0,0,0,0,0,95,4.237,4.24,4.239,4.241,4.226,4.24,0,,119.8984985,0,41,Motors_Started,
1100,2022-10-12 10:56:36,45.438883132521,9.05584837474326,0,,,119.8984985,0.1,0,0.0566428,0.0685611,17,5,0,119.8984985,0,0,0.0566428,0,0,0,64.8, 5.8, 1.2,0,0,1024,1024,1024,1024,0,0,0,0,0,0,95,4.237,4.24,4.239,4.241,4.226,4.24,0,,119.8984985,0,41,Motors_Started,
1200,2022-10-12 10:56:36,45.4388830627044,9.05584839593084,0,,,119.8984985,0.1,0,0.0645496,0.0764992,17,5,0,119.8984985,0,0,0.0645496,0,0,0,64.8, 5.8, 1.2,0,0,1024,1024,1024,1024,0,0,0,0,0,0,95,4.237,4.24,4.239,4.241,4.226,4.24,0,,119.8984985,0,41,Motors_Started,
1300,2022-10-12 10:56:36,45.4388830473442,9.05584838771785,0,,,119.8984985,0.1,0,0.0661686,0.0783236,17,5,0,119.8984985,0,0,0.0661686,0,0,0,64.8, 5.8, 1.2,0,0,1024,1024,1024,1024,0,0,0,0,0,0,95,4.237,4.24,4.239,4.241,4.226,4.24,0,,119.8984985,0,41,Motors_Started,
1400,2022-10-12 10:56:37,45.4388830297099,9.05584837530489,0,,,119.8984985,0.1,0,0.0680173,0.0805108,18,5,0,119.8984985,0,0,0.0680173,0,0,0,64.8, 5.8, 1.2,0,0,1024,1024,1029,1024,0,0,1,0,0,0,95,4.237,4.24,4.239,4.241,4.226,4.24,0,,119.8984985,0,41,Motors_Started,
1500,2022-10-12 10:56:37,45.4388830979394,9.0558483637252,0,,,119.8984985,0.1,0,0.0603783,0.088152,18,5,25.423,119.8984985,0,0,0.0680173,0,0,0,64.9, 5.8, 1.2,0,0,1024,1024,1071,1024,0,0,7,0,0,0,95,4.237,4.24,4.239,4.241,4.226,4.24,0,,119.8984985,0,10,Assisted_Takeoff,
1600,2022-10-12 10:56:37,45.4388830622679,9.05584833712589,0,,,119.8984985,0.1,0,0.0641802,0.092629,18,5,25.423,119.8984985,0,0,0.0680173,0,0,0,64.9, 5.8, 1.2,0,0,1024,1024,1096,1024,0,0,11,0,0,0,95,4.237,4.24,4.239,4.241,4.226,4.24,0,,119.8984985,0,10,Assisted_Takeoff,
1700,2022-10-12 10:56:37,45.4388830122059,9.05584832255112,0,,,119.8984985,0.1,0,0.0696907,0.0983112,18,5,25.423,119.8984985,0,0,0.0696907,0,0,0,64.9, 5.8, 1.2,0,0,1024,1024,1116,1024,0,0,14,0,0,0,95,4.237,4.24,4.239,4.241,4.226,4.24,0,,119.8984985,0,10,Assisted_Takeoff,
1800,2022-10-12 10:56:37,45.4388829640237,9.05584831742249,0,,,119.8984985,0.1,0,0.0750339,0.103684,18,5,25.423,119.8984985,0,0,0.0750339,0,0,0,64.9, 5.7, 1.2,0,0,1052,1024,1136,1024,4,0,17,0,0,0,95,4.237,4.24,4.239,4.241,4.226,4.24,0,,119.8984985,0,10,Assisted_Takeoff,
1900,2022-10-12 10:56:37,45.4388830159884,9.055848575163,0,,,119.8984985,0.1,0,0.0726815,0.12461,18,5,25.423,119.8984985,0,0,0.0750339,0,0,0,64.9, 5.7, 1.2,0,0,1146,1024,1151,1024,18,0,19,0,0,0,95,4.237,4.24,4.239,4.241,4.226,4.24,0,,119.8984985,0,10,Assisted_Takeoff,
2000,2022-10-12 10:56:37,45.438882993701,9.05584865417346,0,,,119.8984985,0.1,0,0.0770902,0.131254,18,5,25.423,119.8984985,0,0,0.0770902,0,0,0,64.9, 5.6, 1.2,0,0,1193,1024,1169,1024,26,0,22,0,0,0,95,4.237,4.24,4.239,4.241,4.226,4.24,0,,119.8984985,0,10,Assisted_Takeoff,
2100,2022-10-12 10:56:37,45.4388829310581,9.05584867802036,0,,,119.8984985,0.1,0,0.0842572,0.138465,18,5,25.423,119.8984985,0,0,0.0842572,0,0,0,64.9, 5.6, 1.2,0,0,1236,1024,1185,1024,32,0,24,0,0,0,95,4.237,4.24,4.239,4.241,4.226,4.24,0,,119.8984985,0,10,Assisted_Takeoff,
2200,2022-10-12 10:56:37,45.4388828675336,9.05584870061963,0,,,119.8984985,0.1,0,0.0914888,0.145746,18,5,25.423,119.8984985,0,0,0.0914888,0,0,0,65, 5.5, 1.2,0,0,1275,1024,1199,1024,38,0,27,0,0,0,95,4.237,4.24,4.239,4.241,4.226,4.24,0,,119.8984985,0,10,Assisted_Takeoff,
2300,2022-10-12 10:56:37,45.4388827537147,9.05584880016829,0,,,119.8984985,0.1,0,0.1061,0.160597,18,5,25.423,119.8984985,0,0,0.1061,0,0,0,65.1, 5.4, 1.2,0,0,1292,1024,1196,1024,41,0,26,0,0,0,95,4.237,4.24,4.239,4.241,4.226,4.24,0,,119.8984985,0,10,Assisted_Takeoff,
2400,2022-10-12 10:56:38,45.4388826834732,9.05584883151318,0,,,119.8984985,0.1,0,0.114261,0.168782,18,5,25.423,119.8984985,0,0,0.114261,0,0,0,65.3, 5.2, 1.1,0,0,1315,1029,1195,1024,44,1,26,0,0,0,95,4.237,4.24,4.239,4.241,4.226,4.24,0,,119.8984985,0,10,Assisted_Takeoff,
2500,2022-10-12 10:56:38,45.4388826474306,9.0558488660485,0,,,119.8984985,0.1,0,0.118985,0.173612,18,5,25.548,119.8984985,0,0,0.118985,0,0,0,65.6, 4.9, 1.1,0,0,1337,1031,1222,1024,47,1,30,0,0,0,95,4.261,4.26,4.26,4.261,4.246,4.26,0,,119.8984985,0,10,Assisted_Takeoff,
2600,2022-10-12 10:56:38,45.4388825949689,9.05584887858355,0,,,119.8984985,0.1,0,0.124764,0.179527,18,5,25.548,119.8984985,0,0,0.124764,0,0,0,66.1, 3.9, 1.4,0,0,1354,1032,1236,1024,50,1,32,0,0,0,95,4.261,4.26,4.26,4.261,4.246,4.26,0,,119.8984985,0,10,Assisted_Takeoff,
2700,2022-10-12 10:56:38,45.4388825875218,9.05584881727799,0,,,119.8984985,0.1,0,0.123869,0.184382,18,5,25.548,119.8984985,0,0,0.124764,0,0,-0.2,66.5, 2.2, 1.5,0,0,1362,1032,1239,1024,51,1,33,0,0,0,95,4.261,4.26,4.26,4.261,4.246,4.26,0,,119.8984985,0,10,Assisted_Takeoff,
2800,2022-10-12 10:56:38,45.4388824604741,9.05584873396226,0,,,119.8984985,0.2,0,0.135479,0.199935,18,5,25.548,119.8984985,0,0,0.135479,-0.1,0,-0.3,66.5, -1.1, 1,0,0,1366,1031,1240,1024,52,1,33,0,0,0,95,4.261,4.26,4.26,4.261,4.246,4.26,0,,119.8984985,0,6,P-GPS,
2900,2022-10-12 10:56:38,45.4388823132372,9.05584870086382,0.1,,,119.9984985,0.2,0.1,0.150801,0.216511,18,5,25.548,119.9984985,0.1,0.1,0.150801,-0.1,0,-0.5,66.5, -5, 0.5,0,0,1363,1031,1239,1024,51,1,33,0,0,0,95,4.261,4.26,4.26,4.261,4.246,4.26,0,,119.9984985,0.1,6,P-GPS,
3000,2022-10-12 10:56:38,45.4388822006952,9.05584875897743,0.1,,,119.9984985,0.3,0,0.164002,0.229822,18,5,25.548,119.9984985,0.1,0.1,0.164002,0,0,-0.6,66.5, -8.3, 0,0,0,1361,1027,1241,1024,51,0,33,0,0,0,95,4.261,4.26,4.26,4.261,4.246,4.26,0,,119.9984985,0.1,6,P-GPS,
3100,2022-10-12 10:56:38,45.4388821569515,9.05584897308447,0.2,,,120.0984985,0.4,0.2,0.173131,0.247223,18,5,25.548,120.0984985,0.2,0.2,0.173131,0,0.2,-0.7,66.5, -10.2, -0.3,0,0,1361,1027,1241,1024,51,0,33,0,0,0,95,4.261,4.26,4.26,4.261,4.246,4.26,0,,120.0984985,0.2,6,P-GPS,
3200,2022-10-12 10:56:38,45.4388822084894,9.05584937157442,0.2,,,120.0984985,0.4,0.41,0.179981,0.278841,16,5,25.548,120.0984985,0.2,0.41,0.179981,0.1,0.4,-0.6,66.5, -10.8, -0.1,0,0,1342,1026,1243,1024,48,0,33,0,0,0,95,4.261,4.26,4.26,4.261,4.246,4.26,0,,120.0984985,0.2,6,P-GPS,
3300,2022-10-12 10:56:39,45.4388823234428,9.05584998349075,0.3,,,120.1984985,0.5,0.54,0.197026,0.32827,16,5,25.548,120.1984985,0.3,0.54,0.197026,0.2,0.5,-0.6,66.4, -10.4, 0,0,0,1336,1025,1248,1024,47,0,34,0,0,0,95,4.261,4.26,4.26,4.261,4.246,4.26,0,,120.1984985,0.3,6,P-GPS,
3400,2022-10-12 10:56:39,45.4388825069843,9.05585074924749,0.4,,,120.2984985,0.6,0.76,0.229378,0.391412,17,5,25.548,120.2984985,0.4,0.76,0.229378,0.3,0.7,-0.6,66.4, -9.9, 0,0,0,1320,1024,1266,1024,45,0,37,0,0,0,95,4.261,4.26,4.26,4.261,4.246,4.26,0,,120.2984985,0.4,6,P-GPS,
3500,2022-10-12 10:56:39,45.4388828176948,9.05585172804753,0.4,,,120.2984985,0.6,0.76,0.283268,0.47524,17,5,24.644,120.2984985,0.4,0.76,0.283268,0.3,0.8,-0.6,66.4, -9.2, 0,0,0,1320,1024,1266,1024,45,0,37,0,0,0,95,4.097,4.112,4.107,4.113,4.105,4.11,0,,120.2984985,0.4,6,P-GPS,
3600,2022-10-12 10:56:39,45.4388833071938,9.05585270244081,0.5,,,120.3984985,0.7,0.98,0.346156,0.56875,17,5,24.644,120.3984985,0.5,0.98,0.346156,0.4,0.9,-0.5,66.4, -8.5, 0.2,0,0,1285,1024,1277,1024,40,0,38,0,0,0,95,4.097,4.112,4.107,4.113,4.105,4.11,0,,120.3984985,0.5,6,P-GPS,
3700,2022-10-12 10:56:39,45.4388838311776,9.05585411988542,0.5,,,120.3984985,0.8,1.17,0.455298,0.693764,17,5,24.644,120.3984985,0.5,1.17,0.455298,0.4,1.1,-0.5,66.4, -7.7, 0.5,0,0,1258,1024,1306,1024,35,0,43,0,0,0,95,4.097,4.112,4.107,4.113,4.105,4.11,0,,120.3984985,0.5,6,P-GPS,
3800,2022-10-12 10:56:39,45.4388843602673,9.05585563977056,0.6,,,120.4984985,0.8,1.3,0.57898,0.826153,17,5,24.644,120.4984985,0.6,1.3,0.57898,0.5,1.2,-0.6,66.4, -6.6, 0.4,0,0,1246,1024,1320,1024,34,0,45,0,0,0,95,4.097,4.112,4.107,4.113,4.105,4.11,0,,120.4984985,0.6,6,P-GPS,
3900,2022-10-12 10:56:39,45.4388848562645,9.05585750357559,0.7,,,120.5984985,0.9,1.3,0.731467,0.981694,17,5,24.644,120.5984985,0.7,1.3,0.731467,0.5,1.2,-0.6,66.4, -5.1, 0.2,0,0,1225,1024,1330,1024,30,0,46,0,0,0,95,4.097,4.112,4.107,4.113,4.105,4.11,0,,120.5984985,0.7,6,P-GPS,
4000,2022-10-12 10:56:39,45.4388855112866,9.05585975832184,0.7,,,120.5984985,0.9,1.43,0.918678,1.17212,15,5,24.644,120.5984985,0.7,1.43,0.918678,0.6,1.3,-0.8,66.4, -3.7, 0.3,0,0,1210,1024,1339,1024,28,0,48,0,0,0,95,4.097,4.112,4.107,4.113,4.105,4.11,0,,120.5984985,0.7,6,P-GPS,
4100,2022-10-12 10:56:39,45.4388861996589,9.0558616297952,0.8,,,120.6984985,1,1.43,1.07906,1.33699,15,5,24.644,120.6984985,0.8,1.43,1.07906,0.6,1.3,-0.9,66.4, -2.4, 0.8,0,0,1189,1024,1344,1024,25,0,48,0,0,0,95,4.097,4.112,4.107,4.113,4.105,4.11,0,,120.6984985,0.8,6,P-GPS,
4200,2022-10-12 10:56:39,45.4388868686868,9.05586343037553,0.9,,,120.7984985,1.1,1.43,1.2347,1.49598,14,5,24.644,120.7984985,0.9,1.43,1.2347,0.6,1.3,-1,66.5, -1.5, 1.3,0,0,1168,1024,1352,1024,22,0,50,0,0,0,95,4.097,4.112,4.107,4.113,4.105,4.11,0,,120.7984985,0.9,6,P-GPS,
4300,2022-10-12 10:56:40,45.4388875446975,9.05586526270365,1,,,120.8984985,1.2,1.43,1.39369,1.65751,14,5,24.644,120.8984985,1,1.43,1.39369,0.6,1.3,-1.1,66.5, -0.7, 1.7,0,0,1131,1024,1357,1024,16,0,50,0,0,0,95,4.097,4.112,4.107,4.113,4.105,4.11,0,,120.8984985,1,6,P-GPS,
4400,2022-10-12 10:56:40,45.4388881969972,9.0558669836104,1.2,,,121.0984985,1.3,1.43,1.54413,1.81014,18,5,24.644,121.0984985,1.2,1.43,1.54413,0.6,1.3,-1.2,66.5, 0, 1.8,0,0,1062,1024,1372,1024,6,0,53,0,0,0,95,4.097,4.112,4.107,4.113,4.105,4.11,0,,121.0984985,1.2,6,P-GPS,
4500,2022-10-12 10:56:40,45.4388889927258,9.05586863543585,1.3,,,121.1984985,1.5,1.39,1.69543,1.96648,18,5,24.697,121.1984985,1.3,1.43,1.69543,0.5,1.3,-1.2,66.5, 0.7, 1.5,0,0,1024,1024,1375,1024,0,0,53,0,0,0,95,4.107,4.119,4.115,4.121,4.115,4.12,0,,121.1984985,1.3,6,P-GPS,
4600,2022-10-12 10:56:40,45.438889703533,9.055870180542,1.4,,,121.2984985,1.6,1.39,1.83635,2.11065,17,5,24.697,121.2984985,1.4,1.43,1.83635,0.5,1.3,-1.3,66.4, 1.3, 1,0,0,1024,1024,1392,1024,0,0,56,0,0,0,95,4.107,4.119,4.115,4.121,4.115,4.12,0,,121.2984985,1.4,6,P-GPS,
4700,2022-10-12 10:56:40,45.4388902635012,9.05587184756335,1.6,,,121.4984985,1.7,1.3,1.98024,2.25486,17,5,24.697,121.4984985,1.6,1.43,1.98024,0.5,1.2,-1.4,66.4, 3, 0.3,0,0,1024,1024,1397,1024,0,0,57,0,0,0,95,4.107,4.119,4.115,4.121,4.115,4.12,0,,121.4984985,1.6,6,P-GPS,
4800,2022-10-12 10:56:40,45.4388907757714,9.05587335338022,1.7,,,121.5984985,1.9,1.3,2.11051,2.38544,17,5,24.697,121.5984985,1.7,1.43,2.11051,0.5,1.2,-1.5,66.4, 6.1, 0,0,0,1024,1024,1415,1024,0,0,59,0,0,0,95,4.107,4.119,4.115,4.121,4.115,4.12,0,,121.5984985,1.7,6,P-GPS,
4900,2022-10-12 10:56:40,45.4388912427228,9.05587434128338,1.9,,,121.7984985,2,1.08,2.20155,2.47839,17,5,24.697,121.7984985,1.9,1.43,2.20155,0.4,1,-1.6,66.4, 8.8, 0,0,0,1024,1024,1422,1024,0,0,60,0,0,0,95,4.107,4.119,4.115,4.121,4.115,4.12,0,,121.7984985,1.9,6,P-GPS,
5000,2022-10-12 10:56:40,45.4388916642228,9.05587550607835,2.1,,,121.9984985,2.2,0.98,2.30349,2.58065,17,5,24.697,121.9984985,2.1,1.43,2.30349,0.4,0.9,-1.6,66.4, 10.1, 0.2,0,0,1024,1024,1432,1024,0,0,62,0,0,0,95,4.107,4.119,4.115,4.121,4.115,4.12,0,,121.9984985,2.1,6,P-GPS,
5100,2022-10-12 10:56:40,45.4388919948189,9.05587657009534,2.2,,,122.0984985,2.4,0.76,2.39427,2.67145,17,5,24.697,122.0984985,2.2,1.43,2.39427,0.3,0.7,-1.7,66.4, 10, 0.5,0,0,1024,1024,1447,1024,0,0,64,0,0,0,95,4.107,4.119,4.115,4.121,4.115,4.12,0,,122.0984985,2.2,6,P-GPS,
5200,2022-10-12 10:56:40,45.438892219102,9.05587735268821,2.4,,,122.2984985,2.6,0.54,2.46023,2.73741,17,5,24.697,122.2984985,2.4,1.43,2.46023,0.2,0.5,-1.8,66.4, 8.8, 0.6,0,0,1024,1024,1449,1024,0,0,64,0,0,0,95,4.107,4.119,4.115,4.121,4.115,4.12,0,,122.2984985,2.4,6,P-GPS,
5300,2022-10-12 10:56:40,45.4388919877807,9.05587795966973,2.6,,,122.4984985,2.8,0.32,2.49427,2.79131,17,5,24.697,122.4984985,2.6,1.43,2.49427,0.1,0.3,-2,66.4, 7.3, 0.7,0,0,1024,1024,1450,1024,0,0,65,0,0,0,95,4.107,4.119,4.115,4.121,4.115,4.12,0,,122.4984985,2.6,6,P-GPS,
5400,2022-10-12 10:56:41,45.4388920123352,9.0558783611746,2.8,,,122.6984985,3,0.22,2.52438,2.82276,17,5,24.697,122.6984985,2.8,1.43,2.52438,0.1,0.2,-2.1,66.5, 5.7, 0.7,0,0,1024,1024,1451,1024,0,0,65,0,0,0,95,4.107,4.119,4.115,4.121,4.115,4.12,0,,122.6984985,2.8,6,P-GPS,
5500,2022-10-12 10:56:41,45.4388920668743,9.05587864425611,3,,,122.8984985,3.2,0.1,2.54715,2.84567,17,5,24.697,122.8984985,3,1.43,2.54715,0,0.1,-2.1,66.4, 4.4, 0.6,0,0,1024,1024,1458,1024,0,0,66,0,0,0,95,4.107,4.119,4.115,4.121,4.115,4.12,0,,122.8984985,3,6,P-GPS,
5600,2022-10-12 10:56:41,45.4388920893289,9.05587881242747,3.3,,,123.1984985,3.5,0.1,2.56027,2.85902,17,5,24.631,123.1984985,3.3,1.43,2.56027,0,0.1,-2.1,66.4, 3.3, 0.4,0,0,1024,1024,1464,1024,0,0,67,0,0,0,95,4.097,4.109,4.104,4.11,4.101,4.11,0,,123.1984985,3.3,6,P-GPS,
5700,2022-10-12 10:56:41,45.4388920872494,9.05587876699848,3.5,,,123.3984985,3.7,0.1,2.55689,2.86258,17,5,24.631,123.3984985,3.5,1.43,2.56027,0,0.1,-2.2,66.4, 2.4, 0.1,0,0,1024,1024,1477,1024,0,0,69,0,0,0,95,4.097,4.109,4.104,4.11,4.101,4.11,0,,123.3984985,3.5,6,P-GPS,
5800,2022-10-12 10:56:41,45.4388920742291,9.05587875613227,3.7,,,123.5984985,3.9,0,2.55557,2.86425,17,5,24.631,123.5984985,3.7,1.43,2.56027,0,0,-2.2,66.4, 1.8, 0,0,0,1024,1024,1480,1024,0,0,69,0,0,0,95,4.097,4.109,4.104,4.11,4.101,4.11,0,,123.5984985,3.7,6,P-GPS,
5900,2022-10-12 10:56:41,45.4388920350048,9.05587861704939,3.9,,,123.7984985,4.2,0,2.54387,2.87595,17,5,24.631,123.7984985,3.9,1.43,2.56027,0,0,-2.3,66.4, 1.4, 0.1,0,0,1024,1024,1481,1024,0,0,69,0,0,0,95,4.097,4.109,4.104,4.11,4.101,4.11,0,,123.7984985,3.9,6,P-GPS,
6000,2022-10-12 10:56:41,45.4388919924593,9.05587846236769,4.2,,,124.0984985,4.4,0,2.53091,2.88892,18,5,24.631,124.0984985,4.2,1.43,2.56027,0,0,-2.4,66.4, 1.2, 0,0,0,1024,1024,1487,1024,0,0,70,0,0,0,95,4.097,4.109,4.104,4.11,4.101,4.11,0,,124.0984985,4.2,6,P-GPS,
6100,2022-10-12 10:56:41,45.4388920226058,9.05587812395703,4.4,,,124.2984985,4.6,0,2.50761,2.91553,18,5,24.631,124.2984985,4.4,1.43,2.56027,0,0,-2.4,66.4, 1.2, 0,0,0,1024,1024,1487,1024,0,0,70,0,0,0,95,4.097,4.109,4.104,4.11,4.101,4.11,0,,124.2984985,4.4,6,P-GPS,
6200,2022-10-12 10:56:41,45.4388920195517,9.05587799205774,4.7,,,124.5984985,4.9,0,2.49793,2.92583,17,5,24.631,124.5984985,4.7,1.43,2.56027,0,0,-2.4,66.4, 1.1, -0.1,0,0,1024,1024,1485,1024,0,0,70,0,0,0,95,4.097,4.109,4.104,4.11,4.101,4.11,0,,124.5984985,4.7,6,P-GPS,
6300,2022-10-12 10:56:41,45.4388919910873,9.05587784788208,4.9,,,124.7984985,5.1,0,2.48631,2.93752,17,5,24.631,124.7984985,4.9,1.43,2.56027,0,0,-2.5,66.4, 1, -0.1,0,0,1024,1024,1490,1024,0,0,71,0,0,0,95,4.097,4.109,4.104,4.11,4.101,4.11,0,,124.7984985,4.9,6,P-GPS,
6400,2022-10-12 10:56:42,45.4388919654304,9.05587770810632,5.2,,,125.0984985,5.4,0,2.47513,2.94879,17,5,24.631,125.0984985,5.2,1.43,2.56027,0,0,-2.5,66.4, 0.9, 0,0,0,1024,1024,1488,1024,0,0,70,0,0,0,95,4.097,4.109,4.104,4.11,4.101,4.11,0,,125.0984985,5.2,6,P-GPS,
6500,2022-10-12 10:56:42,45.4388919109491,9.05587767646612,5.4,,,125.2984985,5.6,0,2.47058,2.95533,17,5,24.545,125.2984985,5.4,1.43,2.56027,0,0,-2.5,66.4, 0.6, 0.1,0,0,1024,1024,1501,1024,0,0,72,0,0,0,95,4.078,4.094,4.092,4.096,4.088,4.097,0,,125.2984985,5.4,6,P-GPS,
6600,2022-10-12 10:56:42,45.4388918255161,9.055877909238,5.7,,,125.5984985,5.9,0,2.48394,2.97583,17,5,24.545,125.5984985,5.7,1.43,2.56027,0,0,-2.5,66.4, 0.2, 0.3,0,0,1024,1024,1500,1024,0,0,72,0,0,0,95,4.078,4.094,4.092,4.096,4.088,4.097,0,,125.5984985,5.7,6,P-GPS,
6700,2022-10-12 10:56:42,45.4388918253076,9.05587781614573,5.9,,,125.7984985,6.1,0,2.47718,2.9831,17,5,24.545,125.7984985,5.9,1.43,2.56027,0,0,-2.5,66.4, 0, 0.1,0,0,1024,1024,1503,1024,0,0,73,0,0,0,95,4.078,4.094,4.092,4.096,4.088,4.097,0,,125.7984985,5.9,6,P-GPS,
6800,2022-10-12 10:56:42,45.4388918255755,9.05587773956185,6.2,,,126.0984985,6.4,0,2.47163,2.98907,16,5,24.545,126.0984985,6.2,1.43,2.56027,0,0,-2.6,66.3, -0.3, 0.1,0,0,1024,1024,1504,1024,0,0,73,0,0,0,95,4.078,4.094,4.092,4.096,4.088,4.097,0,,126.0984985,6.2,6,P-GPS,
6900,2022-10-12 10:56:42,45.4388918136081,9.05587771542727,6.5,,,126.3984985,6.7,0,2.46939,2.99138,16,5,24.545,126.3984985,6.5,1.43,2.56027,0,0,-2.6,66.2, -0.2, 0.5,0,0,1024,1024,1508,1024,0,0,73,0,0,0,95,4.078,4.094,4.092,4.096,4.088,4.097,0,,126.3984985,6.5,6,P-GPS,
7000,2022-10-12 10:56:42,45.4388918343325,9.05587799673692,6.7,,,126.5984985,6.9,0,2.49066,3.01345,17,5,24.545,126.5984985,6.7,1.43,2.56027,0,0,-2.7,66.2, 0.1, 0.9,0,0,1024,1024,1508,1024,0,0,73,0,0,0,95,4.078,4.094,4.092,4.096,4.088,4.097,0,,126.5984985,6.7,6,P-GPS,
7100,2022-10-12 10:56:42,45.4388918487401,9.0558780025653,7,,,126.8984985,7.2,0,2.49167,3.01511,17,5,24.545,126.8984985,7,1.43,2.56027,0,0,-2.7,66.2, 0.1, 1.3,0,0,1024,1024,1522,1024,0,0,75,0,0,0,95,4.078,4.094,4.092,4.096,4.088,4.097,0,,126.8984985,7,6,P-GPS,
7200,2022-10-12 10:56:42,45.4388918646036,9.05587800662029,7.3,,,127.1984985,7.5,0,2.49261,3.01691,17,5,24.545,127.1984985,7.3,1.43,2.56027,0,0,-2.7,66.2, 0.1, 1.2,0,0,1024,1024,1524,1024,0,0,76,0,0,0,95,4.078,4.094,4.092,4.096,4.088,4.097,0,,127.1984985,7.3,6,P-GPS,
7300,2022-10-12 10:56:43,45.4388919527089,9.05587793392658,7.6,,,127.4984985,7.8,0,2.49095,3.02823,17,5,24.545,127.4984985,7.6,1.43,2.56027,0,0,-2.8,66.2, 0.4, 0.9,0,0,1024,1024,1525,1024,0,0,76,0,0,0,95,4.078,4.094,4.092,4.096,4.088,4.097,0,,127.4984985,7.6,6,P-GPS,
7500,2022-10-12 10:56:43,45.4388922696815,9.05587789958509,8.2,,,128.0984985,8.3,0,2.50177,3.06358,17,5,24.545,128.0984985,8.2,1.43,2.56027,0,0,-2.9,66.4, 0.5, 0.2,0,0,1024,1024,1526,1024,0,0,76,0,0,0,95,4.078,4.094,4.092,4.096,4.088,4.097,0,,128.0984985,8.2,6,P-GPS,
7600,2022-10-12 10:56:43,45.4388922800246,9.05587791523121,8.4,,,128.2984985,8.6,0,2.50334,3.06526,17,5,24.503,128.2984985,8.4,1.43,2.56027,0,0,-2.9,66.4, 0, -0.1,0,0,1024,1024,1522,1024,0,0,75,0,0,0,95,4.07,4.087,4.084,4.09,4.083,4.089,0,,128.2984985,8.4,6,P-GPS,
7700,2022-10-12 10:56:43,45.4388922354598,9.05587781430367,8.7,,,128.5984985,8.9,0,2.49417,3.07456,17,5,24.503,128.5984985,8.7,1.43,2.56027,0,0,-3,66.5, 0, -0.9,0,0,1024,1024,1519,1024,0,0,75,0,0,0,95,4.07,4.087,4.084,4.09,4.083,4.089,0,,128.5984985,8.7,6,P-GPS,
7800,2022-10-12 10:56:43,45.4388922160397,9.05587773319932,9,,,128.8984985,9.2,0,2.4875,3.08125,16,5,24.503,128.8984985,9,1.43,2.56027,0,0,-2.9,66.5, 0, -1.3,0,0,1024,1024,1522,1024,0,0,75,0,0,0,95,4.07,4.087,4.084,4.09,4.083,4.089,0,,128.8984985,9,6,P-GPS,
7900,2022-10-12 10:56:43,45.4388922302308,9.05587775010299,9.3,,,129.1984985,9.5,0,2.48932,3.08331,16,5,24.503,129.1984985,9.3,1.43,2.56027,0,0,-2.9,66.4, 0.2, -0.7,0,0,1024,1024,1521,1024,0,0,75,0,0,0,95,4.07,4.087,4.084,4.09,4.083,4.089,0,,129.1984985,9.3,6,P-GPS,
8000,2022-10-12 10:56:43,45.4388922755732,9.0558777642138,9.6,,,129.4984985,9.8,0,2.49228,3.08847,17,5,24.503,129.4984985,9.6,1.43,2.56027,0,0,-2.9,66.4, 0.6, 0.2,0,0,1024,1024,1523,1024,0,0,76,0,0,0,95,4.07,4.087,4.084,4.09,4.083,4.089,0,,129.4984985,9.6,6,P-GPS,
8100,2022-10-12 10:56:43,45.4388923689197,9.05587780052098,9.9,,,129.7984985,10.1,0.1,2.49891,3.09923,17,5,24.503,129.7984985,9.9,1.43,2.56027,0.1,0,-2.9,66.5, 0.6, 1.1,0,0,1024,1024,1527,1024,0,0,76,0,0,0,95,4.07,4.087,4.084,4.09,4.083,4.089,0,,129.7984985,9.9,6,P-GPS,
8200,2022-10-12 10:56:43,45.4388924540539,9.05587782604588,10.2,,,130.0984985,10.4,0.1,2.50443,3.1089,17,5,24.503,130.0984985,10.2,1.43,2.56027,0,0,-2.9,66.5, 0.6, 1.7,0,0,1024,1024,1527,1024,0,0,76,0,0,0,95,4.07,4.087,4.084,4.09,4.083,4.089,0,,130.0984985,10.2,6,P-GPS,
8300,2022-10-12 10:56:44,45.438892557027,9.05587793030502,10.5,,,130.3984985,10.7,0,2.51641,3.12295,17,5,24.503,130.3984985,10.5,1.43,2.56027,0,0,-2.9,66.5, 0.6, 1.7,0,0,1024,1024,1526,1024,0,0,76,0,0,0,95,4.07,4.087,4.084,4.09,4.083,4.089,0,,130.3984985,10.5,6,P-GPS,
8400,2022-10-12 10:56:44,45.4388926056368,9.05587791868336,10.8,,,130.6984985,11,0,2.51771,3.12843,18,5,24.503,130.6984985,10.8,1.43,2.56027,0,0,-3,66.5, 0.4, 1.5,0,0,1024,1024,1529,1024,0,0,77,0,0,0,95,4.07,4.087,4.084,4.09,4.083,4.089,0,,130.6984985,10.8,6,P-GPS,
8500,2022-10-12 10:56:44,45.4388926414072,9.0558779075745,11.1,,,130.9984985,11.3,0,2.5185,3.1325,18,5,24.503,130.9984985,11.1,1.43,2.56027,0,0,-3,66.5, 0.6, 1.2,0,0,1024,1024,1527,1024,0,0,76,0,0,0,95,4.07,4.087,4.084,4.09,4.083,4.089,0,,130.9984985,11.1,6,P-GPS,
8600,2022-10-12 10:56:44,45.4388926835595,9.0558778920291,11.4,,,131.2984985,11.6,0,2.51925,3.13734,18,5,24.53,131.2984985,11.4,1.43,2.56027,0,0,-3,66.4, 0.8, 1.3,0,0,1024,1024,1530,1024,0,0,77,0,0,0,95,4.078,4.09,4.087,4.095,4.086,4.094,0,,131.2984985,11.4,6,P-GPS,
8700,2022-10-12 10:56:44,45.4388929327049,9.0558779273336,11.8,,,131.6984985,11.9,0,2.53296,3.16519,18,5,24.53,131.6984985,11.8,1.43,2.56027,0,0,-3,66.1, 0.8, 1.8,0,0,1024,1024,1528,1024,0,0,76,0,0,0,95,4.078,4.09,4.087,4.095,4.086,4.094,0,,131.6984985,11.8,6,P-GPS,
8800,2022-10-12 10:56:44,45.4388930209967,9.05587791530446,12.1,,,131.9984985,12.2,0,2.53612,3.17505,18,5,24.53,131.9984985,12.1,1.43,2.56027,0,0,-3,66, 0.8, 2.1,0,0,1024,1024,1533,1024,0,0,77,0,0,0,95,4.078,4.09,4.087,4.095,4.086,4.094,0,,131.9984985,12.1,6,P-GPS,
8900,2022-10-12 10:56:44,45.4388930328168,9.05587791155165,12.4,,,132.2984985,12.5,0,2.5364,3.1764,18,5,24.53,132.2984985,12.4,1.43,2.56027,0,0,-3,66, 0.8, 2.2,0,0,1024,1024,1535,1024,0,0,77,0,0,0,95,4.078,4.09,4.087,4.095,4.086,4.094,0,,132.2984985,12.4,6,P-GPS,
9000,2022-10-12 10:56:44,45.4388930279176,9.05587791499007,12.7,,,132.5984985,12.8,0,2.53642,3.177,18,5,24.53,132.5984985,12.7,1.43,2.56027,0,0,-3,66, 0.7, 2.3,0,0,1024,1024,1533,1024,0,0,77,0,0,0,95,4.078,4.09,4.087,4.095,4.086,4.094,0,,132.5984985,12.7,6,P-GPS,
9100,2022-10-12 10:56:44,45.4388929306246,9.05587802442744,13,,,132.8984985,13.1,0,2.53978,3.19079,18,5,24.53,132.8984985,13,1.43,2.56027,0,0,-3,65.9, 0.7, 2.1,0,0,1024,1024,1530,1024,0,0,77,0,0,0,95,4.078,4.09,4.087,4.095,4.086,4.094,0,,132.8984985,13,6,P-GPS,
9200,2022-10-12 10:56:44,45.4388928775129,9.05587807096137,13.3,,,133.1984985,13.4,0,2.5407,3.19772,18,5,24.53,133.1984985,13.3,1.43,2.56027,0,0,-3,65.9, 0.9, 1.7,0,0,1024,1024,1532,1024,0,0,77,0,0,0,95,4.078,4.09,4.087,4.095,4.086,4.094,0,,133.1984985,13.3,6,P-GPS,
9300,2022-10-12 10:56:44,45.4388927874754,9.05587812795555,13.6,,,133.4984985,13.8,0,2.54075,3.20868,18,5,24.53,133.4984985,13.6,1.43,2.56027,0,0,-3,65.9, 1.1, 1.1,0,0,1024,1024,1536,1024,0,0,78,0,0,0,95,4.078,4.09,4.087,4.095,4.086,4.094,0,,133.4984985,13.6,6,P-GPS,
9400,2022-10-12 10:56:45,45.4388926906571,9.0558781817036,13.9,,,133.7984985,14,0,2.5403,3.22023,18,5,24.53,133.7984985,13.9,1.43,2.56027,0,0,-3,66, 1.2, 0.5,0,0,1024,1024,1542,1024,0,0,78,0,0,0,95,4.078,4.09,4.087,4.095,4.086,4.094,0,,133.7984985,13.9,6,P-GPS,
9500,2022-10-12 10:56:45,45.4388925093298,9.0558783012441,14.2,,,134.0984985,14,0,2.54097,3.24245,18,5,24.53,134.0984985,14.2,1.43,2.56027,0,0,-3,66.1, 1.1, 0.3,0,0,1024,1024,1548,1024,0,0,79,0,0,0,95,4.078,4.09,4.087,4.095,4.086,4.094,0,,134.0984985,14.2,6,P-GPS,
9600,2022-10-12 10:56:45,45.4388924387278,9.05587834700274,14.5,,,134.3984985,14,0,2.54123,3.25107,18,5,24.465,134.3984985,14.5,1.43,2.56027,0,0,-3,66.1, 0.8, 0.5,0,0,1024,1024,1551,1024,0,0,80,0,0,0,95,4.065,4.08,4.075,4.085,4.076,4.084,0,,134.3984985,14.5,6,P-GPS,
9700,2022-10-12 10:56:45,45.4388923689303,9.05587833558864,14.8,,,134.6984985,14,0,2.53743,3.25889,18,5,24.465,134.6984985,14.8,1.43,2.56027,0,0,-3.1,66.2, 0.6, 0.9,0,0,1024,1024,1566,1024,0,0,82,0,0,0,95,4.065,4.08,4.075,4.085,4.076,4.084,0,,134.6984985,14.8,6,P-GPS,
9800,2022-10-12 10:56:45,45.4388923080615,9.05587832464307,15.2,,,135.0984985,14,0,2.53406,3.26571,18,5,24.465,135.0984985,15.2,1.43,2.56027,0,0,-3.1,66.2, 0.5, 1.2,0,0,1024,1024,1565,1024,0,0,82,0,0,0,95,4.065,4.08,4.075,4.085,4.076,4.084,0,,135.0984985,15.2,6,P-GPS,
9900,2022-10-12 10:56:45,45.4388922640389,9.05587833441809,15.5,,,135.3984985,14,0,2.5329,3.27066,18,5,24.465,135.3984985,15.5,1.43,2.56027,0,0,-3.2,66.2, 0.6, 1.3,0,0,1024,1024,1560,1024,0,0,81,0,0,0,95,4.065,4.08,4.075,4.085,4.076,4.084,0,,135.3984985,15.5,6,P-GPS,
10000,2022-10-12 10:56:45,45.4388922404835,9.05587834482797,15.8,,,135.6984985,14,0,2.53267,3.27341,18,5,24.465,135.6984985,15.8,1.43,2.56027,0,0,-3.3,66.1, 0.9, 1.2,0,0,1024,1024,1550,1024,0,0,80,0,0,0,95,4.065,4.08,4.075,4.085,4.076,4.084,0,,135.6984985,15.8,6,P-GPS,
10200,2022-10-12 10:56:45,45.4388921460411,9.05587831548158,16.5,,,136.3984985,14,0,2.52659,3.28416,18,5,24.465,136.3984985,16.5,1.43,2.56027,0,0,-3.3,66.1, 0.6, 0.8,0,0,1024,1024,1551,1024,0,0,80,0,0,0,95,4.065,4.08,4.075,4.085,4.076,4.084,0,,136.3984985,16.5,6,P-GPS,
10300,2022-10-12 10:56:46,45.4388920351017,9.05587820815641,16.9,,,136.7984985,14,0,2.51422,3.29907,18,5,24.465,136.7984985,16.9,1.43,2.56027,0,0,-3.3,66.1, 0.3, 0.4,0,0,1024,1024,1561,1024,0,0,81,0,0,0,95,4.065,4.08,4.075,4.085,4.076,4.084,0,,136.7984985,16.9,6,P-GPS,
10500,2022-10-12 10:56:46,45.4388918497864,9.05587775914087,17.5,,,137.3984985,14,0,2.47405,3.33971,18,5,24.465,137.3984985,17.5,1.43,2.56027,0,0,-3.3,66.1, -0.2, 0.8,0,0,1024,1024,1571,1024,0,0,83,0,0,0,95,4.065,4.08,4.075,4.085,4.076,4.084,0,,137.3984985,17.5,6,P-GPS,
10600,2022-10-12 10:56:46,45.4388918189355,9.05587770721657,17.9,,,137.7984985,14,0,2.46901,3.34502,18,5,24.465,137.7984985,17.9,1.43,2.56027,0,0,-3.3,66.1, -0.1, 1.2,0,0,1024,1024,1579,1024,0,0,84,0,0,0,95,4.065,4.08,4.075,4.085,4.076,4.084,0,,137.7984985,17.9,6,P-GPS,
10800,2022-10-12 10:56:46,45.4388918871527,9.05587800675612,18.6,,,138.4984985,14,0,2.49354,3.3696,18,5,24.465,138.4984985,18.6,1.43,2.56027,0,0,-3.4,66.1, 0.3, 1.7,0,0,1024,1024,1594,1024,0,0,86,0,0,0,95,4.065,4.08,4.075,4.085,4.076,4.084,0,,138.4984985,18.6,6,P-GPS,
10900,2022-10-12 10:56:46,45.4388918885279,9.0558781321311,19,,,138.8984985,14,0,2.50269,3.37938,18,5,24.465,138.8984985,19,1.43,2.56027,0,0,-3.5,66.1, 0.6, 1.6,0,0,1024,1024,1597,1024,0,0,87,0,0,0,95,4.065,4.08,4.075,4.085,4.076,4.084,0,,138.8984985,19,6,P-GPS,
11000,2022-10-12 10:56:46,45.4388918831418,9.05587825575406,19.3,,,139.1984985,14,0,2.51145,3.38905,18,5,24.465,139.1984985,19.3,1.43,2.56027,0,0,-3.5,66.1, 0.8, 1.4,0,0,1024,1024,1596,1024,0,0,87,0,0,0,95,4.065,4.08,4.075,4.085,4.076,4.084,0,,139.1984985,19.3,6,P-GPS,
11100,2022-10-12 10:56:46,45.4388918430512,9.05587831564488,19.7,,,139.5984985,14,0,2.51418,3.3955,18,5,24.465,139.5984985,19.7,1.43,2.56027,0,0,-3.7,66.2, 1.2, 1.3,0,0,1024,1024,1610,1024,0,0,89,0,0,0,95,4.065,4.08,4.075,4.085,4.076,4.084,0,,139.5984985,19.7,6,P-GPS,
11200,2022-10-12 10:56:46,45.4388917964842,9.05587834299659,20.1,,,139.9984985,14,0,2.5143,3.40111,18,5,24.465,139.9984985,20.1,1.43,2.56027,0,0,-3.7,66.2, 1.3, 1.1,0,0,1024,1024,1623,1024,0,0,91,0,0,0,95,4.065,4.08,4.075,4.085,4.076,4.084,0,,139.9984985,20.1,6,P-GPS,
11300,2022-10-12 10:56:46,45.438891761563,9.05587842669539,20.5,,,140.3984985,14,0,2.519,3.4087,18,5,24.465,140.3984985,20.5,1.43,2.56027,0,0,-3.8,66.3, 1.2, 1,0,0,1024,1024,1623,1024,0,0,91,0,0,0,94,4.065,4.08,4.075,4.085,4.076,4.084,0,,140.3984985,20.5,6,P-GPS,
11400,2022-10-12 10:56:47,45.4388917323292,9.05587849912661,20.9,,,140.7984985,14,0,2.52311,3.41522,18,5,24.465,140.7984985,20.9,1.43,2.56027,0,0,-3.9,66.3, 0.8, 1.3,0,0,1024,1024,1622,1024,0,0,91,0,0,0,94,4.065,4.08,4.075,4.085,4.076,4.084,0,,140.7984985,20.9,6,P-GPS,
11500,2022-10-12 10:56:47,45.4388917125493,9.05587855991633,21.3,,,141.1984985,14,0,2.52676,3.42045,18,5,24.465,141.1984985,21.3,1.43,2.56027,0,0,-4,66.2, 0.7, 1.4,0,0,1024,1024,1622,1024,0,0,91,0,0,0,94,4.065,4.08,4.075,4.085,4.076,4.084,0,,141.1984985,21.3,6,P-GPS,
11600,2022-10-12 10:56:47,45.4388916928077,9.05587862423757,21.7,,,141.5984985,14,0,2.53067,3.42593,18,5,24.363,141.5984985,21.7,1.43,2.56027,0,0,-4.1,66.3, 0.7, 1.3,0,0,1024,1024,1613,1024,0,0,89,0,0,0,94,4.048,4.064,4.059,4.066,4.06,4.066,0,,141.5984985,21.7,6,P-GPS,
11700,2022-10-12 10:56:47,45.4388916514533,9.05587872056223,22.1,,,141.9984985,14,0,2.53609,3.43474,18,5,24.363,141.9984985,22.1,1.43,2.56027,0,0,-4.1,66.3, 0.7, 1.2,0,0,1024,1024,1613,1024,0,0,89,0,0,0,94,4.048,4.064,4.059,4.066,4.06,4.066,0,,141.9984985,22.1,6,P-GPS,
11800,2022-10-12 10:56:47,45.4388915917766,9.05587881230844,22.5,,,142.3984985,14,0,2.54047,3.4445,18,5,24.363,142.3984985,22.5,1.43,2.56027,0,0,-4.1,66.3, 0.9, 1,0,0,1024,1024,1622,1024,0,0,91,0,0,0,94,4.048,4.064,4.059,4.066,4.06,4.066,0,,142.3984985,22.5,6,P-GPS,
11900,2022-10-12 10:56:47,45.438891567564,9.05587887054185,23,,,142.8984985,14,0,2.5438,3.44979,18,5,24.363,142.8984985,23,1.43,2.56027,0,0,-4.1,66.3, 1, 0.8,0,0,1024,1024,1622,1024,0,0,91,0,0,0,94,4.048,4.064,4.059,4.066,4.06,4.066,0,,142.8984985,23,6,P-GPS,
12000,2022-10-12 10:56:47,45.4388915496316,9.05587892006856,23.4,,,143.2984985,14,0,2.54673,3.45413,18,5,24.363,143.2984985,23.4,1.43,2.56027,0,0,-4.1,66.3, 0.9, 0.7,0,0,1024,1024,1623,1024,0,0,91,0,0,0,94,4.048,4.064,4.059,4.066,4.06,4.066,0,,143.2984985,23.4,6,P-GPS,
12100,2022-10-12 10:56:47,45.4388915408274,9.05587898923534,23.8,,,143.6984985,14,0,2.55146,3.45962,18,5,24.363,143.6984985,23.8,1.43,2.56027,0,0,-4.1,66.3, 0.9, 0.7,0,0,1024,1024,1630,1024,0,0,92,0,0,0,94,4.048,4.064,4.059,4.066,4.06,4.066,0,,143.6984985,23.8,6,P-GPS,
12200,2022-10-12 10:56:47,45.4388915102159,9.05587904291624,24.2,,,144.0984985,14,0,2.55422,3.46502,18,5,24.363,144.0984985,24.2,1.43,2.56027,0,0,-4.1,66.3, 0.9, 0.9,0,0,1024,1024,1627,1024,0,0,91,0,0,0,94,4.048,4.064,4.059,4.066,4.06,4.066,0,,144.0984985,24.2,6,P-GPS,
12300,2022-10-12 10:56:47,45.4388914730638,9.05587909156389,24.6,,,144.4984985,14,0,2.55638,3.47063,18,5,24.363,144.4984985,24.6,1.43,2.56027,0,0,-4.2,66.3, 0.8, 1.3,0,0,1024,1024,1630,1024,0,0,92,0,0,0,94,4.048,4.064,4.059,4.066,4.06,4.066,0,,144.4984985,24.6,6,P-GPS,
12400,2022-10-12 10:56:47,45.4388914329552,9.05587913004736,25.1,,,144.9984985,14,0,2.55769,3.47601,18,5,24.363,144.9984985,25.1,1.43,2.56027,0,0,-4.2,66.2, 0.6, 1.6,0,0,1024,1024,1623,1024,0,0,91,0,0,0,94,4.048,4.064,4.059,4.066,4.06,4.066,0,,144.9984985,25.1,6,P-GPS,
12500,2022-10-12 10:56:48,45.4388913511495,9.05587913872353,25.5,,,145.3984985,14,0,2.55526,3.48513,18,5,24.363,145.3984985,25.5,1.43,2.56027,0,0,-4.2,66.2, 0.5, 1.5,0,0,1024,1024,1624,1024,0,0,91,0,0,0,94,4.048,4.064,4.059,4.066,4.06,4.066,0,,145.3984985,25.5,6,P-GPS,
12600,2022-10-12 10:56:48,45.4388913065399,9.05587915084577,25.9,,,145.7984985,14,0,2.55449,3.49018,18,5,24.37,145.7984985,25.9,1.43,2.56027,0,0,-4.2,66.2, 0.4, 1.4,0,0,1024,1024,1621,1024,0,0,90,0,0,0,94,4.048,4.065,4.06,4.07,4.06,4.067,0,,145.7984985,25.9,6,P-GPS,
12700,2022-10-12 10:56:48,45.4388912529381,9.05587917075596,26.3,,,146.1984985,14,0,2.55397,3.49634,18,5,24.37,146.1984985,26.3,1.43,2.56027,0,0,-4.2,66.2, 0.3, 1.3,0,0,1024,1024,1622,1024,0,0,91,0,0,0,94,4.048,4.065,4.06,4.07,4.06,4.067,0,,146.1984985,26.3,6,P-GPS,
12800,2022-10-12 10:56:48,45.4388912050203,9.05587919722555,26.7,,,146.5984985,14,0,2.55416,3.50205,18,5,24.37,146.5984985,26.7,1.43,2.56027,0,0,-4.2,66.3, 0.4, 1.2,0,0,1024,1024,1629,1024,0,0,92,0,0,0,94,4.048,4.065,4.06,4.07,4.06,4.067,0,,146.5984985,26.7,6,P-GPS,
12900,2022-10-12 10:56:48,45.4388911040975,9.05587926140181,27.1,,,146.9984985,14,0,2.55522,3.51434,18,5,24.37,146.9984985,27.1,1.43,2.56027,0,0,-4.1,66.3, 0.6, 1.1,0,0,1024,1024,1640,1024,0,0,93,0,0,0,94,4.048,4.065,4.06,4.07,4.06,4.067,0,,146.9984985,27.1,6,P-GPS,
13000,2022-10-12 10:56:48,45.4388910585181,9.0558793179534,27.6,,,147.4984985,14,0,2.55775,3.52106,18,5,24.37,147.4984985,27.6,1.43,2.56027,0,0,-4.2,66.3, 0.6, 1,0,0,1024,1024,1645,1024,0,0,94,0,0,0,94,4.048,4.065,4.06,4.07,4.06,4.067,0,,147.4984985,27.6,6,P-GPS,
13100,2022-10-12 10:56:48,45.4388910247735,9.05587933508905,28,,,147.8984985,14,0,2.55781,3.52505,18,5,24.37,147.8984985,28,1.43,2.56027,0,0,-4.2,66.3, 0.6, 0.9,0,0,1024,1024,1634,1024,0,0,92,0,0,0,94,4.048,4.065,4.06,4.07,4.06,4.067,0,,147.8984985,28,6,P-GPS,
13200,2022-10-12 10:56:48,45.4388909975411,9.05587934201015,28.4,,,148.2984985,14,0,2.55735,3.52812,18,5,24.37,148.2984985,28.4,1.43,2.56027,0,0,-4.3,66.3, 0.5, 1.1,0,0,1024,1024,1627,1024,0,0,91,0,0,0,94,4.048,4.065,4.06,4.07,4.06,4.067,0,,148.2984985,28.4,6,P-GPS,
13300,2022-10-12 10:56:49,45.4388909783099,9.05587935535636,28.8,,,148.6984985,14,0,2.55765,3.5305,18,5,24.37,148.6984985,28.8,1.43,2.56027,0,0,-4.3,66.3, 0.3, 1.5,0,0,1024,1024,1625,1024,0,0,91,0,0,0,94,4.048,4.065,4.06,4.07,4.06,4.067,0,,148.6984985,28.8,6,P-GPS,
13400,2022-10-12 10:56:49,45.4388909419639,9.05587936550375,29.3,,,149.1984985,14,0,2.55712,3.53462,18,5,24.37,149.1984985,29.3,1.43,2.56027,0,0,-4.3,66.3, 0.3, 1.6,0,0,1024,1024,1622,1024,0,0,91,0,0,0,94,4.048,4.065,4.06,4.07,4.06,4.067,0,,149.1984985,29.3,6,P-GPS,
13500,2022-10-12 10:56:49,45.438890911148,9.05587936585629,29.7,,,149.5984985,14,0,2.55606,3.53805,18,5,24.37,149.5984985,29.7,1.43,2.56027,0,0,-4.2,66.3, 0.2, 1.4,0,0,1024,1024,1626,1024,0,0,91,0,0,0,94,4.048,4.065,4.06,4.07,4.06,4.067,0,,149.5984985,29.7,6,P-GPS,
13600,2022-10-12 10:56:49,45.4388908749624,9.05587936032398,30.1,,,149.9984985,14,0,2.55438,3.54209,18,5,24.37,149.9984985,30.1,1.43,2.56027,0,0,-4.2,66.3, 0.1, 1.1,0,0,1024,1024,1626,1024,0,0,91,0,0,0,94,4.048,4.065,4.06,4.07,4.06,4.067,0,,149.9984985,30.1,6,P-GPS,
13700,2022-10-12 10:56:49,45.4388908220257,9.0558793108049,30.5,,,150.3984985,14,0,2.54886,3.54914,18,5,24.337,150.3984985,30.5,1.43,2.56027,0,0,-4.2,66.3, 0, 1.2,0,0,1024,1024,1627,1024,0,0,91,0,0,0,94,4.043,4.059,4.055,4.063,4.055,4.062,0,,150.3984985,30.5,6,P-GPS,
13800,2022-10-12 10:56:49,45.4388907296148,9.05587920217639,30.9,,,150.7984985,14,0,2.5376,3.56246,18,5,24.337,150.7984985,30.9,1.43,2.56027,0,0,-4.2,66.3, -0.3, 1.2,0,0,1024,1024,1627,1024,0,0,91,0,0,0,94,4.043,4.059,4.055,4.063,4.055,4.062,0,,150.7984985,30.9,6,P-GPS,
13900,2022-10-12 10:56:49,45.4388906790483,9.05587916258951,31.4,,,151.2984985,14,0,2.53292,3.56887,18,5,24.337,151.2984985,31.4,1.43,2.56027,0,0,-4.2,66.3, -0.4, 1.2,0,0,1024,1024,1626,1024,0,0,91,0,0,0,94,4.043,4.059,4.055,4.063,4.055,4.062,0,,151.2984985,31.4,6,P-GPS,
14000,2022-10-12 10:56:49,45.4388906324056,9.05587913416492,31.8,,,151.6984985,14,0,2.52921,3.57451,18,5,24.337,151.6984985,31.8,1.43,2.56027,0,0,-4.2,66.3, -0.6, 1.5,0,0,1024,1024,1626,1024,0,0,91,0,0,0,94,4.043,4.059,4.055,4.063,4.055,4.062,0,,151.6984985,31.8,6,P-GPS,
14100,2022-10-12 10:56:49,45.438890581336,9.05587914362859,32.2,,,152.0984985,14,0,2.52817,3.58024,18,5,24.337,152.0984985,32.2,1.43,2.56027,0,0,-4.2,66.3, -0.6, 1.7,0,0,1024,1024,1626,1024,0,0,91,0,0,0,94,4.043,4.059,4.055,4.063,4.055,4.062,0,,152.0984985,32.2,6,P-GPS,
14200,2022-10-12 10:56:49,45.4388904656334,9.05587923555488,32.6,,,152.4984985,14,0,2.53112,3.59497,18,5,24.337,152.4984985,32.6,1.43,2.56027,0,0,-4.2,66.3, -0.4, 1.2,0,0,1024,1024,1625,1024,0,0,91,0,0,0,94,4.043,4.059,4.055,4.063,4.055,4.062,0,,152.4984985,32.6,6,P-GPS,
14400,2022-10-12 10:56:50,45.4388903788585,9.05587931956502,33.5,,,153.3984985,14,0,2.5345,3.60664,18,5,24.337,153.3984985,33.5,1.43,2.56027,0,0,-4.2,66.2, -0.2, 0.5,0,0,1024,1024,1635,1024,0,0,93,0,0,0,94,4.043,4.059,4.055,4.063,4.055,4.062,0,,153.3984985,33.5,6,P-GPS,
14600,2022-10-12 10:56:50,45.4388904986355,9.05587940486933,34.3,,,154.1984985,14,0,2.54482,3.62153,18,5,24.325,154.1984985,34.3,1.43,2.56027,0,0,-4.2,66.1, -0.5, 1.4,0,0,1024,1024,1627,1024,0,0,91,0,0,0,94,4.043,4.059,4.055,4.06,4.051,4.057,0,,154.1984985,34.3,6,P-GPS,
14800,2022-10-12 10:56:50,45.4388905050247,9.05587951190301,35.1,,,154.9984985,14,0,2.553,3.62991,18,5,24.325,154.9984985,35.1,1.43,2.56027,0,0,-4.2,66.2, -0.4, 1.5,0,0,1024,1024,1622,1024,0,0,91,0,0,0,94,4.043,4.059,4.055,4.06,4.051,4.057,0,,154.9984985,35.1,6,P-GPS,
14900,2022-10-12 10:56:50,45.4388905413243,9.05587953727225,35.6,,,155.4984985,14,0,2.5561,3.63441,18,5,24.325,155.4984985,35.6,1.43,2.56027,0,0,-4.2,66.2, -0.1, 1.5,0,0,1024,1024,1622,1024,0,0,91,0,0,0,94,4.043,4.059,4.055,4.06,4.051,4.057,0,,155.4984985,35.6,6,P-GPS,
15000,2022-10-12 10:56:50,45.4388905799934,9.05587955935568,36,,,155.8984985,14,0,2.55904,3.63904,18,5,24.325,155.8984985,36,1.43,2.56027,0,0,-4.2,66.2, 0, 1.9,0,0,1024,1024,1622,1024,0,0,91,0,0,0,94,4.043,4.059,4.055,4.06,4.051,4.057,0,,155.8984985,36,6,P-GPS,
15100,2022-10-12 10:56:50,45.4388906474354,9.05587955209425,36.4,,,156.2984985,14,0,2.56077,3.64656,18,5,24.325,156.2984985,36.4,1.43,2.56077,0,0,-4.1,66.2, 0.2, 2.3,0,0,1024,1024,1620,1024,0,0,90,0,0,0,94,4.043,4.059,4.055,4.06,4.051,4.057,0,,156.2984985,36.4,6,P-GPS,
15200,2022-10-12 10:56:50,45.4388906627558,9.05587957427535,36.8,,,156.6984985,14,0,2.56294,3.64899,18,5,24.325,156.6984985,36.8,1.43,2.56294,0,0,-4.1,66.2, 0.2, 2,0,0,1024,1024,1621,1024,0,0,90,0,0,0,94,4.043,4.059,4.055,4.06,4.051,4.057,0,,156.6984985,36.8,6,P-GPS,
15300,2022-10-12 10:56:50,45.4388907025712,9.05587965284018,37.2,,,157.0984985,14,0,2.57013,3.65655,18,5,24.325,157.0984985,37.2,1.43,2.57013,0,0,-4.1,66.2, 0.3, 1.6,0,0,1024,1024,1615,1024,0,0,90,0,0,0,94,4.043,4.059,4.055,4.06,4.051,4.057,0,,157.0984985,37.2,6,P-GPS,
15400,2022-10-12 10:56:51,45.4388907311089,9.05587974109607,37.6,,,157.4984985,14,0,2.57765,3.66413,18,5,24.325,157.4984985,37.6,1.43,2.57765,0,0,-4.1,66.2, 0.5, 1.3,0,0,1024,1024,1609,1024,0,0,89,0,0,0,94,4.043,4.059,4.055,4.06,4.051,4.057,0,,157.4984985,37.6,6,P-GPS,
15500,2022-10-12 10:56:51,45.4388907362515,9.05587991243572,38.1,,,157.9984985,14,0,2.59056,3.67752,18,5,24.325,157.9984985,38.1,1.43,2.59056,0,0,-4.1,66.2, 0.7, 1.4,0,0,1024,1024,1590,1024,0,0,86,0,0,0,94,4.043,4.059,4.055,4.06,4.051,4.057,0,,157.9984985,38.1,6,P-GPS,
15600,2022-10-12 10:56:51,45.4388907305023,9.05587999704411,38.5,,,158.3984985,14,0,2.59665,3.68415,18,5,24.325,158.3984985,38.5,1.43,2.59665,0,0,-4,66.3, 0.8, 1.5,0,0,1024,1024,1606,1024,0,0,88,0,0,0,94,4.043,4.059,4.055,4.06,4.051,4.057,0,,158.3984985,38.5,6,P-GPS,
15700,2022-10-12 10:56:51,45.4388907624556,9.05588011466624,38.9,,,158.7984985,14,0,2.60648,3.69399,18,5,24.222,158.7984985,38.9,1.43,2.60648,0,0,-4,66.2, 0.9, 1.6,0,0,1024,1024,1608,1024,0,0,88,0,0,0,94,4.021,4.04,4.034,4.045,4.038,4.044,0,,158.7984985,38.9,6,P-GPS,
15800,2022-10-12 10:56:51,45.4388907926633,9.05588023221511,39.3,,,159.1984985,14,0,2.61624,3.70376,18,5,24.222,159.1984985,39.3,1.43,2.61624,0,0,-3.9,66.2, 0.9, 1.7,0,0,1024,1024,1605,1024,0,0,88,0,0,0,94,4.021,4.04,4.034,4.045,4.038,4.044,0,,159.1984985,39.3,6,P-GPS,
15900,2022-10-12 10:56:51,45.438890936862,9.05588047578758,39.6,,,159.4984985,14,0,2.63924,3.72863,18,5,24.222,159.4984985,39.6,1.43,2.63924,0,0,-3.9,66.1, 1.1, 2.1,0,0,1024,1024,1607,1024,0,0,88,0,0,0,94,4.021,4.04,4.034,4.045,4.038,4.044,0,,159.4984985,39.6,6,P-GPS,
16000,2022-10-12 10:56:51,45.4388909676542,9.05588057417103,40,,,159.8984985,14,0,2.64759,3.73703,18,5,24.222,159.8984985,40,1.43,2.64759,0,0,-3.9,66.1, 1.2, 2.3,0,0,1024,1024,1607,1024,0,0,88,0,0,0,94,4.021,4.04,4.034,4.045,4.038,4.044,0,,159.8984985,40,6,P-GPS,
16100,2022-10-12 10:56:51,45.4388909408533,9.05588066399733,40.4,,,160.2984985,14,0,2.65335,3.74465,18,5,24.222,160.2984985,40.4,1.43,2.65335,0,0,-3.9,66.1, 1.2, 1.8,0,0,1024,1024,1610,1024,0,0,89,0,0,0,94,4.021,4.04,4.034,4.045,4.038,4.044,0,,160.2984985,40.4,6,P-GPS,
16200,2022-10-12 10:56:51,45.4388909072552,9.05588074654999,40.8,,,160.6984985,14,0,2.65835,3.7521,18,5,24.222,160.6984985,40.8,1.43,2.65835,0,0,-3.9,66.2, 1.2, 1.2,0,0,1024,1024,1611,1024,0,0,89,0,0,0,94,4.021,4.04,4.034,4.045,4.038,4.044,0,,160.6984985,40.8,6,P-GPS,
16300,2022-10-12 10:56:51,45.4388909066568,9.05588071140727,41.2,,,161.0984985,14,0,2.65571,3.75484,18,5,24.222,161.0984985,41.2,1.43,2.65835,0,0,-3.9,66.2, 1.3, 0.9,0,0,1024,1024,1615,1024,0,0,90,0,0,0,94,4.021,4.04,4.034,4.045,4.038,4.044,0,,161.0984985,41.2,6,P-GPS,
16400,2022-10-12 10:56:52,45.4388909102117,9.05588071307993,41.6,,,161.4984985,14,0,2.65596,3.75526,18,5,24.222,161.4984985,41.6,1.43,2.65835,0,0,-3.9,66.3, 1.4, 0.8,0,0,1024,1024,1614,1024,0,0,89,0,0,0,94,4.021,4.04,4.034,4.045,4.038,4.044,0,,161.4984985,41.6,6,P-GPS,
16500,2022-10-12 10:56:52,45.4388908942041,9.05588067981896,42,,,161.8984985,14,0,2.65294,3.7584,18,5,24.222,161.8984985,42,1.43,2.65835,0,0,-3.9,66.3, 1.4, 1.2,0,0,1024,1024,1613,1024,0,0,89,0,0,0,94,4.021,4.04,4.034,4.045,4.038,4.044,0,,161.8984985,42,6,P-GPS,
16600,2022-10-12 10:56:52,45.4388908790294,9.05588062197776,42.4,,,162.2984985,14,0,2.64813,3.76322,18,5,24.222,162.2984985,42.4,1.43,2.65835,0,0,-4,66.3, 1.3, 1.7,0,0,1024,1024,1595,1024,0,0,87,0,0,0,94,4.021,4.04,4.034,4.045,4.038,4.044,0,,162.2984985,42.4,6,P-GPS,
16700,2022-10-12 10:56:52,45.4388908670188,9.05588055232415,42.8,,,162.6984985,14,0,2.64255,3.76882,18,5,24.222,162.6984985,42.8,1.43,2.65835,0,0,-4,66.3, 0.9, 1.9,0,0,1024,1024,1549,1024,0,0,80,0,0,0,94,4.021,4.04,4.034,4.045,4.038,4.044,0,,162.6984985,42.8,6,P-GPS,
16800,2022-10-12 10:56:52,45.4388908529263,9.0558803646104,43.2,,,163.0984985,14,0,2.62812,3.78355,18,5,24.391,163.0984985,43.2,1.43,2.65835,0,0,-4,66.2, 0.4, 2,0,0,1024,1024,1506,1024,0,0,73,0,0,0,94,4.045,4.067,4.064,4.073,4.066,4.076,0,,163.0984985,43.2,6,P-GPS,
16900,2022-10-12 10:56:52,45.4388908256189,9.05588025698305,43.6,,,163.4984985,14,0,2.61919,3.79248,18,5,24.391,163.4984985,43.6,1.43,2.65835,0,0,-3.9,66.2, 0.2, 2.3,0,0,1024,1024,1416,1024,0,0,59,0,0,0,94,4.045,4.067,4.064,4.073,4.066,4.076,0,,163.4984985,43.6,6,P-GPS,
17000,2022-10-12 10:56:52,45.4388907926111,9.0558801694246,44,,,163.8984985,14,0,2.61157,3.80023,18,5,24.391,163.8984985,44,1.43,2.65835,0,0,-3.7,66.2, 0.2, 2.6,0,0,1024,1024,1320,1024,0,0,45,0,0,0,94,4.045,4.067,4.064,4.073,4.066,4.076,0,,163.8984985,44,6,P-GPS,
17100,2022-10-12 10:56:52,45.4388907441063,9.05588013538682,44.3,,,164.1984985,14,0,2.6074,3.80625,18,5,24.391,164.1984985,44.3,1.43,2.65835,0,0,-3.3,66.2, 0.1, 2.6,0,0,1024,1024,1282,1024,0,0,39,0,0,0,94,4.045,4.067,4.064,4.073,4.066,4.076,0,,164.1984985,44.3,6,P-GPS,
17200,2022-10-12 10:56:52,45.4388907287859,9.05588011913482,44.6,,,164.4984985,14,0,2.60567,3.80837,18,5,24.391,164.4984985,44.6,1.43,2.65835,0,0,-2.9,66.1, 0, 2.4,0,0,1024,1024,1245,1024,0,0,33,0,0,0,94,4.045,4.067,4.064,4.073,4.066,4.076,0,,164.4984985,44.6,6,P-GPS,
17300,2022-10-12 10:56:52,45.4388906166073,9.05588006120511,44.9,,,164.7984985,14,0,2.59761,3.82164,18,5,24.391,164.7984985,44.9,1.43,2.65835,0,0,-2.4,66.1, -0.2, 2.1,0,0,1024,1024,1194,1024,0,0,26,0,0,0,94,4.045,4.067,4.064,4.073,4.066,4.076,0,,164.7984985,44.9,6,P-GPS,
17400,2022-10-12 10:56:53,45.4388905082164,9.05588002494219,45.1,,,164.9984985,14,0,2.59133,3.83402,18,5,24.391,164.9984985,45.1,1.43,2.65835,0,0,-2,66.1, -0.2, 1.8,0,0,1024,1024,1155,1024,0,0,20,0,0,0,94,4.045,4.067,4.064,4.073,4.066,4.076,0,,164.9984985,45.1,6,P-GPS,
17500,2022-10-12 10:56:53,45.4388904529324,9.0558800453728,45.3,,,165.1984985,14,0,2.59105,3.84037,18,5,24.391,165.1984985,45.3,1.43,2.65835,0,0,-1.5,66.1, -0.2, 1.5,0,0,1024,1024,1106,1024,0,0,12,0,0,0,94,4.045,4.067,4.064,4.073,4.066,4.076,0,,165.1984985,45.3,6,P-GPS,
17700,2022-10-12 10:56:53,45.4388903343255,9.05588017105454,45.5,,,165.3984985,14,0,2.59662,3.85681,18,5,24.223,165.3984985,45.5,1.43,2.65835,0,0,-0.7,66.1, 0.1, 1.1,0,0,1024,1024,1131,1024,0,0,16,0,0,0,94,4.023,4.04,4.035,4.043,4.038,4.044,0,,165.3984985,45.5,6,P-GPS,
17800,2022-10-12 10:56:53,45.4388902771386,9.05588026242225,45.6,,,165.4984985,14,0,2.60164,3.86636,18,5,24.223,165.4984985,45.6,1.43,2.65835,0,0,-0.5,66.2, 0.2, 0.8,0,0,1024,1024,1158,1024,0,0,20,0,0,0,94,4.023,4.04,4.035,4.043,4.038,4.044,0,,165.4984985,45.6,6,P-GPS,
17900,2022-10-12 10:56:53,45.4388902393204,9.05588036892483,45.7,,,165.5984985,14,0,2.60842,3.87568,18,5,24.223,165.5984985,45.7,1.43,2.65835,0,0,-0.3,66.2, 0.3, 0.7,0,0,1024,1024,1177,1024,0,0,23,0,0,0,94,4.023,4.04,4.035,4.043,4.038,4.044,0,,165.5984985,45.7,6,P-GPS,
18000,2022-10-12 10:56:53,45.4388902563523,9.05588059861389,45.7,,,165.5984985,14,0,2.62615,3.8937,18,5,24.223,165.5984985,45.7,1.43,2.65835,0,0,-0.2,66.3, 0.6, 0.7,0,0,1024,1024,1186,1024,0,0,25,0,0,0,94,4.023,4.04,4.035,4.043,4.038,4.044,0,,165.5984985,45.7,6,P-GPS,
18100,2022-10-12 10:56:53,45.4388901850403,9.05588072069544,45.7,,,165.5984985,14,0,2.6331,3.90609,18,5,24.223,165.5984985,45.7,1.43,2.65835,0,0,-0.2,66.3, 0.9, 0.5,0,0,1024,1024,1179,1024,0,0,23,0,0,0,94,4.023,4.04,4.035,4.043,4.038,4.044,0,,165.5984985,45.7,6,P-GPS,
18300,2022-10-12 10:56:53,45.438890090352,9.05588085521818,45.8,,,165.6984985,14,0,2.6403,3.92096,18,5,24.223,165.6984985,45.8,1.43,2.65835,0,0,-0.2,66.4, 1.3, 0,0,0,1024,1024,1188,1024,0,0,25,0,0,0,94,4.023,4.04,4.035,4.043,4.038,4.044,0,,165.6984985,45.8,6,P-GPS,
18400,2022-10-12 10:56:54,45.438890066396,9.05588085862913,45.8,,,165.6984985,14,0,2.63984,3.92364,18,5,24.223,165.6984985,45.8,1.43,2.65835,0,0,-0.2,66.4, 1.5, 0.1,0,0,1024,1024,1188,1024,0,0,25,0,0,0,94,4.023,4.04,4.035,4.043,4.038,4.044,0,,165.6984985,45.8,6,P-GPS,
18500,2022-10-12 10:56:54,45.4388899178379,9.05588071742184,45.9,,,165.7984985,14,0,2.62479,3.9435,18,5,24.223,165.7984985,45.9,1.43,2.65835,0,0,-0.2,66.4, 1.5, 0.3,0,0,1024,1024,1160,1024,0,0,21,0,0,0,94,4.023,4.04,4.035,4.043,4.038,4.044,0,,165.7984985,45.9,6,P-GPS,
18700,2022-10-12 10:56:54,45.4388898917453,9.05588067753583,45.9,,,165.7984985,14,0,2.62102,3.94775,18,5,24.223,165.7984985,45.9,1.43,2.65835,0,0,-0.3,66.4, 1.4, 0.9,0,0,1024,1024,1104,1024,0,0,12,0,0,0,94,4.023,4.04,4.035,4.043,4.038,4.044,0,,165.7984985,45.9,6,P-GPS,
18800,2022-10-12 10:56:54,45.4388899027162,9.05588066177983,45.9,,,165.7984985,14,0,2.62016,3.94948,18,5,24.625,165.7984985,45.9,1.43,2.65835,0,0,-0.2,66.4, 1.3, 1.2,0,0,1024,1024,1054,1024,0,0,5,0,0,0,94,4.097,4.104,4.102,4.11,4.1,4.112,0,,165.7984985,45.9,6,P-GPS,
19000,2022-10-12 10:56:54,45.4388899056067,9.05588078004142,46,,,165.8984985,14,0,2.62914,3.95872,18,5,24.625,165.8984985,46,1.43,2.65835,0,0,-0.1,66.4, 0.9, 1.2,0,0,1024,1024,1031,1024,0,0,1,0,0,0,94,4.097,4.104,4.102,4.11,4.1,4.112,0,,165.8984985,46,6,P-GPS,
19100,2022-10-12 10:56:54,45.4388898750237,9.05588072185226,46,,,165.8984985,14,0,2.62386,3.96439,18,5,24.625,165.8984985,46,1.43,2.65835,0,0,0,66.5, 0.6, 1,0,0,1024,1024,1027,1024,0,0,0,0,0,0,94,4.097,4.104,4.102,4.11,4.1,4.112,0,,165.8984985,46,6,P-GPS,
19300,2022-10-12 10:56:55,45.4388897268206,9.05588060408057,46,,,165.8984985,14,0,2.61068,3.98326,18,5,24.625,165.8984985,46,1.43,2.65835,0,0,0,66.4, 0, 0.6,0,0,1024,1024,1025,1024,0,0,0,0,0,0,94,4.097,4.104,4.102,4.11,4.1,4.112,0,,165.8984985,46,6,P-GPS,
19400,2022-10-12 10:56:55,45.4388896527777,9.05588056499885,46,,,165.8984985,14,0,2.60561,3.99204,18,5,24.625,165.8984985,46,1.43,2.65835,0,0,0,66.4, -0.1, 0.5,0,0,1024,1024,1029,1024,0,0,1,0,0,0,94,4.097,4.104,4.102,4.11,4.1,4.112,0,,165.8984985,46,6,P-GPS,
19500,2022-10-12 10:56:55,45.4388895857656,9.05588055247219,46,,,165.8984985,14,0,2.60276,3.99956,18,5,24.625,165.8984985,46,1.43,2.65835,0,0,0,66.4, -0.1, 0.5,0,0,1024,1024,1029,1024,0,0,1,0,0,0,94,4.097,4.104,4.102,4.11,4.1,4.112,0,,165.8984985,46,6,P-GPS,
19600,2022-10-12 10:56:55,45.4388895275088,9.05588053647353,46,,,165.8984985,14,0,2.59991,4.00615,18,5,24.625,165.8984985,46,1.43,2.65835,0,0,0,66.4, -0.1, 0.7,0,0,1024,1024,1029,1024,0,0,1,0,0,0,94,4.097,4.104,4.102,4.11,4.1,4.112,0,,165.8984985,46,6,P-GPS,
19700,2022-10-12 10:56:55,45.4388893282475,9.05588049963219,46,,,165.8984985,14,0,2.59163,4.0285,18,5,24.625,165.8984985,46,1.43,2.65835,0,0,0,66.4, -0.1, 0.7,0,0,1024,1024,1029,1024,0,0,1,0,0,0,94,4.097,4.104,4.102,4.11,4.1,4.112,0,,165.8984985,46,6,P-GPS,
19800,2022-10-12 10:56:55,45.4388892498563,9.05588044480515,46,,,165.8984985,14,0,2.58536,4.03821,18,5,24.466,165.8984985,46,1.43,2.65835,0,0,0,66.4, -0.1, 0.6,0,0,1024,1024,1030,1024,0,0,1,0,0,0,94,4.068,4.077,4.075,4.083,4.076,4.087,0,,165.8984985,46,6,P-GPS,
19900,2022-10-12 10:56:55,45.4388892203525,9.05588037197409,46,,,165.8984985,14,0,2.57906,4.04477,18,5,24.466,165.8984985,46,1.43,2.65835,0,0,0,66.4, -0.1, 0.6,0,0,1024,1024,1035,1024,0,0,2,0,0,0,94,4.068,4.077,4.075,4.083,4.076,4.087,0,,165.8984985,46,6,P-GPS,
20000,2022-10-12 10:56:55,45.4388891938977,9.05588030082942,46,,,165.8984985,14,0,2.57296,4.05105,18,5,24.466,165.8984985,46,1.43,2.65835,0,0,0,66.3, -0.2, 0.6,0,0,1024,1024,1034,1024,0,0,2,0,0,0,94,4.068,4.077,4.075,4.083,4.076,4.087,0,,165.8984985,46,6,P-GPS,
20100,2022-10-12 10:56:55,45.4388891270077,9.05588028175251,46,,,165.8984985,14,0,2.56974,4.05864,18,5,24.466,165.8984985,46,1.43,2.65835,0,0,0,66.3, -0.3, 0.7,0,0,1024,1024,1029,1024,0,0,1,0,0,0,94,4.068,4.077,4.075,4.083,4.076,4.087,0,,165.8984985,46,6,P-GPS,
20200,2022-10-12 10:56:55,45.4388890327998,9.05588032408646,46,,,165.8984985,14,0,2.57048,4.06963,18,5,24.466,165.8984985,46,1.43,2.65835,0,0,0,66.2, -0.4, 0.8,0,0,1024,1024,1032,1024,0,0,1,0,0,0,94,4.068,4.077,4.075,4.083,4.076,4.087,0,,165.8984985,46,6,P-GPS,
20300,2022-10-12 10:56:56,45.4388890021744,9.05588033604997,46,,,165.8984985,14,0,2.5706,4.07316,18,5,24.466,165.8984985,46,1.43,2.65835,0,0,0,66.2, -0.4, 0.8,0,0,1024,1024,1032,1024,0,0,1,0,0,0,94,4.068,4.077,4.075,4.083,4.076,4.087,0,,165.8984985,46,6,P-GPS,
20400,2022-10-12 10:56:56,45.4388889790888,9.05588034294666,46,,,165.8984985,14,0,2.57053,4.07578,18,5,24.466,165.8984985,46,1.43,2.65835,0,0,0,66.1, -0.4, 1,0,0,1024,1024,1034,1024,0,0,2,0,0,0,94,4.068,4.077,4.075,4.083,4.076,4.087,0,,165.8984985,46,6,P-GPS,
20500,2022-10-12 10:56:56,45.4388889598455,9.05588031429009,46,,,165.8984985,14,0,2.56786,4.07888,18,5,24.466,165.8984985,46,1.43,2.65835,0,0,0,66.1, -0.3, 1.2,0,0,1024,1024,1034,1024,0,0,2,0,0,0,94,4.068,4.077,4.075,4.083,4.076,4.087,0,,165.8984985,46,6,P-GPS,
20600,2022-10-12 10:56:56,45.4388889365526,9.05588036489274,46,,,165.8984985,14,0,2.57111,4.0836,18,5,24.466,165.8984985,46,1.43,2.65835,0,0,0,66.1, -0.4, 1.4,0,0,1024,1024,1036,1024,0,0,2,0,0,0,94,4.068,4.077,4.075,4.083,4.076,4.087,0,,165.8984985,46,6,P-GPS,
20700,2022-10-12 10:56:56,45.4388889011824,9.05588037532552,46,,,165.8984985,14,0,2.571,4.08761,18,5,24.466,165.8984985,46,1.43,2.65835,0,0,0,66.1, -0.5, 1.2,0,0,1024,1024,1036,1024,0,0,2,0,0,0,94,4.068,4.077,4.075,4.083,4.076,4.087,0,,165.8984985,46,6,P-GPS,
20900,2022-10-12 10:56:56,45.438888823357,9.05588044093025,46,,,165.8984985,14,0,2.57403,4.09767,18,5,24.466,165.8984985,46,1.43,2.65835,0,0,0,66.1, -0.5, 0.7,0,0,1024,1024,1035,1024,0,0,2,0,0,0,94,4.068,4.077,4.075,4.083,4.076,4.087,0,,165.8984985,46,6,P-GPS,
21000,2022-10-12 10:56:56,45.4388887532725,9.05588055363664,46,,,165.8984985,14,0,2.58087,4.10942,18,5,24.466,165.8984985,46,1.43,2.65835,0,0,0,66.1, -0.4, 0.5,0,0,1024,1024,1033,1024,0,0,1,0,0,0,94,4.068,4.077,4.075,4.083,4.076,4.087,0,,165.8984985,46,6,P-GPS,
21100,2022-10-12 10:56:56,45.4388887283609,9.05588060461167,46,,,165.8984985,14,0,2.58415,4.11427,18,5,24.466,165.8984985,46,1.43,2.65835,0,0,0,66.1, -0.3, 0.6,0,0,1024,1024,1033,1024,0,0,1,0,0,0,94,4.068,4.077,4.075,4.083,4.076,4.087,0,,165.8984985,46,6,P-GPS,
21200,2022-10-12 10:56:56,45.4388887156562,9.05588066421099,46,,,165.8984985,14,0,2.58838,4.11913,18,5,24.466,165.8984985,46,1.43,2.65835,0,0,0,66, -0.1, 1.1,0,0,1024,1024,1033,1024,0,0,1,0,0,0,94,4.068,4.077,4.075,4.083,4.076,4.087,0,,165.8984985,46,6,P-GPS,
21300,2022-10-12 10:56:56,45.4388887109138,9.05588077086161,46,,,165.8984985,14,0,2.59638,4.12747,18,5,24.466,165.8984985,46,1.43,2.65835,0,0,0,66, 0.1, 1.6,0,0,1024,1024,1033,1024,0,0,1,0,0,0,94,4.068,4.077,4.075,4.083,4.076,4.087,0,,165.8984985,46,6,P-GPS,
21400,2022-10-12 10:56:57,45.4388886522576,9.05588097979499,46,,,165.8984985,14,0,2.6109,4.14503,18,5,24.466,165.8984985,46,1.43,2.65835,0,0,0,66, 0.3, 1.9,0,0,1024,1024,1032,1024,0,0,1,0,0,0,94,4.068,4.077,4.075,4.083,4.076,4.087,0,,165.8984985,46,6,P-GPS,
21500,2022-10-12 10:56:57,45.4388886819869,9.05588109278829,46,,,165.8984985,14,0,2.62022,4.15444,18,5,24.466,165.8984985,46,1.43,2.65835,0,0,0,66, 0.5, 1.9,0,0,1024,1024,1024,1024,0,0,0,0,0,0,94,4.068,4.077,4.075,4.083,4.076,4.087,0,,165.8984985,46,6,P-GPS,
21600,2022-10-12 10:56:57,45.4388886982872,9.05588121714991,46,,,165.8984985,14,0,2.63009,4.16431,18,5,24.466,165.8984985,46,1.43,2.65835,0,0,0,66, 0.6, 1.6,0,0,1024,1024,1035,1024,0,0,2,0,0,0,94,4.068,4.077,4.075,4.083,4.076,4.087,0,,165.8984985,46,6,P-GPS,
21700,2022-10-12 10:56:57,45.4388886523305,9.05588138081607,46,,,165.8984985,14,0,2.64148,4.17807,18,5,24.466,165.8984985,46,1.43,2.65835,0,0,0,66, 0.8, 1.4,0,0,1024,1024,1031,1024,0,0,1,0,0,0,94,4.068,4.077,4.075,4.083,4.076,4.087,0,,165.8984985,46,6,P-GPS,
21800,2022-10-12 10:56:57,45.4388886058038,9.05588153399603,46,,,165.8984985,14,0,2.65208,4.19109,18,5,24.395,165.8984985,46,1.43,2.65835,0,0,0,66, 0.9, 1.3,0,0,1024,1024,1033,1024,0,0,1,0,0,0,94,4.056,4.067,4.064,4.071,4.065,4.072,0,,165.8984985,46,6,P-GPS,
21900,2022-10-12 10:56:57,45.4388886642576,9.05588191524733,46,,,165.8984985,14,0,2.68253,4.22155,18,5,24.395,165.8984985,46,1.43,2.68253,0,0,0,66, 1, 1.2,0,0,1024,1024,1041,1024,0,0,3,0,0,0,94,4.056,4.067,4.064,4.071,4.065,4.072,0,,165.8984985,46,6,P-GPS,
22000,2022-10-12 10:56:57,45.4388886701583,9.0558820865412,46,,,165.8984985,14,0,2.69574,4.23493,18,5,24.395,165.8984985,46,1.43,2.69574,0,0,0,66.1, 1, 1.3,0,0,1024,1024,1041,1024,0,0,3,0,0,0,94,4.056,4.067,4.064,4.071,4.065,4.072,0,,165.8984985,46,6,P-GPS,
22100,2022-10-12 10:56:57,45.4388886509341,9.05588224868121,46,,,165.8984985,14,0,2.70768,4.24776,18,5,24.395,165.8984985,46,1.43,2.70768,0,0,0,66.1, 1.2, 1.2,0,0,1024,1024,1037,1024,0,0,2,0,0,0,94,4.056,4.067,4.064,4.071,4.065,4.072,0,,165.8984985,46,6,P-GPS,
22300,2022-10-12 10:56:57,45.4388884940396,9.05588253964225,45.9,,,165.7984985,14,0,2.72639,4.27639,18,5,24.395,165.8984985,46,1.43,2.72639,0,0,0,66.2, 1.3, 0.8,0,0,1024,1024,1038,1024,0,0,2,0,0,0,94,4.056,4.067,4.064,4.071,4.065,4.072,0,,165.7984985,45.9,6,P-GPS,
22400,2022-10-12 10:56:57,45.438888430223,9.05588263452928,45.9,,,165.7984985,14,0,2.73226,4.28665,18,5,24.395,165.8984985,46,1.43,2.73226,0,0,0,66.3, 1.2, 0.9,0,0,1024,1024,1038,1024,0,0,2,0,0,0,94,4.056,4.067,4.064,4.071,4.065,4.072,0,,165.7984985,45.9,6,P-GPS,
22500,2022-10-12 10:56:58,45.4388884144157,9.05588272407782,45.9,,,165.7984985,14,0,2.73877,4.29385,18,5,24.395,165.8984985,46,1.43,2.73877,0,0,0,66.4, 1.2, 1,0,0,1024,1024,1042,1024,0,0,3,0,0,0,94,4.056,4.067,4.064,4.071,4.065,4.072,0,,165.7984985,45.9,6,P-GPS,
22600,2022-10-12 10:56:58,45.438888408791,9.05588280929515,45.9,,,165.7984985,14,0,2.74517,4.30053,18,5,24.395,165.8984985,46,1.43,2.74517,0,0,0,66.4, 1.2, 1.2,0,0,1024,1024,1039,1024,0,0,2,0,0,0,94,4.056,4.067,4.064,4.071,4.065,4.072,0,,165.7984985,45.9,6,P-GPS,
22700,2022-10-12 10:56:58,45.4388885188103,9.05588296207831,45.9,,,165.7984985,14,0,2.75925,4.31762,18,5,24.407,165.8984985,46,1.43,2.75925,0,0,0,66.5, 1.3, 1.4,0,0,1024,1024,1027,1024,0,0,0,0,0,0,94,4.058,4.072,4.067,4.073,4.065,4.072,0,,165.7984985,45.9,6,P-GPS,
22900,2022-10-12 10:56:58,45.4388884733438,9.05588315978225,45.9,,,165.7984985,14,0,2.77339,4.33385,18,5,24.407,165.8984985,46,1.43,2.77339,0,0,0,66.6, 1.5, 1.2,0,0,1024,1024,1045,1024,0,0,3,0,0,0,94,4.058,4.072,4.067,4.073,4.065,4.072,0,,165.7984985,45.9,6,P-GPS,
23000,2022-10-12 10:56:58,45.4388884278104,9.05588323590065,45.9,,,165.7984985,14,0,2.77824,4.34165,18,5,24.407,165.8984985,46,1.43,2.77824,0,0,0,66.7, 1.5, 1,0,0,1024,1024,1039,1024,0,0,2,0,0,0,94,4.058,4.072,4.067,4.073,4.065,4.072,0,,165.7984985,45.9,6,P-GPS,
23200,2022-10-12 10:56:58,45.4388883709798,9.05588351016558,45.9,,,165.7984985,14,0,2.79805,4.36397,18,5,24.407,165.8984985,46,1.43,2.79805,0,0,0,66.7, 1.7, 0.5,0,0,1024,1024,1037,1024,0,0,2,0,0,0,94,4.058,4.072,4.067,4.073,4.065,4.072,0,,165.7984985,45.9,6,P-GPS,
23300,2022-10-12 10:56:58,45.4388883081292,9.05588362968167,45.9,,,165.7984985,14,0,2.80591,4.37562,18,5,24.407,165.8984985,46,1.43,2.80591,0,0,0,66.6, 1.9, 0.4,0,0,1024,1024,1029,1024,0,0,1,0,0,0,94,4.058,4.072,4.067,4.073,4.065,4.072,0,,165.7984985,45.9,6,P-GPS,
23400,2022-10-12 10:56:59,45.4388882537314,9.05588372415053,45.9,,,165.7984985,14,0,2.81205,4.38516,18,5,24.407,165.8984985,46,1.43,2.81205,0,0,0,66.6, 1.8, 0.4,0,0,1024,1024,1038,1024,0,0,2,0,0,0,94,4.058,4.072,4.067,4.073,4.065,4.072,0,,165.7984985,45.9,6,P-GPS,
23500,2022-10-12 10:56:59,45.4388882535437,9.05588376292397,45.9,,,165.7984985,14,0,2.81502,4.38818,18,5,24.407,165.8984985,46,1.43,2.81502,0,0,0,66.6, 1.7, 0.5,0,0,1024,1024,1034,1024,0,0,2,0,0,0,94,4.058,4.072,4.067,4.073,4.065,4.072,0,,165.7984985,45.9,6,P-GPS,
