time(millisecond),datetime(utc),latitude,longitude,height_above_takeoff(meters),height_above_ground_at_drone_location(meters),ground_elevation_at_drone_location(meters),altitude_above_seaLevel(meters),height_sonar(meters),speed(m/s),distance(meters),mileage(meters),satellites,gpslevel,voltage(v),max_altitude(meters),max_ascent(meters),max_speed(m/s),max_distance(meters), xSpeed(m/s), ySpeed(m/s), zSpeed(m/s), compass_heading(degrees), pitch(degrees), roll(degrees),isPhoto,isVideo,rc_elevator,rc_aileron,rc_throttle,rc_rudder,rc_elevator(percent),rc_aileron(percent),rc_throttle(percent),rc_rudder(percent),gimbal_heading(degrees),gimbal_pitch(degrees),battery_percent,voltageCell1,voltageCell2,voltageCell3,voltageCell4,voltageCell5,voltageCell6,current(A),battery_temperature(c),altitude(meters),ascent(meters),flycStateRaw,flycState,message
0,2022-10-12 10:38:51,45.4390178678478,9.05610268485387,0,Available with any HD 360 subscription,Available with any HD 360 subscription,119.8862,0.2,0,0,0,15,5,0,119.8862,0,0,0,0,0,0,67.2, 1, 1.3,0,0,1024,1024,1024,1024,0,0,0,0,0,0,27,3.732,3.737,3.738,3.736,3.739,3.733,0,,119.8862,0,41,Motors_Started,"GEO: You are in a Warning Zone (Class D Airspace). Fly with caution."
100,2022-10-12 10:38:51,45.4390178634915,9.05610265480688,0,,,119.8862,0.2,0,0.00239409,0.00239409,15,5,0,119.8862,0,0,0.00239409,0,0,0,67.1, 1, 1.3,0,0,1024,1024,1024,1024,0,0,0,0,0,0,27,3.732,3.737,3.738,3.736,3.739,3.733,0,,119.8862,0,41,Motors_Started,
200,2022-10-12 10:38:51,45.4390178610346,9.05610263175885,0,,,119.8862,0.2,0,0.0042117,0.00421315,15,5,0,119.8862,0,0,0.0042117,0,0,0,67.1, 1, 1.3,0,0,1024,1024,1024,1024,0,0,0,0,0,0,27,3.732,3.737,3.738,3.736,3.739,3.733,0,,119.8862,0,41,Motors_Started,
300,2022-10-12 10:38:51,45.4390178657084,9.05610262983132,0,,,119.8862,0.2,0,0.00429998,0.00475424,15,5,0,119.8862,0,0,0.00429998,0,0,0,67.1, 1, 1.3,0,0,755,502,1024,1606,-41,-79,0,88,0,0,27,3.732,3.737,3.738,3.736,3.739,3.733,0,,119.8862,0,41,Motors_Started,
400,2022-10-12 10:38:51,45.4390179283402,9.05610263931791,0,,,119.8862,0.2,0,0.00760784,0.0117585,15,5,0,119.8862,0,0,0.00760784,0,0,0,67.1, 1.1, 1.3,0,0,1024,778,1024,1024,0,-37,0,0,0,0,27,3.732,3.737,3.738,3.736,3.739,3.733,0,,119.8862,0,41,Motors_Started,"Setting new Return-To-Home altitude to 45m (148 ft). Data Recorder File Index is 162. Setting new Maximum Flight Altitude to 100m (328 ft)"
500,2022-10-12 10:38:51,45.4390179293495,9.05610264232139,0,,,119.8862,0.2,0,0.00760206,0.0120183,15,5,0,119.8862,0,0,0.00760784,0,0,0,67.1, 1.1, 1.3,0,0,1024,1024,1024,1024,0,0,0,0,0,0,27,3.732,3.737,3.738,3.736,3.739,3.733,0,,119.8862,0,41,Motors_Started,
600,2022-10-12 10:38:52,45.4390179335342,9.05610262673169,0,,,119.8862,0.2,0,0.00859811,0.0133208,15,5,0,119.8862,0,0,0.00859811,0,0,0,67.1, 1, 1.4,0,0,1024,1024,1024,1024,0,0,0,0,0,0,27,3.732,3.737,3.738,3.736,3.739,3.733,0,,119.8862,0,41,Motors_Started,
800,2022-10-12 10:38:52,45.4390179311933,9.05610245741292,0,,,119.8862,0.2,0,0.0190941,0.0265353,15,5,0,119.8862,0,0,0.0190941,0,0,0,67.2, 1, 1.3,0,0,1024,1024,1024,1024,0,0,0,0,0,0,27,3.732,3.737,3.738,3.736,3.739,3.733,0,,119.8862,0,41,Motors_Started,
900,2022-10-12 10:38:52,45.4390179313913,9.05610234876577,0,,,119.8862,0.2,0,0.0271602,0.035013,15,5,0,119.8862,0,0,0.0271602,0,0,0,67.2, 1, 1.3,0,0,1024,1024,1024,1024,0,0,0,0,0,0,27,3.732,3.737,3.738,3.736,3.739,3.733,0,,119.8862,0,41,Motors_Started,
1000,2022-10-12 10:38:52,45.4390179023786,9.05610234497556,0,,,119.8862,0.2,0,0.0267972,0.0382529,15,5,0,119.8862,0,0,0.0271602,0,0,0,67.2, 1, 1.3,0,0,1024,1024,1024,1024,0,0,0,0,0,0,27,3.732,3.737,3.738,3.736,3.739,3.733,0,,119.8862,0,41,Motors_Started,
1100,2022-10-12 10:38:52,45.4390178304585,9.05610235950687,0,,,119.8862,0.2,0,0.025725,0.0463308,15,5,0,119.8862,0,0,0.0271602,0,0,0,67.2, 1, 1.3,0,0,1024,1024,1024,1024,0,0,0,0,0,0,27,3.732,3.737,3.738,3.736,3.739,3.733,0,,119.8862,0,41,Motors_Started,
1200,2022-10-12 10:38:52,45.4390177687519,9.05610235475365,0,,,119.8862,0.2,0,0.028016,0.053203,15,5,0,119.8862,0,0,0.028016,0,0,0,67.2, 1, 1.3,0,0,1024,1024,1024,1024,0,0,0,0,0,0,27,3.732,3.737,3.738,3.736,3.739,3.733,0,,119.8862,0,41,Motors_Started,
1300,2022-10-12 10:38:52,45.4390176659908,9.05610232000305,0,,,119.8862,0.2,0,0.0362546,0.064948,15,5,0,119.8862,0,0,0.0362546,0,0,0,67.2, 1, 1.3,0,0,1024,1024,1024,1024,0,0,0,0,0,0,27,3.732,3.737,3.738,3.736,3.739,3.733,0,,119.8862,0,41,Motors_Started,
1400,2022-10-12 10:38:52,45.4390176373239,9.056102280851,0,,,119.8862,0.2,0,0.0406321,0.0693634,15,5,0,119.8862,0,0,0.0406321,0,0,0,67.2, 1, 1.3,0,0,1024,1024,1024,1024,0,0,0,0,0,0,27,3.732,3.737,3.738,3.736,3.739,3.733,0,,119.8862,0,41,Motors_Started,
1500,2022-10-12 10:38:52,45.439017626051,9.05610226059584,0,,,119.8862,0.2,0,0.0426492,0.0713807,15,5,22.415,119.8862,0,0,0.0426492,0,0,0,67.2, 1, 1.3,0,0,1024,1024,1024,1024,0,0,0,0,0,0,27,3.732,3.737,3.738,3.736,3.739,3.733,0,,119.8862,0,10,Assisted_Takeoff,
1600,2022-10-12 10:38:53,45.4390176182664,9.05610223285106,0,,,119.8862,0.2,0,0.0448808,0.0737123,15,5,22.415,119.8862,0,0,0.0448808,0,0,0,67.2, 1, 1.3,0,0,1024,1024,1024,1024,0,0,0,0,0,0,27,3.732,3.737,3.738,3.736,3.739,3.733,0,,119.8862,0,10,Assisted_Takeoff,
1700,2022-10-12 10:38:53,45.4390177271954,9.05610215528335,0,,,119.8862,0.1,0,0.0441835,0.0872538,15,5,22.415,119.8862,0,0,0.0448808,0,0,0,67.2, 1, 1.3,0,0,1024,1024,1024,1024,0,0,0,0,0,0,27,3.732,3.737,3.738,3.736,3.739,3.733,0,,119.8862,0,10,Assisted_Takeoff,
1800,2022-10-12 10:38:53,45.4390177349094,9.05610211482949,0,,,119.8862,0.1,0,0.0468713,0.0905249,15,5,22.415,119.8862,0,0,0.0468713,0,0,0,67.2, 1, 1.3,0,0,1024,1024,1024,1024,0,0,0,0,0,0,27,3.732,3.737,3.738,3.736,3.739,3.733,0,,119.8862,0,10,Assisted_Takeoff,
1900,2022-10-12 10:38:53,45.4390177452134,9.05610211032122,0,,,119.8862,0.1,0,0.0468591,0.0917236,15,5,22.415,119.8862,0,0,0.0468713,0,0,0,67.3, 1, 1.3,0,0,1024,1024,1024,1024,0,0,0,0,0,0,27,3.732,3.737,3.738,3.736,3.739,3.733,0,,119.8862,0,10,Assisted_Takeoff,
2000,2022-10-12 10:38:53,45.4390177481777,9.05610209455831,0,,,119.8862,0.1,0,0.0479446,0.0929969,15,5,22.415,119.8862,0,0,0.0479446,0,0,0,67.3, 1, 1.3,0,0,1024,1024,1024,1024,0,0,0,0,0,0,27,3.732,3.737,3.738,3.736,3.739,3.733,0,,119.8862,0,10,Assisted_Takeoff,
2100,2022-10-12 10:38:53,45.4390177031647,9.05610205374581,0,,,119.8862,0.1,0,0.0525403,0.0989298,15,5,22.415,119.8862,0,0,0.0525403,0,0,0,67.3, 1, 1.3,0,0,1024,1024,1024,1024,0,0,0,0,0,0,27,3.732,3.737,3.738,3.736,3.739,3.733,0,,119.8862,0,10,Assisted_Takeoff,
2200,2022-10-12 10:38:53,45.4390176787407,9.05610200491716,0,,,119.8862,0.1,0,0.0570712,0.103609,15,5,22.415,119.8862,0,0,0.0570712,0,0,0,67.3, 1, 1.3,0,0,1024,1024,1024,1024,0,0,0,0,0,0,27,3.732,3.737,3.738,3.736,3.739,3.733,0,,119.8862,0,10,Assisted_Takeoff,
2300,2022-10-12 10:38:53,45.4390176814117,9.05610197824909,0,,,119.8862,0.1,0,0.0589054,0.105711,15,5,22.415,119.8862,0,0,0.0589054,0,0,0,67.3, 1, 1.3,0,0,1024,1024,1024,1024,0,0,0,0,0,0,27,3.732,3.737,3.738,3.736,3.739,3.733,0,,119.8862,0,10,Assisted_Takeoff,
2400,2022-10-12 10:38:53,45.4390176875888,9.05610194430887,0,,,119.8862,0.1,0,0.0611628,0.108447,15,5,22.455,119.8862,0,0,0.0611628,0,0,0,67.3, 1, 1.3,0,0,1024,1024,1024,1024,0,0,0,0,0,0,27,3.739,3.743,3.745,3.743,3.744,3.741,0,,119.8862,0,10,Assisted_Takeoff,
2500,2022-10-12 10:38:53,45.4390176961948,9.05610187257871,0,,,119.8862,0.1,0,0.0661938,0.114125,15,5,22.455,119.8862,0,0,0.0661938,0,0,0,67.3, 1, 1.3,0,0,1024,1024,1024,1024,0,0,0,0,0,0,27,3.739,3.743,3.745,3.743,3.744,3.741,0,,119.8862,0,10,Assisted_Takeoff,
2600,2022-10-12 10:38:54,45.439017735735,9.05610181012148,0,,,119.8862,0.1,0,0.0698184,0.120689,15,5,22.455,119.8862,0,0,0.0698184,0,0,0,67.3, 1, 1.3,0,0,1024,1024,1024,1024,0,0,0,0,0,0,27,3.739,3.743,3.745,3.743,3.744,3.741,0,,119.8862,0,10,Assisted_Takeoff,
2700,2022-10-12 10:38:54,45.4390177393107,9.056101780717,0,,,119.8862,0.1,0,0.0719831,0.123018,15,5,22.455,119.8862,0,0,0.0719831,0,0,0,67.3, 1, 1.3,0,0,1024,1024,1024,1024,0,0,0,0,0,0,27,3.739,3.743,3.745,3.743,3.744,3.741,0,,119.8862,0,10,Assisted_Takeoff,
2800,2022-10-12 10:38:54,45.4390177394564,9.05610174879208,0,,,119.8862,0.1,0,0.0744231,0.125509,15,5,22.455,119.8862,0,0,0.0744231,0,0,0,67.3, 1, 1.3,0,0,1024,1024,1024,1024,0,0,0,0,0,0,27,3.739,3.743,3.745,3.743,3.744,3.741,0,,119.8862,0,10,Assisted_Takeoff,
2900,2022-10-12 10:38:54,45.4390177315979,9.05610173299101,0,,,119.8862,0.1,0,0.0758034,0.12702,15,5,22.455,119.8862,0,0,0.0758034,0,0,0,67.3, 1, 1.3,0,0,1024,1024,1024,1024,0,0,0,0,0,0,27,3.739,3.743,3.745,3.743,3.744,3.741,0,,119.8862,0,10,Assisted_Takeoff,
3000,2022-10-12 10:38:54,45.4390177285092,9.05610185238612,0,,,119.8862,0.1,0,0.0667799,0.136343,15,5,22.455,119.8862,0,0,0.0758034,0,0,0,67.3, 1, 1.3,0,0,1024,1024,1024,1024,0,0,0,0,0,0,27,3.739,3.743,3.745,3.743,3.744,3.741,0,,119.8862,0,10,Assisted_Takeoff,
3100,2022-10-12 10:38:54,45.4390176770416,9.05610179561306,0,,,119.8862,0.1,0,0.0725591,0.143581,15,5,22.455,119.8862,0,0,0.0758034,0,0,0,67.3, 1, 1.3,0,0,1024,1024,1024,1024,0,0,0,0,0,0,27,3.739,3.743,3.745,3.743,3.744,3.741,0,,119.8862,0,10,Assisted_Takeoff,
3200,2022-10-12 10:38:54,45.4390176364079,9.05610174629376,0,,,119.8862,0.1,0,0.0776265,0.149516,15,5,22.455,119.8862,0,0,0.0776265,0,0,0,67.3, 1, 1.3,0,0,1024,1024,1024,1024,0,0,0,0,0,0,27,3.739,3.743,3.745,3.743,3.744,3.741,0,,119.8862,0,10,Assisted_Takeoff,
3300,2022-10-12 10:38:54,45.4390176218832,9.05610172560364,0,,,119.8862,0.1,0,0.0796913,0.1518,15,5,22.455,119.8862,0,0,0.0796913,0,0,0,67.3, 1, 1.3,0,0,1024,1024,1024,1024,0,0,0,0,0,0,27,3.739,3.743,3.745,3.743,3.744,3.741,0,,119.8862,0,10,Assisted_Takeoff,
3400,2022-10-12 10:38:54,45.4390175374288,9.05610174733231,0,,,119.8862,0.1,0,0.0818643,0.161343,15,5,22.455,119.8862,0,0,0.0818643,0,0,0,67.3, 1, 1.3,0,0,1024,1024,1024,1024,0,0,0,0,0,0,27,3.739,3.743,3.745,3.743,3.744,3.741,0,,119.8862,0,10,Assisted_Takeoff,
3500,2022-10-12 10:38:54,45.4390175429901,9.05610170866101,0,,,119.8862,0.1,0,0.0843047,0.164424,15,5,22.443,119.8862,0,0,0.0843047,0,0,0,67.3, 0.9, 1.3,0,0,1024,1024,1024,1024,0,0,0,0,0,0,27,3.737,3.74,3.743,3.741,3.744,3.738,0,,119.8862,0,10,Assisted_Takeoff,
3600,2022-10-12 10:38:55,45.4390175507206,9.05610168188496,0,,,119.8862,0.1,0,0.0858404,0.166683,15,5,22.443,119.8862,0,0,0.0858404,0,0,0,67.3, 1, 1.3,0,0,1024,1024,1024,1024,0,0,0,0,0,0,27,3.737,3.74,3.743,3.741,3.744,3.738,0,,119.8862,0,10,Assisted_Takeoff,
3700,2022-10-12 10:38:55,45.4390175545089,9.0561016873093,0,,,119.8862,0.1,0,0.0852817,0.16728,15,5,22.443,119.8862,0,0,0.0858404,0,0,0,67.3, 1, 1.3,0,0,1024,1024,1077,1024,0,0,8,0,0,0,27,3.737,3.74,3.743,3.741,3.744,3.738,0,,119.8862,0,10,Assisted_Takeoff,
3800,2022-10-12 10:38:55,45.439017565583,9.056101692966,0,,,119.8862,0.1,0,0.0843809,0.168588,15,5,22.443,119.8862,0,0,0.0858404,0,0,0,67.3, 1, 1.3,0,0,1024,1024,1278,1024,0,0,38,0,0,0,27,3.737,3.74,3.743,3.741,3.744,3.738,0,,119.8862,0,10,Assisted_Takeoff,
3900,2022-10-12 10:38:55,45.4390176046408,9.0561016783374,0,,,119.8862,0.1,0,0.0838153,0.173079,15,5,22.443,119.8862,0,0,0.0858404,0,0,0,67.3, 1, 1.3,0,0,1024,1024,1224,1024,0,0,30,0,0,0,27,3.737,3.74,3.743,3.741,3.744,3.738,0,,119.8862,0,10,Assisted_Takeoff,
4000,2022-10-12 10:38:55,45.4390176347074,9.05610166371758,0,,,119.8862,0.1,0,0.083791,0.176612,15,5,22.443,119.8862,0,0,0.0858404,0,0,0,67.3, 1, 1.3,0,0,1024,1024,1225,1024,0,0,30,0,0,0,27,3.737,3.74,3.743,3.741,3.744,3.738,0,,119.8862,0,10,Assisted_Takeoff,
4100,2022-10-12 10:38:55,45.4390176347629,9.05610166207925,0,,,119.8862,0.1,0,0.0839107,0.17674,15,5,22.443,119.8862,0,0,0.0858404,0,0,0,67.3, 0.9, 1.3,0,0,1024,1024,1207,1039,0,0,28,2,0,0,27,3.737,3.74,3.743,3.741,3.744,3.738,0,,119.8862,0,10,Assisted_Takeoff,
4200,2022-10-12 10:38:55,45.4390176319528,9.05610166729184,0,,,119.8862,0.1,0,0.0836215,0.177253,15,5,22.443,119.8862,0,0,0.0858404,0,0,0,67.3, 0.9, 1.3,0,0,1024,1024,1230,1024,0,0,31,0,0,0,27,3.737,3.74,3.743,3.741,3.744,3.738,0,,119.8862,0,10,Assisted_Takeoff,
4300,2022-10-12 10:38:55,45.4390176381102,9.05610173697275,0,,,119.8862,0.1,0,0.0782511,0.182733,15,5,22.443,119.8862,0,0,0.0858404,0,0,0,67.3, 0.9, 1.3,0,0,1024,1024,1218,1024,0,0,29,0,0,0,27,3.737,3.74,3.743,3.741,3.744,3.738,0,,119.8862,0,10,Assisted_Takeoff,
4400,2022-10-12 10:38:55,45.4390176337777,9.0561017260653,0,,,119.8862,0.1,0,0.079213,0.183711,15,5,22.443,119.8862,0,0,0.0858404,0,0,0,67.3, 0.9, 1.3,0,0,1024,1024,1247,1024,0,0,34,0,0,0,27,3.737,3.74,3.743,3.741,3.744,3.738,0,,119.8862,0,10,Assisted_Takeoff,
4500,2022-10-12 10:38:56,45.4390176283929,9.05610167958351,0,,,119.8862,0.1,0,0.0828377,0.187387,15,5,22.446,119.8862,0,0,0.0858404,0,0,0,67.3, 0.9, 1.3,0,0,1024,1024,1271,1024,0,0,37,0,0,0,27,3.737,3.742,3.743,3.741,3.744,3.739,0,,119.8862,0,10,Assisted_Takeoff,
4600,2022-10-12 10:38:56,45.4390176132829,9.0561016415551,0,,,119.8862,0.1,0,0.0861901,0.190797,15,5,22.446,119.8862,0,0,0.0861901,0,0,0,67.4, 1, 1.3,0,0,1024,1024,1268,1024,0,0,37,0,0,0,27,3.737,3.742,3.743,3.741,3.744,3.739,0,,119.8862,0,10,Assisted_Takeoff,
4700,2022-10-12 10:38:56,45.4390174825142,9.05610158639939,0,,,119.8862,0.1,0,0.095827,0.205963,15,5,22.446,119.8862,0,0,0.095827,0,0,0,67.4, 1, 1.3,0,0,1024,1024,1211,1024,0,0,28,0,0,0,27,3.737,3.742,3.743,3.741,3.744,3.739,0,,119.8862,0,10,Assisted_Takeoff,
4800,2022-10-12 10:38:56,45.4390174358575,9.05610156856319,0,,,119.8862,0.1,0,0.0994732,0.211335,15,5,22.446,119.8862,0,0,0.0994732,0,0,0,67.4, 1.1, 1.3,0,0,1024,1024,1211,1024,0,0,28,0,0,0,27,3.737,3.742,3.743,3.741,3.744,3.739,0,,119.8862,0,10,Assisted_Takeoff,
4900,2022-10-12 10:38:56,45.4390174196357,9.0561015555153,0,,,119.8862,0.1,0,0.101242,0.213406,15,5,22.446,119.8862,0,0,0.101242,0,0,0,67.6, 1.5, 1.2,0,0,1024,1024,1221,1024,0,0,30,0,0,0,27,3.737,3.742,3.743,3.741,3.744,3.739,0,,119.8862,0,10,Assisted_Takeoff,
5000,2022-10-12 10:38:56,45.4390173998204,9.05610151050015,0,,,119.8862,0.1,0,0.105384,0.217553,15,5,22.446,119.8862,0,0,0.105384,0,0,0,68, 1.9, 1,0,0,1024,1024,1221,1024,0,0,30,0,0,0,27,3.737,3.742,3.743,3.741,3.744,3.739,0,,119.8862,0,10,Assisted_Takeoff,
5100,2022-10-12 10:38:56,45.4390174286404,9.05610136820848,0,,,119.8862,0.1,0,0.113757,0.229109,15,5,22.446,119.8862,0,0,0.113757,0,0,-0.2,68.3, 2.2, 0.4,0,0,1024,1024,1215,1024,0,0,29,0,0,0,27,3.737,3.742,3.743,3.741,3.744,3.739,0,,119.8862,0,6,P-GPS,
5200,2022-10-12 10:38:56,45.4390173928875,9.05610120615917,0,,,119.8862,0.2,0.1,0.126897,0.242364,15,5,22.446,119.8862,0,0.1,0.126897,0,-0.1,-0.3,68.4, 1.6, 0,0,0,1024,1024,1215,1024,0,0,29,0,0,0,27,3.737,3.742,3.743,3.741,3.744,3.739,0,,119.8862,0,6,P-GPS,
5300,2022-10-12 10:38:56,45.4390173581864,9.05610100928791,0.1,,,119.9862,0.2,0.1,0.1425,0.258203,15,5,22.446,119.9862,0.1,0.1,0.1425,0,-0.1,-0.4,68.4, 0.2, -0.2,0,0,1024,1024,1207,1024,0,0,28,0,0,0,27,3.737,3.742,3.743,3.741,3.744,3.739,0,,119.9862,0.1,6,P-GPS,
5400,2022-10-12 10:38:56,45.4390173225574,9.05610079122329,0.1,,,119.9862,0.3,0.1,0.159719,0.275674,15,5,22.446,119.9862,0.1,0.1,0.159719,0,-0.1,-0.5,68.4, -1, 0,0,0,1024,1024,1227,1024,0,0,31,0,0,0,27,3.737,3.742,3.743,3.741,3.744,3.739,0,,119.9862,0.1,6,P-GPS,
5500,2022-10-12 10:38:57,45.4390172273584,9.05610056385598,0.2,,,120.0862,0.3,0.1,0.180177,0.296334,15,5,22.095,120.0862,0.2,0.1,0.180177,0,-0.1,-0.5,68.5, -1.6, 0.5,0,0,1024,1024,1243,1024,0,0,33,0,0,0,27,3.668,3.69,3.683,3.683,3.69,3.681,0,,120.0862,0.2,6,P-GPS,
5600,2022-10-12 10:38:57,45.4390171692571,9.05610033657832,0.2,,,120.0862,0.4,0.1,0.199024,0.315209,15,5,22.095,120.0862,0.2,0.1,0.199024,0,-0.1,-0.5,68.5, -1.7, 0.8,0,0,1024,1024,1160,1024,0,0,21,0,0,0,27,3.668,3.69,3.683,3.683,3.69,3.681,0,,120.0862,0.2,6,P-GPS,
5700,2022-10-12 10:38:57,45.4390171170855,9.05610009097838,0.3,,,120.1862,0.5,0.1,0.218943,0.335232,15,5,22.095,120.1862,0.3,0.1,0.218943,0,-0.1,-0.5,68.6, -1.5, 0.8,0,0,1024,1024,1194,1024,0,0,26,0,0,0,27,3.668,3.69,3.683,3.683,3.69,3.681,0,,120.1862,0.3,6,P-GPS,
5800,2022-10-12 10:38:57,45.4390170600162,9.05609989689236,0.3,,,120.1862,0.5,0.1,0.235363,0.351652,15,5,22.095,120.1862,0.3,0.1,0.235363,0,-0.1,-0.5,68.6, -1.4, 0.5,0,0,1024,1024,1220,1024,0,0,30,0,0,0,27,3.668,3.69,3.683,3.683,3.69,3.681,0,,120.1862,0.3,6,P-GPS,
5900,2022-10-12 10:38:57,45.4390169733488,9.0560998036327,0.4,,,120.2862,0.6,0.1,0.245844,0.363729,15,5,22.095,120.2862,0.4,0.1,0.245844,0,-0.1,-0.4,68.6, -1.6, 0.7,0,0,1024,1024,1193,1024,0,0,26,0,0,0,27,3.668,3.69,3.683,3.683,3.69,3.681,0,,120.2862,0.4,6,P-GPS,
6000,2022-10-12 10:38:57,45.4390167860607,9.05609978410208,0.4,,,120.2862,0.6,0,0.256329,0.384612,15,5,22.095,120.2862,0.4,0.1,0.256329,0,0,-0.4,68.6, -2, 0.6,0,0,1024,1024,1205,1024,0,0,27,0,0,0,27,3.668,3.69,3.683,3.683,3.69,3.681,0,,120.2862,0.4,6,P-GPS,
6100,2022-10-12 10:38:57,45.43901668258,9.05609965301279,0.4,,,120.2862,0.7,0,0.270815,0.400009,15,5,22.095,120.2862,0.4,0.1,0.270815,0,0,-0.3,68.5, -2.1, 0.1,0,0,1024,1024,1277,1024,0,0,38,0,0,0,27,3.668,3.69,3.683,3.683,3.69,3.681,0,,120.2862,0.4,6,P-GPS,
6200,2022-10-12 10:38:57,45.4390166003863,9.05609956788297,0.5,,,120.3862,0.7,0,0.281107,0.411308,14,5,22.095,120.3862,0.5,0.1,0.281107,0,0,-0.3,68.4, -2, -0.2,0,0,1024,1024,1308,1024,0,0,43,0,0,0,27,3.668,3.69,3.683,3.683,3.69,3.681,0,,120.3862,0.5,6,P-GPS,
6300,2022-10-12 10:38:57,45.4390165667198,9.05609956590888,0.5,,,120.3862,0.7,0,0.283135,0.415055,14,5,22.095,120.3862,0.5,0.1,0.283135,0,0,-0.3,68.4, -1.7, -0.2,0,0,1024,1024,1345,1024,0,0,49,0,0,0,27,3.668,3.69,3.683,3.683,3.69,3.681,0,,120.3862,0.5,6,P-GPS,
6400,2022-10-12 10:38:57,45.4390164843075,9.05609967231219,0.5,,,120.3862,0.8,0,0.280943,0.427422,15,5,22.095,120.3862,0.5,0.1,0.283135,0,0,-0.5,68.4, -1.2, -0.3,0,0,1024,1024,1352,1024,0,0,50,0,0,0,27,3.668,3.69,3.683,3.683,3.69,3.681,0,,120.3862,0.5,6,P-GPS,
6500,2022-10-12 10:38:57,45.4390164470772,9.0560996418913,0.6,,,120.4862,0.8,0,0.285205,0.432194,15,5,22.086,120.4862,0.6,0.1,0.285205,0,0,-0.6,68.5, -1.1, -0.4,0,0,1024,1024,1318,1024,0,0,45,0,0,0,27,3.667,3.688,3.683,3.683,3.687,3.678,0,,120.4862,0.6,6,P-GPS,
6600,2022-10-12 10:38:58,45.4390164449155,9.05609959197985,0.7,,,120.5862,0.9,0,0.288587,0.436096,15,5,22.086,120.5862,0.7,0.1,0.288587,0,0,-0.8,68.5, -1.4, 0,0,0,1024,1024,1281,1024,0,0,39,0,0,0,27,3.667,3.688,3.683,3.683,3.687,3.678,0,,120.5862,0.7,6,P-GPS,
6700,2022-10-12 10:38:58,45.4390165215452,9.05609949963588,0.8,,,120.6862,1,0,0.290152,0.447256,15,5,22.086,120.6862,0.8,0.1,0.290152,0,0,-1,68.4, -1.3, 0.4,0,0,1024,1024,1320,1024,0,0,45,0,0,0,27,3.667,3.688,3.683,3.683,3.687,3.678,0,,120.6862,0.8,6,P-GPS,
6800,2022-10-12 10:38:58,45.4390166404041,9.05609931547331,0.9,,,120.7862,1.1,0,0.296234,0.46678,15,5,22.086,120.7862,0.9,0.1,0.296234,0,0,-1,68.2, -1.2, 0.4,0,0,1024,1024,1337,1034,0,0,47,2,0,0,27,3.667,3.688,3.683,3.683,3.687,3.678,0,,120.7862,0.9,6,P-GPS,
6900,2022-10-12 10:38:58,45.439016668535,9.05609920315347,1,,,120.8862,1.2,0,0.302648,0.476086,15,5,22.086,120.8862,1,0.1,0.302648,0,0,-1,67.8, -1.3, 0.2,0,0,1024,1024,1320,1024,0,0,45,0,0,0,27,3.667,3.688,3.683,3.683,3.687,3.678,0,,120.8862,1,6,P-GPS,
7000,2022-10-12 10:38:58,45.4390166998398,9.05609910016913,1.1,,,120.9862,1.4,0,0.308399,0.484844,15,5,22.086,120.9862,1.1,0.1,0.308399,0,0,-1.1,67.7, -1.7, 0.2,0,0,1024,1024,1321,1024,0,0,45,0,0,0,27,3.667,3.688,3.683,3.683,3.687,3.678,0,,120.9862,1.1,6,P-GPS,
7100,2022-10-12 10:38:58,45.439016740932,9.05609905374151,1.2,,,121.0862,1.5,0,0.309812,0.490675,15,5,22.086,121.0862,1.2,0.1,0.309812,0,0,-1.1,67.5, -2.2, 0.9,0,0,1024,1024,1318,1024,0,0,45,0,0,0,27,3.667,3.688,3.683,3.683,3.687,3.678,0,,121.0862,1.2,6,P-GPS,
7200,2022-10-12 10:38:58,45.4390166401952,9.05609908004827,1.4,,,121.2862,1.6,0,0.312663,0.502064,14,5,22.086,121.2862,1.4,0.1,0.312663,0,0,-1.1,67.4, -2.7, 1.6,0,0,1024,1024,1311,1024,0,0,43,0,0,0,27,3.667,3.688,3.683,3.683,3.687,3.678,0,,121.2862,1.4,6,P-GPS,
7300,2022-10-12 10:38:58,45.4390166027431,9.05609909900314,1.5,,,121.3862,1.7,0,0.313182,0.506484,14,5,22.086,121.3862,1.5,0.1,0.313182,0,0,-1.1,67.3, -3, 1.4,0,0,1024,1024,1344,1024,0,0,48,0,0,0,27,3.667,3.688,3.683,3.683,3.687,3.678,0,,121.3862,1.5,6,P-GPS,
7400,2022-10-12 10:38:58,45.4390165729999,9.05609915742445,1.6,,,121.4862,1.9,0,0.310635,0.512116,15,5,22.086,121.4862,1.6,0.1,0.313182,0,0,-1.1,67.3, -2.7, 0.9,0,0,1024,1024,1358,1024,0,0,51,0,0,0,27,3.667,3.688,3.683,3.683,3.687,3.678,0,,121.4862,1.6,6,P-GPS,
7500,2022-10-12 10:38:58,45.4390165985946,9.05609921106583,1.7,,,121.5862,2,0,0.305607,0.517178,15,5,22.086,121.5862,1.7,0.1,0.313182,0,0,-1.1,67.3, -2, 0.6,0,0,1024,1024,1358,1024,0,0,51,0,0,0,27,3.667,3.688,3.683,3.683,3.687,3.678,0,,121.5862,1.7,6,P-GPS,
7600,2022-10-12 10:38:58,45.4390166389845,9.05609930029301,1.9,,,121.7862,2.1,0,0.297359,0.525463,15,5,22.086,121.7862,1.9,0.1,0.313182,0,0,-1.2,67.3, -1.3, 0.3,0,0,1024,1024,1382,1024,0,0,54,0,0,0,27,3.667,3.688,3.683,3.683,3.687,3.678,0,,121.7862,1.9,6,P-GPS,
7700,2022-10-12 10:38:59,45.4390168877688,9.05609952729328,2,,,121.8862,2.2,0,0.269414,0.558314,15,5,22.01,121.8862,2,0.1,0.313182,0,0,-1.3,67.3, -1, 0,0,0,1024,1024,1380,1024,0,0,54,0,0,0,27,3.652,3.675,3.67,3.668,3.677,3.668,0,,121.8862,2,6,P-GPS,
7800,2022-10-12 10:38:59,45.439016966419,9.05609970585485,2.1,,,121.9862,2.4,0,0.253145,0.574765,16,5,22.01,121.9862,2.1,0.1,0.313182,0,0,-1.3,67.4, -0.8, -0.1,0,0,1024,1024,1374,1024,0,0,53,0,0,0,27,3.652,3.675,3.67,3.668,3.677,3.668,0,,121.9862,2.1,6,P-GPS,
7900,2022-10-12 10:38:59,45.4390169972935,9.05609991447828,2.3,,,122.1862,2.5,0,0.23686,0.591402,16,5,22.01,122.1862,2.3,0.1,0.313182,0,0,-1.4,67.4, -0.6, -0.2,0,0,1024,1024,1352,1024,0,0,50,0,0,0,27,3.652,3.675,3.67,3.668,3.677,3.668,0,,122.1862,2.3,6,P-GPS,
8000,2022-10-12 10:38:59,45.4390170227627,9.05610009128247,2.4,,,122.2862,2.7,0,0.223132,0.605486,16,5,22.01,122.2862,2.4,0.1,0.313182,0,0,-1.5,67.4, -0.6, -0.4,0,0,1024,1024,1392,1024,0,0,56,0,0,0,27,3.652,3.675,3.67,3.668,3.677,3.668,0,,122.2862,2.4,6,P-GPS,
8200,2022-10-12 10:38:59,45.4390169904422,9.05610035477966,2.7,,,122.5862,3,0,0.206342,0.626358,15,5,22.01,122.5862,2.7,0.1,0.313182,0,0,-1.4,67.5, -0.5, -0.5,0,0,1024,1024,1409,1024,0,0,58,0,0,0,27,3.652,3.675,3.67,3.668,3.677,3.668,0,,122.5862,2.7,6,P-GPS,
8300,2022-10-12 10:38:59,45.4390170630679,9.05610052270352,2.9,,,122.7862,3.2,0,0.19098,0.64175,15,5,22.01,122.7862,2.9,0.1,0.313182,0,0,-1.5,67.5, -0.4, -0.1,0,0,1024,1024,1402,1024,0,0,57,0,0,0,27,3.652,3.675,3.67,3.668,3.677,3.668,0,,122.7862,2.9,6,P-GPS,
8400,2022-10-12 10:38:59,45.4390171410802,9.0561006619879,3.1,,,122.9862,3.3,0,0.177332,0.655657,16,5,22.01,122.9862,3.1,0.1,0.313182,0,0,-1.6,67.6, -0.4, 0.4,0,0,1024,1024,1353,1024,0,0,50,0,0,0,27,3.652,3.675,3.67,3.668,3.677,3.668,0,,122.9862,3.1,6,P-GPS,
8500,2022-10-12 10:38:59,45.4390172969917,9.05610095363277,3.2,,,123.0862,3.5,0,0.14926,0.684266,16,5,22.01,123.0862,3.2,0.1,0.313182,0,0,-1.7,67.6, -0.4, 1.2,0,0,1024,1024,1377,1024,0,0,53,0,0,0,27,3.652,3.675,3.67,3.668,3.677,3.668,0,,123.0862,3.2,6,P-GPS,
8600,2022-10-12 10:39:00,45.4390173464068,9.05610109426741,3.4,,,123.2862,3.7,0,0.136991,0.696539,16,5,21.928,123.2862,3.4,0.1,0.313182,0,0,-1.7,67.6, -0.3, 1.1,0,0,1024,1024,1425,1024,0,0,61,0,0,0,27,3.637,3.663,3.655,3.655,3.665,3.653,0,,123.2862,3.4,6,P-GPS,
8700,2022-10-12 10:39:00,45.4390173129582,9.0561011783564,3.6,,,123.4862,3.8,0,0.132764,0.704081,16,5,21.928,123.4862,3.6,0.1,0.313182,0,0,-1.6,67.7, 0, 0.2,0,0,1024,1024,1409,1024,0,0,58,0,0,0,27,3.637,3.663,3.655,3.655,3.665,3.653,0,,123.4862,3.6,6,P-GPS,
8800,2022-10-12 10:39:00,45.4390172780767,9.05610124679197,3.7,,,123.5862,4,0,0.129973,0.710681,16,5,21.928,123.5862,3.7,0.1,0.313182,0,0,-1.6,67.8, 0.1, -0.4,0,0,1024,1024,1423,1024,0,0,60,0,0,0,27,3.637,3.663,3.655,3.655,3.665,3.653,0,,123.5862,3.7,6,P-GPS,
8900,2022-10-12 10:39:00,45.4390172807844,9.05610116081398,3.9,,,123.7862,4.2,0,0.135662,0.717397,16,5,21.928,123.7862,3.9,0.1,0.313182,0,0,-1.7,67.8, 0.1, -0.5,0,0,1024,1024,1447,1024,0,0,64,0,0,0,27,3.637,3.663,3.655,3.655,3.665,3.653,0,,123.7862,3.9,6,P-GPS,
9000,2022-10-12 10:39:00,45.4390172905813,9.05610120063601,4.1,,,123.9862,4.4,0,0.132415,0.72069,16,5,21.928,123.9862,4.1,0.1,0.313182,0,0,-1.8,67.8, -0.2, -0.6,0,0,1024,1024,1416,1024,0,0,59,0,0,0,27,3.637,3.663,3.655,3.655,3.665,3.653,0,,123.9862,4.1,6,P-GPS,
9100,2022-10-12 10:39:00,45.4390172899092,9.05610123349036,4.3,,,124.1862,4.5,0,0.130216,0.723254,16,5,21.928,124.1862,4.3,0.1,0.313182,0,0,-1.8,67.7, -0.4, -0.8,0,0,1024,1024,1417,1024,0,0,60,0,0,0,27,3.637,3.663,3.655,3.655,3.665,3.653,0,,124.1862,4.3,6,P-GPS,
9200,2022-10-12 10:39:00,45.4390172841707,9.05610125215946,4.5,,,124.3862,4.7,0,0.12927,0.724845,16,5,21.928,124.3862,4.5,0.1,0.313182,0,0,-1.9,67.7, -0.3, -1.3,0,0,1024,1024,1418,1024,0,0,60,0,0,0,27,3.637,3.663,3.655,3.655,3.665,3.653,0,,124.3862,4.5,6,P-GPS,
9300,2022-10-12 10:39:00,45.4390172280794,9.05610125722287,4.7,,,124.5862,4.9,0,0.132179,0.731095,16,5,21.928,124.5862,4.7,0.1,0.313182,0,0,-1.9,67.6, -0.3, -1.7,0,0,1024,1024,1434,1025,0,0,62,0,0,0,27,3.637,3.663,3.655,3.655,3.665,3.653,0,,124.5862,4.7,6,P-GPS,
9400,2022-10-12 10:39:00,45.4390171249525,9.05610124523147,4.9,,,124.7862,5.1,0,0.139442,0.742601,16,5,21.928,124.7862,4.9,0.1,0.313182,0,0,-1.9,67.7, -0.4, -1.6,0,0,1024,1024,1416,1045,0,0,59,3,0,0,27,3.637,3.663,3.655,3.655,3.665,3.653,0,,124.7862,4.9,6,P-GPS,
9500,2022-10-12 10:39:00,45.4390171518861,9.0561012267043,5.1,,,124.9862,5.2,0,0.13887,0.745927,16,5,21.928,124.9862,5.1,0.1,0.313182,0,0,-1.9,67.7, -0.7, -1.1,0,0,1024,1024,1413,1024,0,0,59,0,0,0,27,3.637,3.663,3.655,3.655,3.665,3.653,0,,124.9862,5.1,6,P-GPS,
9600,2022-10-12 10:39:01,45.4390171857883,9.05610118811084,5.3,,,125.1862,5.4,0,0.139259,0.750752,16,5,21.928,125.1862,5.3,0.1,0.313182,0,0,-1.9,67.8, -1, -0.3,0,0,1024,1024,1380,1024,0,0,54,0,0,0,27,3.637,3.663,3.655,3.655,3.665,3.653,0,,125.1862,5.3,6,P-GPS,
9700,2022-10-12 10:39:01,45.4390172042801,9.05610114216091,5.5,,,125.3862,5.6,0,0.141194,0.754886,16,5,21.978,125.3862,5.5,0.1,0.313182,0,0,-1.9,67.8, -1.2, 0.2,0,0,1024,1024,1373,1024,0,0,53,0,0,0,27,3.643,3.666,3.665,3.665,3.674,3.665,0,,125.3862,5.5,6,P-GPS,
9800,2022-10-12 10:39:01,45.4390171898948,9.05610115267804,5.7,,,125.5862,5.8,0,0.141342,0.756684,16,5,21.978,125.5862,5.7,0.1,0.313182,0,0,-1.9,67.8, -1.1, 0.5,0,0,1024,1024,1410,1026,0,0,58,0,0,0,27,3.643,3.666,3.665,3.665,3.674,3.665,0,,125.5862,5.7,6,P-GPS,
9900,2022-10-12 10:39:01,45.4390172125249,9.05610110376202,5.9,,,125.7862,6,0,0.143289,0.761256,16,5,21.978,125.7862,5.9,0.1,0.313182,0,0,-1.7,67.8, -0.8, 0.3,0,0,1024,1024,1400,1024,0,0,57,0,0,0,27,3.643,3.666,3.665,3.665,3.674,3.665,0,,125.7862,5.9,6,P-GPS,
10000,2022-10-12 10:39:01,45.4390172168932,9.0561010673708,6,,,125.8862,6.1,0,0.145498,0.764136,16,5,21.978,125.8862,6,0.1,0.313182,0,0,-1.7,67.8, -0.8, -0.1,0,0,1024,1024,1395,1024,0,0,56,0,0,0,27,3.643,3.666,3.665,3.665,3.674,3.665,0,,125.8862,6,6,P-GPS,
10100,2022-10-12 10:39:01,45.4390172025845,9.05610108669844,6.2,,,126.0862,6.3,0,0.144997,0.766329,16,5,21.978,126.0862,6.2,0.1,0.313182,0,0,-1.7,67.7, -1, -0.5,0,0,1024,1024,1390,1024,0,0,55,0,0,0,27,3.643,3.666,3.665,3.665,3.674,3.665,0,,126.0862,6.2,6,P-GPS,
10200,2022-10-12 10:39:01,45.4390171889316,9.05610122030436,6.4,,,126.2862,6.5,0,0.136966,0.776864,16,5,21.978,126.2862,6.4,0.1,0.313182,0,0,-1.7,67.7, -1.2, -0.9,0,0,1024,1024,1432,1024,0,0,62,0,0,0,27,3.643,3.666,3.665,3.665,3.674,3.665,0,,126.2862,6.4,6,P-GPS,
10300,2022-10-12 10:39:01,45.4390172299896,9.05610121924406,6.6,,,126.4862,6.7,0,0.134574,0.781431,16,5,21.978,126.4862,6.6,0.1,0.313182,0,0,-1.7,67.7, -1.3, -1,0,0,1024,1024,1405,1024,0,0,58,0,0,0,27,3.643,3.666,3.665,3.665,3.674,3.665,0,,126.4862,6.6,6,P-GPS,
10400,2022-10-12 10:39:01,45.4390172904635,9.05610121820933,6.7,,,126.5862,6.8,0,0.131224,0.788156,16,5,21.978,126.5862,6.7,0.1,0.313182,0,0,-1.7,67.7, -1.3, -0.4,0,0,1024,1024,1346,1024,0,0,49,0,0,0,27,3.643,3.666,3.665,3.665,3.674,3.665,0,,126.5862,6.7,6,P-GPS,
10500,2022-10-12 10:39:01,45.4390173562497,9.05610124419292,6.9,,,126.7862,7,0,0.125991,0.795748,16,5,21.978,126.7862,6.9,0.1,0.313182,0,0,-1.8,67.8, -1.2, 0.1,0,0,1024,1024,1380,1024,0,0,54,0,0,0,27,3.643,3.666,3.665,3.665,3.674,3.665,0,,126.7862,6.9,6,P-GPS,
10600,2022-10-12 10:39:02,45.4390174424506,9.05610143951322,7.1,,,126.9862,7.2,0,0.108077,0.813753,16,5,21.978,126.9862,7.1,0.1,0.313182,0,0,-1.7,67.8, -1.2, 0.5,0,0,1024,1024,1392,1024,0,0,56,0,0,0,27,3.643,3.666,3.665,3.665,3.674,3.665,0,,126.9862,7.1,6,P-GPS,
10700,2022-10-12 10:39:02,45.4390175216652,9.05610143618048,7.3,,,127.1862,7.3,0.1,0.104763,0.822566,16,5,21.979,127.1862,7.3,0.1,0.313182,0.1,0,-1.5,67.9, -1.1, 1,0,0,1024,1024,1387,1024,0,0,55,0,0,0,27,3.65,3.67,3.663,3.663,3.672,3.661,0,,127.1862,7.3,6,P-GPS,
10800,2022-10-12 10:39:02,45.4390176026614,9.05610144707609,7.4,,,127.2862,7.5,0,0.100985,0.831613,16,5,21.979,127.2862,7.4,0.1,0.313182,0,0,-1.5,68, -0.8, 1.4,0,0,1024,1024,1387,1024,0,0,55,0,0,0,27,3.65,3.67,3.663,3.663,3.672,3.661,0,,127.2862,7.4,6,P-GPS,
10900,2022-10-12 10:39:02,45.4390177020913,9.05610149472197,7.6,,,127.4862,7.7,0,0.0946774,0.843278,16,5,21.979,127.4862,7.6,0.1,0.313182,0,0,-1.6,68.1, -0.8, 1.8,0,0,1024,1024,1399,1024,0,0,57,0,0,0,27,3.65,3.67,3.663,3.663,3.672,3.661,0,,127.4862,7.6,6,P-GPS,
11000,2022-10-12 10:39:02,45.4390177706299,9.05610154034454,7.7,,,127.5862,7.8,0,0.0899578,0.851691,16,5,21.979,127.5862,7.7,0.1,0.313182,0,0,-1.5,68.1, -0.9, 1.7,0,0,1024,1024,1413,1024,0,0,59,0,0,0,27,3.65,3.67,3.663,3.663,3.672,3.661,0,,127.5862,7.7,6,P-GPS,
11100,2022-10-12 10:39:02,45.4390178116117,9.05610167668267,7.9,,,127.7862,8,0,0.0789155,0.863264,16,5,21.979,127.7862,7.9,0.1,0.313182,0,0,-1.6,68.1, -0.9, 1.2,0,0,1024,1024,1420,1035,0,0,60,2,0,0,27,3.65,3.67,3.663,3.663,3.672,3.661,0,,127.7862,7.9,6,P-GPS,
11200,2022-10-12 10:39:02,45.4390178272275,9.05610173471099,8.1,,,127.9862,8.2,0,0.0742769,0.868114,16,5,21.979,127.9862,8.1,0.1,0.313182,0,0,-1.7,68.1, -0.8, 0.5,0,0,1024,1024,1445,1024,0,0,64,0,0,0,27,3.65,3.67,3.663,3.663,3.672,3.661,0,,127.9862,8.1,6,P-GPS,
11300,2022-10-12 10:39:02,45.439017864238,9.0561018247001,8.2,,,128.0862,8.3,0,0.0671188,0.876253,16,5,21.979,128.0862,8.2,0.1,0.313182,0,0,-1.7,68, -0.6, 0.1,0,0,1024,1024,1426,1024,0,0,61,0,0,0,27,3.65,3.67,3.663,3.663,3.672,3.661,0,,128.0862,8.2,6,P-GPS,
11400,2022-10-12 10:39:02,45.4390179015071,9.05610190810307,8.4,,,128.2862,8.5,0,0.0607252,0.883968,16,5,21.979,128.2862,8.4,0.1,0.313182,0,0,-1.9,68, -0.5, -0.1,0,0,1024,1024,1437,1024,0,0,63,0,0,0,27,3.65,3.67,3.663,3.663,3.672,3.661,0,,128.2862,8.4,6,P-GPS,
11500,2022-10-12 10:39:02,45.439017921994,9.05610209463538,8.6,,,128.4862,8.7,0,0.0464466,0.898701,16,5,21.979,128.4862,8.6,0.1,0.313182,0,0,-1.9,68, -0.6, -0.1,0,0,1024,1024,1428,1024,0,0,61,0,0,0,27,3.65,3.67,3.663,3.663,3.672,3.661,0,,128.4862,8.6,6,P-GPS,
11600,2022-10-12 10:39:03,45.4390179485036,9.05610215665155,8.8,,,128.6862,8.9,0,0.0421802,0.904367,16,5,21.979,128.6862,8.8,0.1,0.313182,0,0,-1.9,68, -0.6, 0.1,0,0,1024,1024,1409,1024,0,0,58,0,0,0,27,3.65,3.67,3.663,3.663,3.672,3.661,0,,128.6862,8.8,6,P-GPS,
11700,2022-10-12 10:39:03,45.4390179602355,9.05610223280833,9,,,128.8862,9.1,0,0.0367388,0.910451,16,5,21.928,128.8862,9,0.1,0.313182,0,0,-2,68, -0.6, 0.7,0,0,1024,1024,1417,1024,0,0,60,0,0,0,27,3.638,3.663,3.655,3.655,3.664,3.653,0,,128.8862,9,6,P-GPS,
11800,2022-10-12 10:39:03,45.4390179692372,9.05610229254671,9.2,,,129.0862,9.3,0,0.0326221,0.915219,16,5,21.928,129.0862,9.2,0.1,0.313182,0,0,-1.9,68, -0.6, 1.3,0,0,1024,1024,1408,1024,0,0,58,0,0,0,27,3.638,3.663,3.655,3.655,3.664,3.653,0,,129.0862,9.2,6,P-GPS,
11900,2022-10-12 10:39:03,45.4390178891281,9.05610235601578,9.4,,,129.2862,9.5,0,0.0257681,0.925412,16,5,21.928,129.2862,9.4,0.1,0.313182,0,0,-1.9,68.1, -0.6, 1.4,0,0,1024,1024,1380,1024,0,0,54,0,0,0,27,3.638,3.663,3.655,3.655,3.664,3.653,0,,129.2862,9.4,6,P-GPS,
12000,2022-10-12 10:39:03,45.4390178948458,9.05610237629765,9.6,,,129.4862,9.7,0,0.024263,0.927117,16,5,21.928,129.4862,9.6,0.1,0.313182,0,0,-1.9,68.1, -0.6, 1.3,0,0,1024,1024,1396,996,0,0,56,-4,0,0,27,3.638,3.663,3.655,3.655,3.664,3.653,0,,129.4862,9.6,6,P-GPS,
12100,2022-10-12 10:39:03,45.4390179255593,9.05610240354643,9.8,,,129.6862,9.9,0,0.0228693,0.93114,16,5,21.928,129.6862,9.8,0.1,0.313182,0,0,-1.8,68.1, -0.5, 1.1,0,0,1024,1024,1395,982,0,0,56,-6,0,0,27,3.638,3.663,3.655,3.655,3.664,3.653,0,,129.6862,9.8,6,P-GPS,
12200,2022-10-12 10:39:03,45.4390179397601,9.05610244054583,10,,,129.8862,10.1,0,0.0206728,0.934431,16,5,21.928,129.8862,10,0.1,0.313182,0,0,-1.7,68.1, -0.3, 1,0,0,1024,1024,1394,977,0,0,56,-7,0,0,27,3.638,3.663,3.655,3.655,3.664,3.653,0,,129.8862,10,6,P-GPS,
12300,2022-10-12 10:39:03,45.4390179017591,9.05610250516104,10.2,,,130.0862,10.2,0,0.0145197,0.94101,16,5,21.928,130.0862,10.2,0.1,0.313182,0,0,-1.7,68.1, -0.3, 0.8,0,0,1024,1024,1382,924,0,0,54,-15,0,0,27,3.638,3.663,3.655,3.655,3.664,3.653,0,,130.0862,10.2,6,P-GPS,
12400,2022-10-12 10:39:03,45.4390178635194,9.05610257269656,10.3,,,130.1862,10.4,0,0.00876484,0.947781,17,5,21.928,130.1862,10.3,0.1,0.313182,0,0,-1.7,68, -0.3, 0.6,0,0,1024,1024,1375,871,0,0,53,-23,0,0,27,3.638,3.663,3.655,3.655,3.664,3.653,0,,130.1862,10.3,6,P-GPS,
12500,2022-10-12 10:39:04,45.4390178143787,9.05610265082285,10.5,,,130.3862,10.6,0,0.00651209,0.955968,17,5,21.928,130.3862,10.5,0.1,0.313182,0,0,-1.7,67.9, -0.4, 0.5,0,0,1024,1024,1370,841,0,0,52,-28,0,0,27,3.638,3.663,3.655,3.655,3.664,3.653,0,,130.3862,10.5,6,P-GPS,
12600,2022-10-12 10:39:04,45.4390177786429,9.05610272377318,10.7,,,130.5862,10.7,0,0.0103746,0.962911,17,5,21.928,130.5862,10.7,0.1,0.313182,0,0,-1.6,67.7, -0.4, 0.3,0,0,1024,1024,1357,861,0,0,50,-25,0,0,27,3.638,3.663,3.655,3.655,3.664,3.653,0,,130.5862,10.7,6,P-GPS,
12700,2022-10-12 10:39:04,45.4390178038314,9.05610278792291,10.8,,,130.6862,10.9,0,0.0107406,0.968647,17,5,21.837,130.6862,10.8,0.1,0.313182,0,0,-1.5,67.1, -0.2, 0,0,0,1024,1024,1371,888,0,0,53,-21,0,0,27,3.622,3.648,3.64,3.64,3.649,3.638,0,,130.6862,10.8,6,P-GPS,
12800,2022-10-12 10:39:04,45.4390178775075,9.05610287255369,11,,,130.8862,11.1,0,0.0146855,0.97917,17,5,21.837,130.8862,11,0.1,0.313182,0,0,-1.5,66.5, 0, -0.2,0,0,1024,1024,1361,908,0,0,51,-18,0,0,27,3.622,3.648,3.64,3.64,3.649,3.638,0,,130.8862,11,6,P-GPS,
12900,2022-10-12 10:39:04,45.439017912456,9.05610289833277,11.1,,,130.9862,11.2,0,0.0173807,0.983546,17,5,21.837,130.9862,11.1,0.1,0.313182,0,0,-1.4,66, 0, -0.2,0,0,1024,1024,1361,996,0,0,51,-4,0,0,27,3.622,3.648,3.64,3.64,3.649,3.638,0,,130.9862,11.1,6,P-GPS,
13000,2022-10-12 10:39:04,45.4390179468337,9.05610290838023,11.3,,,131.1862,11.4,0,0.0195286,0.987449,17,5,21.837,131.1862,11.3,0.1,0.313182,0,0,-1.4,65.7, 0, -0.1,0,0,1024,1024,1364,997,0,0,52,-4,0,0,27,3.622,3.648,3.64,3.64,3.649,3.638,0,,131.1862,11.3,6,P-GPS,
13100,2022-10-12 10:39:04,45.4390179370526,9.05610290101042,11.4,,,131.2862,11.5,0,0.0185395,0.988679,17,5,21.837,131.2862,11.4,0.1,0.313182,0,0,-1.4,65.5, -0.2, 0.2,0,0,1024,1024,1356,962,0,0,50,-9,0,0,27,3.622,3.648,3.64,3.64,3.649,3.638,0,,131.2862,11.4,6,P-GPS,
13200,2022-10-12 10:39:04,45.4390178990966,9.05610284494321,11.6,,,131.4862,11.6,0,0.0129661,0.994758,17,5,21.837,131.4862,11.6,0.1,0.313182,0,0,-1.3,65.5, -0.3, 0.6,0,0,1024,1024,1349,936,0,0,49,-13,0,0,27,3.622,3.648,3.64,3.64,3.649,3.638,0,,131.4862,11.6,6,P-GPS,
13300,2022-10-12 10:39:04,45.4390179062738,9.05610283670806,11.7,,,131.5862,11.8,0,0.0125961,0.995783,17,5,21.837,131.5862,11.7,0.1,0.313182,0,0,-1.3,65.4, -0.3, 0.8,0,0,1024,1024,1329,966,0,0,46,-9,0,0,27,3.622,3.648,3.64,3.64,3.649,3.638,0,,131.5862,11.7,6,P-GPS,
13400,2022-10-12 10:39:04,45.4390179081168,9.0561028383525,11.8,,,131.6862,11.9,0,0.0127872,0.996025,17,5,21.837,131.6862,11.8,0.1,0.313182,0,0,-1.3,65.3, -0.3, 1,0,0,1024,1024,1357,990,0,0,50,-5,0,0,27,3.622,3.648,3.64,3.64,3.649,3.638,0,,131.6862,11.8,6,P-GPS,
13500,2022-10-12 10:39:04,45.4390179004403,9.05610286198886,12,,,131.8862,12,0,0.0142891,0.998057,17,5,21.837,131.8862,12,0.1,0.313182,0,0,-1.3,65.1, -0.2, 0.8,0,0,1024,1024,1395,1024,0,0,56,0,0,0,27,3.622,3.648,3.64,3.64,3.649,3.638,0,,131.8862,12,6,P-GPS,
13600,2022-10-12 10:39:05,45.4390178379209,9.05610297088859,12.1,,,131.9862,12.1,0,0.022566,1.00904,17,5,21.837,131.9862,12.1,0.1,0.313182,0,0,-1.2,65, -0.2, 0.4,0,0,1024,1024,1399,1024,0,0,57,0,0,0,27,3.622,3.648,3.64,3.64,3.649,3.638,0,,131.9862,12.1,6,P-GPS,
13700,2022-10-12 10:39:05,45.4390178008768,9.05610301989198,12.2,,,132.0862,12.1,0,0.0271831,1.01466,17,5,21.854,132.0862,12.2,0.1,0.313182,0,0,-1.3,65, -0.3, 0.2,0,0,1024,1024,1414,1024,0,0,59,0,0,0,27,3.625,3.651,3.643,3.643,3.652,3.64,0,,132.0862,12.2,6,P-GPS,
13800,2022-10-12 10:39:05,45.4390177709422,9.05610304564054,12.3,,,132.1862,12.1,0,0.0301442,1.01855,17,5,21.854,132.1862,12.3,0.1,0.313182,0,0,-1.4,65, -0.5, 0.1,0,0,1024,1024,1428,1024,0,0,61,0,0,0,27,3.625,3.651,3.643,3.643,3.652,3.64,0,,132.1862,12.3,6,P-GPS,
13900,2022-10-12 10:39:05,45.439017749718,9.05610299011664,12.5,,,132.3862,12.1,0,0.027202,1.02348,17,5,21.854,132.3862,12.5,0.1,0.313182,0,0,-1.5,65, -0.7, 0.1,0,0,1024,1024,1432,1024,0,0,62,0,0,0,27,3.625,3.651,3.643,3.643,3.652,3.64,0,,132.3862,12.5,6,P-GPS,
14000,2022-10-12 10:39:05,45.4390177528227,9.05610292875519,12.6,,,132.4862,12.1,0,0.0229308,1.02828,17,5,21.854,132.4862,12.6,0.1,0.313182,0,0,-1.6,65, -0.7, 0,0,0,1024,1024,1442,1024,0,0,63,0,0,0,27,3.625,3.651,3.643,3.643,3.652,3.64,0,,132.4862,12.6,6,P-GPS,
14100,2022-10-12 10:39:05,45.4390178607042,9.05610283212883,12.8,,,132.6862,12.1,0,0.0115193,1.04245,17,5,21.854,132.6862,12.8,0.1,0.313182,0,0,-1.8,65.1, -0.9, 0.2,0,0,1024,1024,1444,1024,0,0,64,0,0,0,27,3.625,3.651,3.643,3.643,3.652,3.64,0,,132.6862,12.8,6,P-GPS,
14200,2022-10-12 10:39:05,45.4390179550046,9.05610274671209,13,,,132.8862,12.1,0,0.0108277,1.05487,17,5,21.854,132.8862,13,0.1,0.313182,0,0,-1.9,65, -0.9, 0.4,0,0,1024,1024,1453,1024,0,0,65,0,0,0,27,3.625,3.651,3.643,3.643,3.652,3.64,0,,132.8862,13,6,P-GPS,
14300,2022-10-12 10:39:05,45.439017915045,9.05610269592462,13.2,,,133.0862,12.1,0,0.00531923,1.06083,17,5,21.854,133.0862,13.2,0.1,0.313182,0,0,-2,65, -0.7, 0.2,0,0,1024,1024,1447,1024,0,0,64,0,0,0,27,3.625,3.651,3.643,3.643,3.652,3.64,0,,133.0862,13.2,6,P-GPS,
14400,2022-10-12 10:39:05,45.4390178860245,9.05610265280991,13.4,,,133.2862,12.1,0,0.00321525,1.06549,17,5,21.854,133.2862,13.4,0.1,0.313182,0,0,-2,65, -0.6, -0.2,0,0,1024,1024,1452,1024,0,0,65,0,0,0,27,3.625,3.651,3.643,3.643,3.652,3.64,0,,133.2862,13.4,6,P-GPS,
14500,2022-10-12 10:39:05,45.4390177727654,9.05610264498148,13.6,,,133.4862,12.1,0,0.011022,1.0781,17,5,21.854,133.4862,13.6,0.1,0.313182,0,0,-2.1,65, -0.6, -0.2,0,0,1024,1024,1455,1024,0,0,65,0,0,0,27,3.625,3.651,3.643,3.643,3.652,3.64,0,,133.4862,13.6,6,P-GPS,
14600,2022-10-12 10:39:06,45.4390178190026,9.05610263591382,13.8,,,133.6862,12.1,0,0.00663991,1.08329,17,5,21.854,133.6862,13.8,0.1,0.313182,0,0,-2.1,65, -0.6, 0.3,0,0,1024,1024,1460,1024,0,0,66,0,0,0,27,3.625,3.651,3.643,3.643,3.652,3.64,0,,133.6862,13.8,6,P-GPS,
14700,2022-10-12 10:39:06,45.4390178941093,9.05610263365205,14,,,133.8862,12.1,0,0.00494885,1.09164,17,5,21.772,133.8862,14,0.1,0.313182,0,0,-2.1,64.9, -0.6, 1.1,0,0,1024,1024,1467,1024,0,0,67,0,0,0,27,3.613,3.643,3.626,3.626,3.639,3.625,0,,133.8862,14,6,P-GPS,
14800,2022-10-12 10:39:06,45.4390179650087,9.05610262844633,14.3,,,134.1862,12.1,0,0.011667,1.09954,17,5,21.772,134.1862,14.3,0.1,0.313182,0,0,-2.2,64.9, -0.5, 1.7,0,0,1024,1024,1465,1024,0,0,67,0,0,0,27,3.613,3.643,3.626,3.626,3.639,3.625,0,,134.1862,14.3,6,P-GPS,
14900,2022-10-12 10:39:06,45.4390180123612,9.05610269889528,14.5,,,134.3862,12.1,0,0.0161081,1.10715,17,5,21.772,134.3862,14.5,0.1,0.313182,0,0,-2.2,64.9, -0.5, 1.8,0,0,1024,1024,1465,1024,0,0,67,0,0,0,27,3.613,3.643,3.626,3.626,3.639,3.625,0,,134.3862,14.5,6,P-GPS,
15000,2022-10-12 10:39:06,45.4390180601677,9.05610269134691,14.7,,,134.5862,12.1,0,0.0213931,1.1125,17,5,21.772,134.5862,14.7,0.1,0.313182,0,0,-2.3,64.9, -0.6, 1.5,0,0,1024,1024,1456,1024,0,0,65,0,0,0,27,3.613,3.643,3.626,3.626,3.639,3.625,0,,134.5862,14.7,6,P-GPS,
15100,2022-10-12 10:39:06,45.4390181179392,9.05610265268782,15,,,134.8862,12.1,0,0.0279247,1.1196,17,5,21.772,134.8862,15,0.1,0.313182,0,0,-2.3,64.9, -0.7, 1.3,0,0,1024,1024,1457,1024,0,0,66,0,0,0,27,3.613,3.643,3.626,3.626,3.639,3.625,0,,134.8862,15,6,P-GPS,
15200,2022-10-12 10:39:06,45.4390181623672,9.05610263040668,15.2,,,135.0862,12.1,0,0.0330267,1.12484,17,5,21.772,135.0862,15.2,0.1,0.313182,0,0,-2.3,64.9, -0.6, 1.3,0,0,1024,1024,1504,1024,0,0,73,0,0,0,27,3.613,3.643,3.626,3.626,3.639,3.625,0,,135.0862,15.2,6,P-GPS,
15300,2022-10-12 10:39:06,45.4390180876017,9.05610261804099,15.5,,,135.3862,12.1,0,0.0249879,1.13321,17,5,21.772,135.3862,15.5,0.1,0.313182,0,0,-2.3,64.9, -0.5, 1.4,0,0,1024,1024,1560,1024,0,0,81,0,0,0,27,3.613,3.643,3.626,3.626,3.639,3.625,0,,135.3862,15.5,6,P-GPS,
15400,2022-10-12 10:39:06,45.4390180767986,9.05610263761167,15.7,,,135.5862,12.1,0,0.0235272,1.13515,17,5,21.772,135.5862,15.7,0.1,0.313182,0,0,-2.3,65, -0.6, 1.5,0,0,1024,1024,1570,1024,0,0,83,0,0,0,27,3.613,3.643,3.626,3.626,3.639,3.625,0,,135.5862,15.7,6,P-GPS,
15500,2022-10-12 10:39:06,45.4390180746537,9.05610269048387,15.9,,,135.7862,12.1,0,0.0230023,1.13928,17,5,21.772,135.7862,15.9,0.1,0.313182,0,0,-2.5,65.1, -0.7, 1.2,0,0,1024,1024,1552,1024,0,0,80,0,0,0,27,3.613,3.643,3.626,3.626,3.639,3.625,0,,135.7862,15.9,6,P-GPS,
15600,2022-10-12 10:39:07,45.4390180729253,9.0561027525359,16.2,,,136.0862,12.1,0,0.0234094,1.14413,17,5,21.772,136.0862,16.2,0.1,0.313182,0,0,-2.7,65.1, -0.9, 0.9,0,0,1024,1024,1562,1024,0,0,82,0,0,0,27,3.613,3.643,3.626,3.626,3.639,3.625,0,,136.0862,16.2,6,P-GPS,
15700,2022-10-12 10:39:07,45.4390180919451,9.05610288170605,16.5,,,136.3862,12.1,0,0.0292745,1.15443,17,5,21.772,136.3862,16.5,0.1,0.313182,0,0,-3,65.1, -0.8, 0.9,0,0,1024,1024,1550,1024,0,0,80,0,0,0,27,3.613,3.643,3.626,3.626,3.639,3.625,0,,136.3862,16.5,6,P-GPS,
15800,2022-10-12 10:39:07,45.4390181195474,9.05610294789168,16.8,,,136.6862,12.1,0,0.0347093,1.16043,17,5,21.75,136.6862,16.8,0.1,0.313182,0,0,-3.1,65.1, -0.6, 1,0,0,1024,1024,1539,1024,0,0,78,0,0,0,27,3.605,3.635,3.625,3.625,3.637,3.623,0,,136.6862,16.8,6,P-GPS,
15900,2022-10-12 10:39:07,45.4390181226124,9.05610300198939,17.1,,,136.9862,12.1,0,0.0376169,1.16467,17,5,21.75,136.9862,17.1,0.1,0.313182,0,0,-3.2,65.1, -0.5, 0.9,0,0,1024,1024,1533,1024,0,0,77,0,0,0,27,3.605,3.635,3.625,3.625,3.637,3.623,0,,136.9862,17.1,6,P-GPS,
16000,2022-10-12 10:39:07,45.4390181236487,9.0561030612249,17.5,,,137.3862,12.1,0,0.0408864,1.16929,17,5,21.75,137.3862,17.5,0.1,0.313182,0,0,-3.3,65.1, -0.4, 0.5,0,0,1024,1024,1521,1024,0,0,75,0,0,0,27,3.605,3.635,3.625,3.625,3.637,3.623,0,,137.3862,17.5,6,P-GPS,
16100,2022-10-12 10:39:07,45.4390181317488,9.05610313489938,17.8,,,137.6862,12.1,0,0.0457654,1.17511,17,5,21.75,137.6862,17.8,0.1,0.313182,0,0,-3.3,65.1, -0.2, 0.4,0,0,1024,1024,1529,1024,0,0,77,0,0,0,27,3.605,3.635,3.625,3.625,3.637,3.623,0,,137.6862,17.8,6,P-GPS,
16200,2022-10-12 10:39:07,45.4390181013567,9.05610318761668,18.1,,,137.9862,12.1,0,0.0470462,1.18044,17,5,21.75,137.9862,18.1,0.1,0.313182,0,0,-3.2,65.1, 0, 0.8,0,0,1024,1024,1524,1024,0,0,76,0,0,0,27,3.605,3.635,3.625,3.625,3.637,3.623,0,,137.9862,18.1,6,P-GPS,
16300,2022-10-12 10:39:07,45.4390181288579,9.05610322025966,18.5,,,138.3862,12.1,0,0.0508711,1.18442,17,5,21.75,138.3862,18.5,0.1,0.313182,0,0,-3.1,65.1, 0, 1,0,0,1024,1024,1524,1024,0,0,76,0,0,0,27,3.605,3.635,3.625,3.625,3.637,3.623,0,,138.3862,18.5,6,P-GPS,
16400,2022-10-12 10:39:07,45.4390181534417,9.05610324206692,18.8,,,138.6862,12.1,0,0.0538435,1.18764,17,5,21.75,138.6862,18.8,0.1,0.313182,0,0,-3.1,65.1, 0, 1.3,0,0,1024,1024,1524,1024,0,0,76,0,0,0,27,3.605,3.635,3.625,3.625,3.637,3.623,0,,138.6862,18.8,6,P-GPS,
16500,2022-10-12 10:39:07,45.4390181676454,9.05610327932348,19.1,,,138.9862,12.1,0,0.0571244,1.19094,17,5,21.75,138.9862,19.1,0.1,0.313182,0,0,-3,65, -0.4, 1.3,0,0,1024,1024,1526,1024,0,0,76,0,0,0,27,3.605,3.635,3.625,3.625,3.637,3.623,0,,138.9862,19.1,6,P-GPS,
16600,2022-10-12 10:39:08,45.4390181403146,9.05610334999296,19.4,,,139.2862,12.1,0,0.060098,1.19724,17,5,21.75,139.2862,19.4,0.1,0.313182,0,0,-3,65, -0.7, 0.9,0,0,1024,1024,1529,1024,0,0,77,0,0,0,27,3.605,3.635,3.625,3.625,3.637,3.623,0,,139.2862,19.4,6,P-GPS,
16700,2022-10-12 10:39:08,45.4390181319951,9.05610330848911,19.7,,,139.5862,12.1,0,0.0568408,1.20061,17,5,21.75,139.5862,19.7,0.1,0.313182,0,0,-3,65, -1, 0.5,0,0,1024,1024,1533,1024,0,0,77,0,0,0,27,3.605,3.635,3.625,3.625,3.637,3.623,0,,139.5862,19.7,6,P-GPS,
16800,2022-10-12 10:39:08,45.4390181310976,9.05610327191093,20,,,139.8862,12.1,0,0.0543635,1.20346,17,5,21.723,139.8862,20,0.1,0.313182,0,0,-3,65, -1.2, 0.3,0,0,1024,1024,1523,1024,0,0,76,0,0,0,27,3.6,3.631,3.62,3.62,3.632,3.62,0,,139.8862,20,6,P-GPS,
16900,2022-10-12 10:39:08,45.4390181364273,9.05610324127103,20.3,,,140.1862,12.1,0,0.0526984,1.20593,17,5,21.723,140.1862,20.3,0.1,0.313182,0,0,-3,65.1, -1.1, 0.4,0,0,1024,1024,1523,1024,0,0,76,0,0,0,27,3.6,3.631,3.62,3.62,3.632,3.62,0,,140.1862,20.3,6,P-GPS,
17000,2022-10-12 10:39:08,45.4390180899055,9.05610307014376,20.6,,,140.4862,12.1,0,0.0389057,1.22025,17,5,21.723,140.4862,20.6,0.1,0.313182,0,0,-3,65.1, -1, 0.7,0,0,1024,1024,1523,1024,0,0,76,0,0,0,27,3.6,3.631,3.62,3.62,3.632,3.62,0,,140.4862,20.6,6,P-GPS,
17100,2022-10-12 10:39:08,45.4390180830272,9.05610309423034,20.9,,,140.7862,12.1,0,0.0399124,1.22228,17,5,21.723,140.7862,20.9,0.1,0.313182,0,0,-3,65.2, -0.6, 1.1,0,0,1024,1024,1517,1024,0,0,75,0,0,0,27,3.6,3.631,3.62,3.62,3.632,3.62,0,,140.7862,20.9,6,P-GPS,
17200,2022-10-12 10:39:08,45.4390180641714,9.05610313841336,21.3,,,141.1862,12.1,0,0.0415835,1.22631,17,5,21.723,141.1862,21.3,0.1,0.313182,0,0,-3,65.2, -0.1, 1.1,0,0,1024,1024,1517,1024,0,0,75,0,0,0,27,3.6,3.631,3.62,3.62,3.632,3.62,0,,141.1862,21.3,6,P-GPS,
17300,2022-10-12 10:39:08,45.4390180348144,9.05610322607661,21.5,,,141.3862,12.1,0,0.046133,1.23389,17,5,21.723,141.3862,21.5,0.1,0.313182,0,0,-2.9,65.1, 0, 1,0,0,1024,1024,1507,1024,0,0,73,0,0,0,27,3.6,3.631,3.62,3.62,3.632,3.62,0,,141.3862,21.5,6,P-GPS,
17400,2022-10-12 10:39:08,45.4390178305876,9.05610344769451,21.8,,,141.6862,12.1,0,0.0596683,1.26244,17,5,21.723,141.6862,21.8,0.1,0.313182,0,0,-2.9,65.1, -0.3, 0.9,0,0,1024,1024,1506,1024,0,0,73,0,0,0,27,3.6,3.631,3.62,3.62,3.632,3.62,0,,141.6862,21.8,6,P-GPS,
17500,2022-10-12 10:39:08,45.4390178298597,9.0561034831151,22.2,,,142.0862,12.1,0,0.0624312,1.2652,17,5,21.723,142.0862,22.2,0.1,0.313182,0,0,-2.9,65, -0.7, 0.7,0,0,1024,1024,1503,1024,0,0,73,0,0,0,27,3.6,3.631,3.62,3.62,3.632,3.62,0,,142.0862,22.2,6,P-GPS,
17600,2022-10-12 10:39:09,45.4390178320772,9.05610350578845,22.4,,,142.2862,12.1,0,0.0641807,1.26699,17,5,21.723,142.2862,22.4,0.1,0.313182,0,0,-2.8,65, -1.1, 0.5,0,0,1024,1024,1502,1024,0,0,72,0,0,0,27,3.6,3.631,3.62,3.62,3.632,3.62,0,,142.2862,22.4,6,P-GPS,
17700,2022-10-12 10:39:09,45.4390178371557,9.05610351042339,22.7,,,142.5862,12.1,0,0.0645093,1.26766,17,5,21.723,142.5862,22.7,0.1,0.313182,0,0,-2.8,65, -1.2, 0.3,0,0,1024,1024,1500,1024,0,0,72,0,0,0,27,3.6,3.631,3.62,3.62,3.632,3.62,0,,142.5862,22.7,6,P-GPS,
17800,2022-10-12 10:39:09,45.4390178644531,9.05610351721632,23,,,142.8862,12.1,0,0.0649501,1.27074,17,5,21.723,142.8862,23,0.1,0.313182,0,0,-2.8,65, -1.2, 0.1,0,0,1024,1024,1497,1024,0,0,72,0,0,0,27,3.6,3.631,3.62,3.62,3.632,3.62,0,,142.8862,23,6,P-GPS,
17900,2022-10-12 10:39:09,45.4390178979752,9.05610341390767,23.3,,,143.1862,12.1,0,0.0569865,1.27962,17,5,21.733,143.1862,23.3,0.1,0.313182,0,0,-2.7,65, -1.2, 0.7,0,0,1024,1024,1495,1024,0,0,71,0,0,0,27,3.603,3.631,3.62,3.621,3.636,3.622,0,,143.1862,23.3,6,P-GPS,
18000,2022-10-12 10:39:09,45.4390179663457,9.0561033771433,23.6,,,143.4862,12.1,0,0.0551185,1.28775,17,5,21.733,143.4862,23.6,0.1,0.313182,0,0,-2.7,65, -1.1, 1.2,0,0,1024,1024,1496,1024,0,0,72,0,0,0,27,3.603,3.631,3.62,3.621,3.636,3.622,0,,143.4862,23.6,6,P-GPS,
18100,2022-10-12 10:39:09,45.4390180064353,9.05610336461584,23.9,,,143.7862,12.1,0,0.0552353,1.29231,17,5,21.733,143.7862,23.9,0.1,0.313182,0,0,-2.7,64.9, -1, 1.6,0,0,1024,1024,1493,1024,0,0,71,0,0,0,27,3.603,3.631,3.62,3.621,3.636,3.622,0,,143.7862,23.9,6,P-GPS,
18200,2022-10-12 10:39:09,45.4390180577403,9.05610336733621,24.1,,,143.9862,12.1,0,0.057288,1.29802,17,5,21.733,143.9862,24.1,0.1,0.313182,0,0,-2.7,65, -0.7, 1.7,0,0,1024,1024,1489,1024,0,0,70,0,0,0,27,3.603,3.631,3.62,3.621,3.636,3.622,0,,143.9862,24.1,6,P-GPS,
18300,2022-10-12 10:39:09,45.4390181738005,9.05610338619647,24.4,,,144.2862,12.1,0,0.06444,1.31101,17,5,21.733,144.2862,24.4,0.1,0.313182,0,0,-2.7,65, -0.6, 1.5,0,0,1024,1024,1493,1024,0,0,71,0,0,0,27,3.603,3.631,3.62,3.621,3.636,3.622,0,,144.2862,24.4,6,P-GPS,
18400,2022-10-12 10:39:09,45.439018279513,9.05610340653175,24.7,,,144.5862,12.1,0,0.0725731,1.32287,17,5,21.733,144.5862,24.7,0.1,0.313182,0,0,-2.6,65, -0.7, 1.8,0,0,1024,1024,1490,1024,0,0,71,0,0,0,27,3.603,3.631,3.62,3.621,3.636,3.622,0,,144.5862,24.7,6,P-GPS,
18500,2022-10-12 10:39:09,45.4390183685319,9.05610343389118,24.9,,,144.7862,12.1,0,0.0807232,1.333,17,5,21.733,144.7862,24.9,0.1,0.313182,0,0,-2.6,65, -0.7, 2.1,0,0,1024,1024,1488,1024,0,0,70,0,0,0,27,3.603,3.631,3.62,3.621,3.636,3.622,0,,144.7862,24.9,6,P-GPS,
18600,2022-10-12 10:39:10,45.4390184345184,9.05610347373762,25.2,,,145.0862,12.1,0,0.0880929,1.34097,17,5,21.733,145.0862,25.2,0.1,0.313182,0,0,-2.6,65, -0.7, 2.2,0,0,1024,1024,1486,1024,0,0,70,0,0,0,27,3.603,3.631,3.62,3.621,3.636,3.622,0,,145.0862,25.2,6,P-GPS,
18700,2022-10-12 10:39:10,45.4390184172506,9.05610356142986,25.5,,,145.3862,12.1,0,0.0917129,1.34808,17,5,21.733,145.3862,25.5,0.1,0.313182,0,0,-2.6,65, -0.5, 2,0,0,1024,1024,1485,1024,0,0,70,0,0,0,27,3.603,3.631,3.62,3.621,3.636,3.622,0,,145.3862,25.5,6,P-GPS,
18800,2022-10-12 10:39:10,45.4390184207569,9.05610363347976,25.7,,,145.5862,12.1,0,0.0962276,1.35371,17,5,21.792,145.5862,25.7,0.1,0.313182,0,0,-2.5,65.1, -0.2, 1.7,0,0,1024,1024,1485,1024,0,0,70,0,0,0,27,3.613,3.64,3.631,3.631,3.644,3.633,0,,145.5862,25.7,6,P-GPS,
18900,2022-10-12 10:39:10,45.4390183977009,9.05610373740345,26,,,145.8862,12.1,0,0.101081,1.36222,17,5,21.792,145.8862,26,0.1,0.313182,0,0,-2.5,65.1, -0.1, 1.4,0,0,1024,1024,1486,1024,0,0,70,0,0,0,27,3.613,3.64,3.631,3.631,3.644,3.633,0,,145.8862,26,6,P-GPS,
19000,2022-10-12 10:39:10,45.4390183698257,9.05610382400449,26.2,,,146.0862,12.1,0,0.104963,1.36965,18,5,21.792,146.0862,26.2,0.1,0.313182,0,0,-2.5,65.1, -0.3, 1,0,0,1024,1024,1485,1024,0,0,70,0,0,0,27,3.613,3.64,3.631,3.631,3.644,3.633,0,,146.0862,26.2,6,P-GPS,
19100,2022-10-12 10:39:10,45.4390182469123,9.05610386771516,26.5,,,146.3862,12.1,0,0.101469,1.38374,18,5,21.792,146.3862,26.5,0.1,0.313182,0,0,-2.5,65, -0.4, 0.5,0,0,1024,1024,1487,1024,0,0,70,0,0,0,27,3.613,3.64,3.631,3.631,3.644,3.633,0,,146.3862,26.5,6,P-GPS,
19200,2022-10-12 10:39:10,45.4390182251506,9.05610390281907,26.7,,,146.5862,12.1,0,0.103009,1.3874,18,5,21.792,146.5862,26.7,0.1,0.313182,0,0,-2.5,64.9, -0.4, 0,0,0,1024,1024,1485,1024,0,0,70,0,0,0,27,3.613,3.64,3.631,3.631,3.644,3.633,0,,146.5862,26.7,6,P-GPS,
19300,2022-10-12 10:39:10,45.4390182517804,9.05610397591972,27,,,146.8862,12.1,0,0.109416,1.39382,18,5,21.792,146.8862,27,0.1,0.313182,0,0,-2.5,64.9, -0.6, 0,0,0,1024,1024,1485,1024,0,0,70,0,0,0,27,3.613,3.64,3.631,3.631,3.644,3.633,0,,146.8862,27,6,P-GPS,
19400,2022-10-12 10:39:10,45.4390182953687,9.05610403032419,27.3,,,147.1862,12.1,0,0.11525,1.40027,18,5,21.792,147.1862,27.3,0.1,0.313182,0,0,-2.5,64.9, -0.9, 0.6,0,0,1024,1024,1487,1024,0,0,70,0,0,0,26,3.613,3.64,3.631,3.631,3.644,3.633,0,,147.1862,27.3,6,P-GPS,
19500,2022-10-12 10:39:10,45.4390183380506,9.05610406002016,27.5,,,147.3862,12.1,0,0.119366,1.40555,18,5,21.792,147.3862,27.5,0.1,0.313182,0,0,-2.5,64.9, -1, 1.2,0,0,1024,1024,1485,1024,0,0,70,0,0,0,26,3.613,3.64,3.631,3.631,3.644,3.633,0,,147.3862,27.5,6,P-GPS,
19600,2022-10-12 10:39:11,45.4390184556919,9.05610410242902,27.8,,,147.6862,12.1,0,0.128486,1.41904,18,5,21.792,147.6862,27.8,0.1,0.313182,0,0,-2.5,64.9, -0.6, 1.5,0,0,1024,1024,1484,1024,0,0,70,0,0,0,26,3.613,3.64,3.631,3.631,3.644,3.633,0,,147.6862,27.8,6,P-GPS,
19700,2022-10-12 10:39:11,45.4390185703001,9.05610415530351,28,,,147.8862,12.1,0,0.138807,1.43244,18,5,21.792,147.8862,28,0.1,0.313182,0,0,-2.5,64.9, -0.2, 1.7,0,0,1024,1024,1484,1024,0,0,70,0,0,0,26,3.613,3.64,3.631,3.631,3.644,3.633,0,,147.8862,28,6,P-GPS,
19800,2022-10-12 10:39:11,45.439018668121,9.05610421345926,28.3,,,148.1862,12.1,0,0.148819,1.44423,18,5,21.792,148.1862,28.3,0.1,0.313182,0,0,-2.5,64.9, 0.1, 1.7,0,0,1024,1024,1484,1024,0,0,70,0,0,0,26,3.613,3.64,3.631,3.631,3.644,3.633,0,,148.1862,28.3,6,P-GPS,
19900,2022-10-12 10:39:11,45.4390187042855,9.05610424316363,28.5,,,148.3862,12.1,0,0.153093,1.44887,18,5,21.783,148.3862,28.5,0.1,0.313182,0,0,-2.5,64.9, 0.3, 1.5,0,0,1024,1024,1483,1024,0,0,70,0,0,0,26,3.613,3.638,3.63,3.631,3.641,3.63,0,,148.3862,28.5,6,P-GPS,
20000,2022-10-12 10:39:11,45.4390187595416,9.05610418105818,28.8,,,148.6862,12.1,0,0.153177,1.45669,18,5,21.783,148.6862,28.8,0.1,0.313182,0,0,-2.5,64.9, 0.4, 1.4,0,0,1024,1024,1481,1024,0,0,69,0,0,0,26,3.613,3.638,3.63,3.631,3.641,3.63,0,,148.6862,28.8,6,P-GPS,
20100,2022-10-12 10:39:11,45.4390188270197,9.05610427280847,29,,,148.8862,12.1,0,0.163495,1.46707,18,5,21.783,148.8862,29,0.1,0.313182,0,0,-2.5,64.9, 0.2, 1.3,0,0,1024,1024,1484,1024,0,0,70,0,0,0,26,3.613,3.638,3.63,3.631,3.641,3.63,0,,148.8862,29,6,P-GPS,
20200,2022-10-12 10:39:11,45.4390188839171,9.05610435792303,29.3,,,149.1862,12.1,0,0.172657,1.47624,18,5,21.783,149.1862,29.3,0.1,0.313182,0,0,-2.5,64.9, 0, 1.5,0,0,1024,1024,1486,1024,0,0,70,0,0,0,26,3.613,3.638,3.63,3.631,3.641,3.63,0,,149.1862,29.3,6,P-GPS,
20300,2022-10-12 10:39:11,45.4390188994561,9.05610441432142,29.6,,,149.4862,12.1,0,0.177123,1.48097,18,5,21.783,149.4862,29.6,0.1,0.313182,0,0,-2.5,64.9, -0.1, 1.4,0,0,1024,1024,1484,1024,0,0,70,0,0,0,26,3.613,3.638,3.63,3.631,3.641,3.63,0,,149.4862,29.6,6,P-GPS,
20400,2022-10-12 10:39:11,45.439018939767,9.05610458403242,29.8,,,149.6862,12.1,0,0.190186,1.49495,18,5,21.783,149.6862,29.8,0.1,0.313182,0,0,-2.5,64.9, -0.1, 1,0,0,1024,1024,1481,1024,0,0,69,0,0,0,26,3.613,3.638,3.63,3.631,3.641,3.63,0,,149.6862,29.8,6,P-GPS,
20500,2022-10-12 10:39:12,45.4390188901166,9.05610467866791,30.1,,,149.9862,12.1,0,0.192686,1.50417,18,5,21.783,149.9862,30.1,0.1,0.313182,0,0,-2.5,64.9, 0, 0.7,0,0,1024,1024,1477,1024,0,0,69,0,0,0,26,3.613,3.638,3.63,3.631,3.641,3.63,0,,149.9862,30.1,6,P-GPS,
20600,2022-10-12 10:39:12,45.4390188408734,9.05610477208706,30.3,,,150.1862,12.1,0,0.195535,1.51328,18,5,21.783,150.1862,30.3,0.1,0.313182,0,0,-2.5,64.9, 0.1, 0.5,0,0,1024,1024,1474,1024,0,0,68,0,0,0,26,3.613,3.638,3.63,3.631,3.641,3.63,0,,150.1862,30.3,6,P-GPS,
20700,2022-10-12 10:39:12,45.4390188027426,9.05610483882058,30.6,,,150.4862,12.1,0,0.19763,1.52,18,5,21.783,150.4862,30.6,0.1,0.313182,0,0,-2.5,64.9, 0.3, 0.7,0,0,1024,1024,1454,1024,0,0,65,0,0,0,26,3.613,3.638,3.63,3.631,3.641,3.63,0,,150.4862,30.6,6,P-GPS,
20800,2022-10-12 10:39:12,45.4390187732582,9.05610488915326,30.8,,,150.6862,12.1,0,0.199304,1.52512,18,5,21.783,150.6862,30.8,0.1,0.313182,0,0,-2.5,64.9, 0.4, 1,0,0,1024,1024,1467,1024,0,0,67,0,0,0,26,3.613,3.638,3.63,3.631,3.641,3.63,0,,150.6862,30.8,6,P-GPS,
20900,2022-10-12 10:39:12,45.4390187822067,9.05610492073556,31.1,,,150.9862,12.1,0,0.201934,1.52777,18,5,21.783,150.9862,31.1,0.1,0.313182,0,0,-2.4,64.9, 0.4, 1.1,0,0,1024,1024,1479,1024,0,0,69,0,0,0,26,3.613,3.638,3.63,3.631,3.641,3.63,0,,150.9862,31.1,6,P-GPS,
21000,2022-10-12 10:39:12,45.4390187831083,9.05610494645818,31.3,,,151.1862,12.1,0,0.203721,1.52978,18,5,21.783,151.1862,31.3,0.1,0.313182,0,0,-2.3,65, 0.2, 0.8,0,0,1024,1024,1483,1024,0,0,70,0,0,0,26,3.613,3.638,3.63,3.631,3.641,3.63,0,,151.1862,31.3,6,P-GPS,
21100,2022-10-12 10:39:12,45.4390187783208,9.05610499481677,31.6,,,151.4862,12.1,0,0.206737,1.53359,18,5,21.783,151.4862,31.6,0.1,0.313182,0,0,-2.3,65, 0, 0.5,0,0,1024,1024,1466,1024,0,0,67,0,0,0,26,3.613,3.638,3.63,3.631,3.641,3.63,0,,151.4862,31.6,6,P-GPS,
21200,2022-10-12 10:39:12,45.4390187727591,9.05610503020988,31.8,,,151.6862,12.1,0,0.20885,1.53642,18,5,21.783,151.6862,31.8,0.1,0.313182,0,0,-2.4,65.1, -0.1, 0.2,0,0,1024,1024,1468,1024,0,0,67,0,0,0,26,3.613,3.638,3.63,3.631,3.641,3.63,0,,151.6862,31.8,6,P-GPS,
21300,2022-10-12 10:39:12,45.4390187865433,9.05610509476024,32.1,,,151.9862,12.1,0,0.214005,1.54169,18,5,21.783,151.9862,32.1,0.1,0.313182,0,0,-2.4,65, -0.1, 0.3,0,0,1024,1024,1466,1024,0,0,67,0,0,0,26,3.613,3.638,3.63,3.631,3.641,3.63,0,,151.9862,32.1,6,P-GPS,
21400,2022-10-12 10:39:12,45.439018778215,9.0561051035158,32.3,,,152.1862,12.1,0,0.214167,1.54284,18,5,21.783,152.1862,32.3,0.1,0.313182,0,0,-2.4,65, 0, 0.4,0,0,1024,1024,1460,1024,0,0,66,0,0,0,26,3.613,3.638,3.63,3.631,3.641,3.63,0,,152.1862,32.3,6,P-GPS,
21500,2022-10-12 10:39:13,45.4390187751336,9.05610511537328,32.6,,,152.4862,12.1,0,0.214821,1.54383,18,5,21.783,152.4862,32.6,0.1,0.313182,0,0,-2.4,65, 0, 0.5,0,0,1024,1024,1461,1024,0,0,66,0,0,0,26,3.613,3.638,3.63,3.631,3.641,3.63,0,,152.4862,32.6,6,P-GPS,
21600,2022-10-12 10:39:13,45.4390187716544,9.05610511076353,32.8,,,152.6862,12.1,0,0.214322,1.54435,18,5,21.783,152.6862,32.8,0.1,0.313182,0,0,-2.3,65, -0.1, 0.5,0,0,1024,1024,1463,1024,0,0,67,0,0,0,26,3.613,3.638,3.63,3.631,3.641,3.63,0,,152.6862,32.8,6,P-GPS,
21700,2022-10-12 10:39:13,45.4390187847442,9.05610511726648,33,,,152.8862,12.1,0,0.215455,1.5459,18,5,21.783,152.8862,33,0.1,0.313182,0,0,-2.3,65, -0.3, 0.4,0,0,1024,1024,1468,1024,0,0,67,0,0,0,26,3.613,3.638,3.63,3.631,3.641,3.63,0,,152.8862,33,6,P-GPS,
21800,2022-10-12 10:39:13,45.4390187946293,9.05610510433153,33.3,,,153.1862,12.1,0,0.215091,1.54739,17,5,21.783,153.1862,33.3,0.1,0.313182,0,0,-2.3,65, -0.6, 0.5,0,0,1024,1024,1470,1024,0,0,68,0,0,0,26,3.613,3.638,3.63,3.631,3.641,3.63,0,,153.1862,33.3,6,P-GPS,
21900,2022-10-12 10:39:13,45.4390188127923,9.05610506572815,33.5,,,153.3862,12.1,0,0.213439,1.55102,17,5,21.849,153.3862,33.5,0.1,0.313182,0,0,-2.3,65, -0.7, 0.8,0,0,1024,1024,1467,1024,0,0,67,0,0,0,26,3.628,3.648,3.641,3.641,3.651,3.64,0,,153.3862,33.5,6,P-GPS,
22000,2022-10-12 10:39:13,45.4390188384261,9.05610503775215,33.7,,,153.5862,12.1,0,0.212973,1.55461,18,5,21.849,153.5862,33.7,0.1,0.313182,0,0,-2.3,65, -0.7, 0.9,0,0,1024,1024,1468,1024,0,0,67,0,0,0,26,3.628,3.648,3.641,3.641,3.651,3.64,0,,153.5862,33.7,6,P-GPS,
22200,2022-10-12 10:39:13,45.4390189426982,9.05610497598856,34.2,,,154.0862,12.1,0,0.215055,1.56716,18,5,21.849,154.0862,34.2,0.1,0.313182,0,0,-2.3,65, -0.6, 1.5,0,0,1024,1024,1467,1024,0,0,67,0,0,0,26,3.628,3.648,3.641,3.641,3.651,3.64,0,,154.0862,34.2,6,P-GPS,
22300,2022-10-12 10:39:13,45.4390189843955,9.05610494523725,34.5,,,154.3862,12.1,0,0.2157,1.57238,18,5,21.849,154.3862,34.5,0.1,0.313182,0,0,-2.3,65, -0.4, 1.8,0,0,1024,1024,1465,1024,0,0,67,0,0,0,26,3.628,3.648,3.641,3.641,3.651,3.64,0,,154.3862,34.5,6,P-GPS,
22400,2022-10-12 10:39:13,45.4390190230289,9.05610493393453,34.7,,,154.5862,12.1,0,0.217489,1.57677,18,5,21.849,154.5862,34.7,0.1,0.313182,0,0,-2.3,65, -0.2, 2,0,0,1024,1024,1464,1024,0,0,67,0,0,0,26,3.628,3.648,3.641,3.641,3.651,3.64,0,,154.5862,34.7,6,P-GPS,
22500,2022-10-12 10:39:13,45.4390191024426,9.05610498656025,35,,,154.8862,12.1,0,0.226067,1.58651,18,5,21.849,154.8862,35,0.1,0.313182,0,0,-2.3,65, -0.1, 1.8,0,0,1024,1024,1464,1024,0,0,67,0,0,0,26,3.628,3.648,3.641,3.641,3.651,3.64,0,,154.8862,35,6,P-GPS,
22600,2022-10-12 10:39:14,45.4390191177527,9.0561050286387,35.2,,,155.0862,12.1,0,0.229711,1.59021,18,5,21.849,155.0862,35.2,0.1,0.313182,0,0,-2.3,65, -0.1, 1.1,0,0,1024,1024,1467,1024,0,0,67,0,0,0,26,3.628,3.648,3.641,3.641,3.651,3.64,0,,155.0862,35.2,6,P-GPS,
22700,2022-10-12 10:39:14,45.4390190825464,9.0561050636808,35.4,,,155.2862,12.1,0,0.229568,1.59498,18,5,21.849,155.2862,35.4,0.1,0.313182,0,0,-2.3,65, -0.2, 0.6,0,0,1024,1024,1468,1024,0,0,67,0,0,0,26,3.628,3.648,3.641,3.641,3.651,3.64,0,,155.2862,35.4,6,P-GPS,
